[{"id":"LA-625230123900732","state":"LA","stateName":"Louisiana","countyFips":"103","facilityCarried":"CSWY BRIDGE N. B.","featuresIntersected":"LAKE PONTCHARTRAIN","location":"CAUSEWAY - NORTH BOUND","lat":30.181944,"lon":-90.595833,"lengthFt":12726.9,"yearBuilt":1965,"adt":18830,"lowestRating":5,"conditionCategory":"fair","structurallyDeficient":false,"materialName":"Steel","designTypeName":"Movable - Bascule"},{"id":"LA-625230123900731","state":"LA","stateName":"Louisiana","countyFips":"103","facilityCarried":"CAUSEWAY SB","featuresIntersected":"LAKE PONTCHARTRAIN","location":"CAUSEWAY SOUTHBOUND","lat":31.749167,"lon":-91.154722,"lengthFt":12720.0,"yearBuilt":1956,"adt":18830,"lowestRating":6,"conditionCategory":"fair","structurallyDeficient":false,"materialName":"Steel","designTypeName":"Movable - Bascule"},{"id":"LA-624804520100002","state":"LA","stateName":"Louisiana","countyFips":"095","facilityCarried":"I0055","featuresIntersected":"I-10 & US 51 & SWAMP","location":"11 Mi S of LA 22","lat":31.723056,"lon":-90.506111,"lengthFt":7671.4,"yearBuilt":1975,"adt":24000,"lowestRating":7,"conditionCategory":"good","structurallyDeficient":false,"materialName":"Prestressed Concrete","designTypeName":"Stringer/Multi-beam or Girder"},{"id":"LA-624804520100001","state":"LA","stateName":"Louisiana","countyFips":"095","facilityCarried":"I0055","featuresIntersected":"I-55 OVER US 51 & SWAMP","location":"I055","lat":30.313056,"lon":-91.850833,"lengthFt":7583.1,"yearBuilt":1975,"adt":24000,"lowestRating":6,"conditionCategory":"fair","structurallyDeficient":false,"materialName":"Prestressed Concrete","designTypeName":"Stringer/Multi-beam or Girder"},{"id":"LA-024504501400002","state":"LA","stateName":"Louisiana","countyFips":"089","facilityCarried":"I0010","featuresIntersected":"BONNET CARRE SPILLWAY","location":"1.9 MI EAST OF I-55","lat":30.675,"lon":-91.609722,"lengthFt":5081.4,"yearBuilt":1972,"adt":32050,"lowestRating":6,"conditionCategory":"fair","structurallyDeficient":false,"materialName":"Steel","designTypeName":"Stringer/Multi-beam or Girder"},{"id":"LA-024504501400001","state":"LA","stateName":"Louisiana","countyFips":"089","facilityCarried":"I0010","featuresIntersected":"BONNET CARRE SPILLWAY","location":"1.9 MI EAST OF I-55","lat":31.338889,"lon":-91.420278,"lengthFt":5077.2,"yearBuilt":1972,"adt":48723,"lowestRating":6,"conditionCategory":"fair","structurallyDeficient":false,"materialName":"Steel","designTypeName":"Stringer/Multi-beam or Girder"},{"id":"LA-625304529000581","state":"LA","stateName":"Louisiana","countyFips":"105","facilityCarried":"I0055","featuresIntersected":"ELEVATED RDWY","location":"11.0 M S OF LA 22","lat":30.9,"lon":-90.661111,"lengthFt":4212.5,"yearBuilt":1979,"adt":39850,"lowestRating":7,"conditionCategory":"good","structurallyDeficient":false,"materialName":"Prestressed Concrete","designTypeName":"Stringer/Multi-beam or Girder"},{"id":"LA-625304529000582","state":"LA","stateName":"Louisiana","countyFips":"105","facilityCarried":"I0055","featuresIntersected":"MANCHAC INT/SERVICE RD","location":"11.0 M S OF LA 22","lat":30.523056,"lon":-91.869722,"lengthFt":4212.5,"yearBuilt":1979,"adt":17665,"lowestRating":7,"conditionCategory":"good","structurallyDeficient":false,"materialName":"Prestressed Concrete","designTypeName":"Stringer/Multi-beam or Girder"},{"id":"LA-612404500700651","state":"LA","stateName":"Louisiana","countyFips":"047","facilityCarried":"I0010","featuresIntersected":"LA975 E FLOODWAY LA3000","location":"5.6 Mi E of La3177 Onramp","lat":31.985833,"lon":-91.726944,"lengthFt":4199.6,"yearBuilt":1972,"adt":21450,"lowestRating":6,"conditionCategory":"fair","structurallyDeficient":false,"materialName":"Prestressed Concrete","designTypeName":"Stringer/Multi-beam or Girder"},{"id":"LA-612404500700652","state":"LA","stateName":"Louisiana","countyFips":"047","facilityCarried":"I0010","featuresIntersected":"EAST FLOODWAY","location":"0.2 M W OF I-10&LA3000","lat":30.493056,"lon":-92.218056,"lengthFt":4199.6,"yearBuilt":1972,"adt":1585,"lowestRating":6,"conditionCategory":"fair","structurallyDeficient":false,"materialName":"Prestressed Concrete","designTypeName":"Stringer/Multi-beam or Girder"},{"id":"AL-011931","state":"AL","stateName":"Alabama","countyFips":"097","facilityCarried":"I-10 EB","featuresIntersected":"MOBILE BAY * US 90","location":"EAST TUNNEL INTERCHANGE","lat":31.535278,"lon":-89.238333,"lengthFt":3972.8,"yearBuilt":1978,"adt":32384,"lowestRating":5,"conditionCategory":"fair","structurallyDeficient":false,"materialName":"Steel Continuous","designTypeName":"Stringer/Multi-beam or Girder"},{"id":"AL-011930","state":"AL","stateName":"Alabama","countyFips":"097","facilityCarried":"I-10 WB","featuresIntersected":"M. BAY 90 98 I10WB RAMP","location":"EAST TUNNEL INTERCHANGE","lat":31.55,"lon":-89.241667,"lengthFt":3972.3,"yearBuilt":1978,"adt":32387,"lowestRating":5,"conditionCategory":"fair","structurallyDeficient":false,"materialName":"Steel Continuous","designTypeName":"Stringer/Multi-beam or Girder"},{"id":"CA-35 0054","state":"CA","stateName":"California","countyFips":"081","facilityCarried":"STATE ROUTE 92","featuresIntersected":"SAN FRANCISCO BAY","location":"04-SM-092-R14.44-FSTC","lat":38.255278,"lon":-123.484722,"lengthFt":3606.9,"yearBuilt":1967,"adt":120000,"lowestRating":4,"conditionCategory":"poor","structurallyDeficient":true,"materialName":"Steel","designTypeName":"Orthotropic"},{"id":"FL-900101","state":"FL","stateName":"Florida","countyFips":"087","facilityCarried":"US 1 (SR 5)","featuresIntersected":"MOSER CHANNEL","location":"MARATHON KEY (MM 40-46.6)","lat":26.252222,"lon":-81.419722,"lengthFt":3586.8,"yearBuilt":1982,"adt":11300,"lowestRating":5,"conditionCategory":"fair","structurallyDeficient":false,"materialName":"Prestressed Concrete Continuous","designTypeName":"Segmental Box Girder"},{"id":"AL-012322","state":"AL","stateName":"Alabama","countyFips":"097","facilityCarried":"I-65 NB","featuresIntersected":"MOBILE RIVER DELTA","location":"5.5 MI N E US 43","lat":31.776667,"lon":-88.886389,"lengthFt":3210.6,"yearBuilt":1980,"adt":11884,"lowestRating":5,"conditionCategory":"fair","structurallyDeficient":false,"materialName":"Steel","designTypeName":"Arch - Thru"},{"id":"AL-012321","state":"AL","stateName":"Alabama","countyFips":"097","facilityCarried":"I-65 SB","featuresIntersected":"MOBILE RIVER DELTA","location":"5.5 MI N E US 43","lat":31.822778,"lon":-88.900556,"lengthFt":3209.8,"yearBuilt":1980,"adt":11884,"lowestRating":5,"conditionCategory":"fair","structurallyDeficient":false,"materialName":"Steel","designTypeName":"Arch - Thru"},{"id":"LA-025504240708361","state":"LA","stateName":"Louisiana","countyFips":"109","facilityCarried":"US0090","featuresIntersected":"DRAIN CANALS LA.20 RR","location":".5 MI EAST OF LA 311","lat":30.413889,"lon":-92.339722,"lengthFt":2954.4,"yearBuilt":1995,"adt":4014,"lowestRating":5,"conditionCategory":"fair","structurallyDeficient":false,"materialName":"Prestressed Concrete Continuous","designTypeName":"Stringer/Multi-beam or Girder"},{"id":"LA-025504240708362","state":"LA","stateName":"Louisiana","countyFips":"109","facilityCarried":"US0090","featuresIntersected":"DRAINAGE CANALS LA.20 RR","location":".5 MI EAST OF LA 311","lat":29.691944,"lon":-91.9,"lengthFt":2954.4,"yearBuilt":1995,"adt":3007,"lowestRating":6,"conditionCategory":"fair","structurallyDeficient":false,"materialName":"Prestressed Concrete Continuous","designTypeName":"Stringer/Multi-beam or Girder"},{"id":"LA-023600000020468","state":"LA","stateName":"Louisiana","countyFips":"071","facilityCarried":"I0010","featuresIntersected":"LAKE PONCHARTRAIN","location":"3.1 MI SW OF LA 433","lat":31.458056,"lon":-90.769722,"lengthFt":2920.2,"yearBuilt":2011,"adt":1600,"lowestRating":7,"conditionCategory":"good","structurallyDeficient":false,"materialName":"Steel Continuous","designTypeName":"Stringer/Multi-beam or Girder"},{"id":"LA-023600000020467","state":"LA","stateName":"Louisiana","countyFips":"071","facilityCarried":"I0010","featuresIntersected":"LAKE PONCHARTRAIN","location":"0.5 MI NE OF LA 11","lat":30.470833,"lon":-90.409722,"lengthFt":2918.8,"yearBuilt":2011,"adt":87741,"lowestRating":7,"conditionCategory":"good","structurallyDeficient":false,"materialName":"Steel Continuous","designTypeName":"Stringer/Multi-beam or Girder"},{"id":"LA-022900000020469","state":"LA","stateName":"Louisiana","countyFips":"057","facilityCarried":"LA3235","featuresIntersected":"WETLANDS","location":"S OF LEEVILLE TO JCT LA1","lat":29.961944,"lon":-91.336667,"lengthFt":2904.0,"yearBuilt":2012,"adt":3305,"lowestRating":6,"conditionCategory":"fair","structurallyDeficient":false,"materialName":"Concrete","designTypeName":"Box Beam - Multiple"},{"id":"LA-022602830900002","state":"LA","stateName":"Louisiana","countyFips":"051","facilityCarried":"US0090-B","featuresIntersected":"HARVEY CANAL/STS/RR","location":"1.4 MI WEST OF LA 23","lat":30.918056,"lon":-90.135833,"lengthFt":2903.2,"yearBuilt":1987,"adt":101282,"lowestRating":5,"conditionCategory":"fair","structurallyDeficient":false,"materialName":"Steel Continuous","designTypeName":"Box Beam - Multiple"},{"id":"LA-022602830900001","state":"LA","stateName":"Louisiana","countyFips":"051","facilityCarried":"US0090-B","featuresIntersected":"HARVEY CANAL/STS/RR","location":"1.4 MI WEST OF LA 23","lat":30.913056,"lon":-90.664167,"lengthFt":2903.1,"yearBuilt":1987,"adt":67143,"lowestRating":5,"conditionCategory":"fair","structurallyDeficient":false,"materialName":"Steel","designTypeName":"Box Beam - Multiple"},{"id":"NC-000000000550054","state":"NC","stateName":"North Carolina","countyFips":"055","facilityCarried":"US64 US264BYP","featuresIntersected":"CROATAN SOUND","location":"0.10 MI. E. JCT. SR1105","lat":36.060833,"lon":-77.143889,"lengthFt":2758.0,"yearBuilt":2002,"adt":5500,"lowestRating":7,"conditionCategory":"good","structurallyDeficient":false,"materialName":"Prestressed Concrete Continuous","designTypeName":"Stringer/Multi-beam or Girder"},{"id":"LA-024504503600412","state":"LA","stateName":"Louisiana","countyFips":"089","facilityCarried":"I0310","featuresIntersected":"US 61/RR/SWAMP/LA 626","location":"0.41 M SOUTH OF I-10","lat":31.284167,"lon":-90.950278,"lengthFt":2575.5,"yearBuilt":1992,"adt":20850,"lowestRating":5,"conditionCategory":"fair","structurallyDeficient":false,"materialName":"Prestressed Concrete","designTypeName":"Stringer/Multi-beam or Girder"},{"id":"LA-024504503600401","state":"LA","stateName":"Louisiana","countyFips":"089","facilityCarried":"I0310","featuresIntersected":"US 61/RR/SWAMP/LA 626","location":"0.41 M SOUTH OF I-10","lat":30.268889,"lon":-91.369722,"lengthFt":2567.2,"yearBuilt":1992,"adt":20850,"lowestRating":6,"conditionCategory":"fair","structurallyDeficient":false,"materialName":"Prestressed Concrete","designTypeName":"Stringer/Multi-beam or Girder"},{"id":"LA-023600180200001","state":"LA","stateName":"Louisiana","countyFips":"071","facilityCarried":"US0011","featuresIntersected":"LAKE PONTCHARTRAIN","location":".01 MI NORTH OF I-10","lat":30.693889,"lon":-90.457222,"lengthFt":2492.2,"yearBuilt":1938,"adt":3912,"lowestRating":3,"conditionCategory":"poor","structurallyDeficient":true,"materialName":"Steel","designTypeName":"Movable - Bascule"},{"id":"AL-015508","state":"AL","stateName":"Alabama","countyFips":"097","facilityCarried":"I-165 NB","featuresIntersected":"MULTIPLE STREETS STREAMS","location":"DN TWN MOB TO CHICKASAW","lat":30.969722,"lon":-88.965,"lengthFt":2451.3,"yearBuilt":1994,"adt":21946,"lowestRating":5,"conditionCategory":"fair","structurallyDeficient":false,"materialName":"Prestressed Concrete Continuous","designTypeName":"Stringer/Multi-beam or Girder"},{"id":"VA-000000000026628","state":"VA","stateName":"Virginia","countyFips":"131","facilityCarried":"ROUTE 13 SBL","featuresIntersected":"CHES. BAY - TRESTLE C","location":"4.46NHMPTN CO1012NCL VA B","lat":38.551667,"lon":-77.004722,"lengthFt":2433.6,"yearBuilt":1998,"adt":5424,"lowestRating":7,"conditionCategory":"good","structurallyDeficient":false,"materialName":"Prestressed Concrete","designTypeName":"Stringer/Multi-beam or Girder"},{"id":"AL-015574","state":"AL","stateName":"Alabama","countyFips":"097","facilityCarried":"I-165 SB","featuresIntersected":"MULTIPLE STREETS STREAMS","location":"CHICKASAW TO DWN TWN MOB","lat":30.925833,"lon":-88.998889,"lengthFt":2433.4,"yearBuilt":1994,"adt":21946,"lowestRating":6,"conditionCategory":"fair","structurallyDeficient":false,"materialName":"Prestressed Concrete Continuous","designTypeName":"Stringer/Multi-beam or Girder"},{"id":"VA-000000000012755","state":"VA","stateName":"Virginia","countyFips":"131","facilityCarried":"ROUTE 13 NBL","featuresIntersected":"CHES. BAY - TRESTLE C","location":"4.46NHMPTN CO1012NCL VA B","lat":38.543889,"lon":-76.988611,"lengthFt":2411.1,"yearBuilt":1964,"adt":5424,"lowestRating":7,"conditionCategory":"good","structurallyDeficient":false,"materialName":"Concrete","designTypeName":"Tee Beam"},{"id":"LA-035004500609931","state":"LA","stateName":"Louisiana","countyFips":"099","facilityCarried":"I0010","featuresIntersected":"W ATCHAFALAYA FLOODWAY","location":"2.5 MI EAST OF LA 347","lat":30.981944,"lon":-92.65,"lengthFt":2344.0,"yearBuilt":1971,"adt":37370,"lowestRating":6,"conditionCategory":"fair","structurallyDeficient":false,"materialName":"Steel Continuous","designTypeName":"Girder and Floorbeam"},{"id":"LA-035004500609932","state":"LA","stateName":"Louisiana","countyFips":"099","facilityCarried":"I0010","featuresIntersected":"W ATCHAFALAYA FLOODWAY","location":"4.47 Mi W of LA 3177","lat":31.281944,"lon":-92.169167,"lengthFt":2344.0,"yearBuilt":1971,"adt":1585,"lowestRating":6,"conditionCategory":"fair","structurallyDeficient":false,"materialName":"Steel Continuous","designTypeName":"Stringer/Multi-beam or Girder"},{"id":"VA-000000000010364","state":"VA","stateName":"Virginia","countyFips":"700","facilityCarried":"US 17","featuresIntersected":"James River","location":"0.91 Mi. fr. Rte. 60","lat":37.053333,"lon":-77.681667,"lengthFt":2320.0,"yearBuilt":1980,"adt":34140,"lowestRating":5,"conditionCategory":"fair","structurallyDeficient":false,"materialName":"Steel","designTypeName":"Movable - Lift"},{"id":"CA-53 1301","state":"CA","stateName":"California","countyFips":"037","facilityCarried":"RTE 10 & RAMPS","featuresIntersected":"RTE 110 & 29 STREETS","location":"07-LA-010-14.23-LA","lat":34.373333,"lon":-118.387778,"lengthFt":2191.8,"yearBuilt":1959,"adt":287000,"lowestRating":5,"conditionCategory":"fair","structurallyDeficient":false,"materialName":"Concrete Continuous","designTypeName":"Box Beam - Multiple"},{"id":"FL-150189","state":"FL","stateName":"Florida","countyFips":"103","facilityCarried":"I-275 (SR 93)","featuresIntersected":"TAMPA BAY","location":"5.5MI N OF US-41","lat":27.989444,"lon":-83.229167,"lengthFt":2187.7,"yearBuilt":1986,"adt":65215,"lowestRating":7,"conditionCategory":"good","structurallyDeficient":false,"materialName":"Prestressed Concrete Continuous","designTypeName":"Cable-Stayed"},{"id":"CA-34 0046","state":"CA","stateName":"California","countyFips":"075","facilityCarried":"INTERSTATE 280","featuresIntersected":"CALTRAIN UP RR CITY STS","location":"04-SF-280-R4.40L-SF","lat":37.958611,"lon":-122.974167,"lengthFt":2158.8,"yearBuilt":1965,"adt":107000,"lowestRating":5,"conditionCategory":"fair","structurallyDeficient":false,"materialName":"Concrete Continuous","designTypeName":"Box Beam - Multiple"},{"id":"LA-035004500614951","state":"LA","stateName":"Louisiana","countyFips":"099","facilityCarried":"I0010","featuresIntersected":"E ATCHAFALAYA FLOODWAY","location":"7.56 MI EAST OF LA 347","lat":31.531111,"lon":-92.876944,"lengthFt":2158.5,"yearBuilt":1972,"adt":42449,"lowestRating":6,"conditionCategory":"fair","structurallyDeficient":false,"materialName":"Prestressed Concrete Continuous","designTypeName":"Stringer/Multi-beam or Girder"},{"id":"LA-035004500614952","state":"LA","stateName":"Louisiana","countyFips":"099","facilityCarried":"I0010","featuresIntersected":"E ATCHAFALAYA FLOODWAY","location":"0.8 Mi W. Of La 975","lat":31.651111,"lon":-92.994167,"lengthFt":2158.5,"yearBuilt":1972,"adt":1585,"lowestRating":6,"conditionCategory":"fair","structurallyDeficient":false,"materialName":"Prestressed Concrete Continuous","designTypeName":"Stringer/Multi-beam or Girder"},{"id":"FL-490100","state":"FL","stateName":"Florida","countyFips":"037","facilityCarried":"SR300","featuresIntersected":"St George Sound","location":"EASTPOINT","lat":30.083333,"lon":-84.933333,"lengthFt":2154.2,"yearBuilt":2003,"adt":5700,"lowestRating":6,"conditionCategory":"fair","structurallyDeficient":false,"materialName":"Prestressed Concrete Continuous","designTypeName":"Stringer/Multi-beam or Girder"},{"id":"CA-28 0100","state":"CA","stateName":"California","countyFips":"013","facilityCarried":"INTERSTATE 580","featuresIntersected":"SAN PABLO BAY","location":"04-CC-580-6.22-RCH","lat":39.5125,"lon":-122.9325,"lengthFt":2134.5,"yearBuilt":1956,"adt":80000,"lowestRating":5,"conditionCategory":"fair","structurallyDeficient":false,"materialName":"Steel","designTypeName":"Truss - Thru"},{"id":"MD-300000AAZ050013","state":"MD","stateName":"Maryland","countyFips":"003","facilityCarried":"US RTE 50  EB","featuresIntersected":"CHESAPEAKE BAY","location":"6 MI E OF MD RTE 2","lat":39.836389,"lon":-76.815833,"lengthFt":2128.9,"yearBuilt":1951,"adt":38923,"lowestRating":6,"conditionCategory":"fair","structurallyDeficient":false,"materialName":"Steel","designTypeName":"Suspension"},{"id":"MD-300000AAZ050014","state":"MD","stateName":"Maryland","countyFips":"003","facilityCarried":"US RTE 50 WB","featuresIntersected":"CHESAPEAKE BAY","location":"6 MI E OF MD RTE 2","lat":39.103611,"lon":-77.0,"lengthFt":2105.1,"yearBuilt":1973,"adt":39114,"lowestRating":6,"conditionCategory":"fair","structurallyDeficient":false,"materialName":"Steel","designTypeName":"Suspension"},{"id":"MS-11000100300654A","state":"MS","stateName":"Mississippi","countyFips":"059","facilityCarried":"I 10","featuresIntersected":"PASCAGOULA RIVER","location":"4.4 MI W  SR 613","lat":30.954722,"lon":-88.580833,"lengthFt":2092.9,"yearBuilt":1976,"adt":26000,"lowestRating":6,"conditionCategory":"fair","structurallyDeficient":false,"materialName":"Steel","designTypeName":"Box Beam - Multiple"},{"id":"MS-11000100300654B","state":"MS","stateName":"Mississippi","countyFips":"059","facilityCarried":"I 10","featuresIntersected":"PASCAGOULA RIVER","location":"4.4 MI W SR 613","lat":30.8575,"lon":-88.617778,"lengthFt":2092.9,"yearBuilt":1976,"adt":26000,"lowestRating":6,"conditionCategory":"fair","structurallyDeficient":false,"materialName":"Steel","designTypeName":"Box Beam - Multiple"},{"id":"CA-34 0003","state":"CA","stateName":"California","countyFips":"075","facilityCarried":"INTERSTATE 80","featuresIntersected":"SAN FRANCISCO BAY  3 STS","location":"04-SF-080-6.35L-SF","lat":38.0925,"lon":-123.108333,"lengthFt":2060.8,"yearBuilt":1936,"adt":200000,"lowestRating":5,"conditionCategory":"fair","structurallyDeficient":false,"materialName":"Steel","designTypeName":"Suspension"},{"id":"TX-180570019603470","state":"TX","stateName":"Texas","countyFips":"113","facilityCarried":"IH35E IH635 N E DC","featuresIntersected":"JOES CRK W NW HWY ETC","location":"IH 35E @ IH 635","lat":33.904722,"lon":-97.738611,"lengthFt":2057.2,"yearBuilt":2014,"adt":45000,"lowestRating":6,"conditionCategory":"fair","structurallyDeficient":false,"materialName":"Steel","designTypeName":"Stringer/Multi-beam or Girder"},{"id":"OK-332450000000000","state":"OK","stateName":"Oklahoma","countyFips":"121","facilityCarried":"E1530","featuresIntersected":"CREEK","location":"1.4 E 2 N OF ASHLAND","lat":36.113056,"lon":-96.682222,"lengthFt":2000.0,"yearBuilt":2023,"adt":100,"lowestRating":7,"conditionCategory":"good","structurallyDeficient":false,"materialName":"Steel","designTypeName":"Culvert"},{"id":"VA-000000000026075","state":"VA","stateName":"Virginia","countyFips":"131","facilityCarried":"ROUTE 13 SBL","featuresIntersected":"CHES. BAY - TRESTLE B","location":"1050NHMPTN CO0489NCL VA B","lat":37.090833,"lon":-76.628611,"lengthFt":1999.7,"yearBuilt":1998,"adt":5424,"lowestRating":7,"conditionCategory":"good","structurallyDeficient":false,"materialName":"Prestressed Concrete","designTypeName":"Stringer/Multi-beam or Girder"},{"id":"VA-000000000012750","state":"VA","stateName":"Virginia","countyFips":"131","facilityCarried":"ROUTE 13 NBL","featuresIntersected":"CHES. BAY - TRESTLE B","location":"1050NHMPTN CO0489NCL VA B","lat":37.088889,"lon":-76.609444,"lengthFt":1979.8,"yearBuilt":1964,"adt":5424,"lowestRating":4,"conditionCategory":"poor","structurallyDeficient":true,"materialName":"Prestressed Concrete","designTypeName":"Stringer/Multi-beam or Girder"},{"id":"LA-023604509004362","state":"LA","stateName":"Louisiana","countyFips":"071","facilityCarried":"I0010","featuresIntersected":"CITY STREETS","location":".8 MI EAST OF US 90","lat":31.528056,"lon":-91.029722,"lengthFt":1977.2,"yearBuilt":1969,"adt":1600,"lowestRating":6,"conditionCategory":"fair","structurallyDeficient":false,"materialName":"Steel","designTypeName":"Stringer/Multi-beam or Girder"},{"id":"FL-570091","state":"FL","stateName":"Florida","countyFips":"091","facilityCarried":"SR293","featuresIntersected":"Choctawhatchee Bay","location":"1.0 Miles North of US98","lat":31.605833,"lon":-86.658611,"lengthFt":1926.5,"yearBuilt":1993,"adt":22500,"lowestRating":6,"conditionCategory":"fair","structurallyDeficient":false,"materialName":"Prestressed Concrete Continuous","designTypeName":"Segmental Box Girder"},{"id":"MI-000000000002456","state":"MI","stateName":"Michigan","countyFips":"047","facilityCarried":"I-75","featuresIntersected":"STRAITS OF MACKINAC","location":"MACKINAW CITY-ST IGNACE","lat":46.183889,"lon":-85.530556,"lengthFt":1924.8,"yearBuilt":1957,"adt":11076,"lowestRating":7,"conditionCategory":"good","structurallyDeficient":false,"materialName":"Steel","designTypeName":"Suspension"},{"id":"LA-613900080306461","state":"LA","stateName":"Louisiana","countyFips":"077","facilityCarried":"US0190","featuresIntersected":"MORGANZA FLDWY","location":"US0190","lat":31.18,"lon":-93.186667,"lengthFt":1877.8,"yearBuilt":1945,"adt":12942,"lowestRating":6,"conditionCategory":"fair","structurallyDeficient":false,"materialName":"Concrete","designTypeName":"Tee Beam"},{"id":"LA-624804501305151","state":"LA","stateName":"Louisiana","countyFips":"095","facilityCarried":"I0010","featuresIntersected":"RESERVE RELIEF CANAL","location":"I 10","lat":31.365833,"lon":-91.971667,"lengthFt":1873.1,"yearBuilt":1974,"adt":44074,"lowestRating":6,"conditionCategory":"fair","structurallyDeficient":false,"materialName":"Prestressed Concrete","designTypeName":"Stringer/Multi-beam or Girder"},{"id":"LA-624804501305152","state":"LA","stateName":"Louisiana","countyFips":"095","facilityCarried":"I0010","featuresIntersected":"RESERVE RELIEF CANAL","location":"I 10","lat":30.858889,"lon":-91.005833,"lengthFt":1873.1,"yearBuilt":1974,"adt":27551,"lowestRating":7,"conditionCategory":"good","structurallyDeficient":false,"materialName":"Prestressed Concrete","designTypeName":"Stringer/Multi-beam or Girder"},{"id":"NY-000000001065318","state":"NY","stateName":"New York","countyFips":"047","facilityCarried":"RTE I278","featuresIntersected":"15th Street WB  17th Str","location":"JCT PROSPECT EXPY & I278","lat":40.841944,"lon":-74.030833,"lengthFt":1847.2,"yearBuilt":1962,"adt":181470,"lowestRating":4,"conditionCategory":"poor","structurallyDeficient":true,"materialName":"Steel","designTypeName":"Stringer/Multi-beam or Girder"},{"id":"NC-000000001870015","state":"NC","stateName":"North Carolina","countyFips":"187","facilityCarried":"NC32 NC37 NC94","featuresIntersected":"ALBEMARLE SOUND","location":"0.1 MI. N. JCT. SR1315","lat":35.986111,"lon":-76.601111,"lengthFt":1846.1,"yearBuilt":1990,"adt":4000,"lowestRating":4,"conditionCategory":"poor","structurallyDeficient":true,"materialName":"Prestressed Concrete Continuous","designTypeName":"Segmental Box Girder"},{"id":"FL-580174","state":"FL","stateName":"Florida","countyFips":"113","facilityCarried":"SR281 Avalon Blvd.","featuresIntersected":"East Bay","location":"0.9mi. North of US98","lat":30.816667,"lon":-87.802222,"lengthFt":1842.5,"yearBuilt":1999,"adt":6500,"lowestRating":6,"conditionCategory":"fair","structurallyDeficient":false,"materialName":"Prestressed Concrete Continuous","designTypeName":"Segmental Box Girder"},{"id":"LA-023600000020465","state":"LA","stateName":"Louisiana","countyFips":"071","facilityCarried":"I0010","featuresIntersected":"CITY STREETS","location":"0.5 MI NE OF US 90B","lat":30.53,"lon":-91.459722,"lengthFt":1824.6,"yearBuilt":1969,"adt":47100,"lowestRating":6,"conditionCategory":"fair","structurallyDeficient":false,"materialName":"Steel","designTypeName":"Stringer/Multi-beam or Girder"},{"id":"AL-012835","state":"AL","stateName":"Alabama","countyFips":"097","facilityCarried":"SR 193","featuresIntersected":"MISS. SOUND * D.I. BAY","location":".80 MI N OF BIENVILLE AVE","lat":31.794444,"lon":-89.690556,"lengthFt":1781.4,"yearBuilt":1982,"adt":5641,"lowestRating":4,"conditionCategory":"poor","structurallyDeficient":true,"materialName":"Prestressed Concrete Continuous","designTypeName":"Segmental Box Girder"},{"id":"TX-211090M00027001","state":"TX","stateName":"Texas","countyFips":"215","facilityCarried":"ANZALDUAS INTER","featuresIntersected":"RIO GRANDE RIVER","location":"0.16 MILE S OF FM 1016","lat":26.946111,"lon":-99.603056,"lengthFt":1778.2,"yearBuilt":2009,"adt":6500,"lowestRating":7,"conditionCategory":"good","structurallyDeficient":false,"materialName":"Prestressed Concrete","designTypeName":"Stringer/Multi-beam or Girder"},{"id":"VA-000000000026056","state":"VA","stateName":"Virginia","countyFips":"810","facilityCarried":"ROUTE 13 SBL","featuresIntersected":"CB & LOOKOUT RD - TRES A","location":"1581NHMPTN CO0.00NCL VA B","lat":38.564444,"lon":-77.5175,"lengthFt":1760.8,"yearBuilt":1998,"adt":5424,"lowestRating":8,"conditionCategory":"good","structurallyDeficient":false,"materialName":"Prestressed Concrete","designTypeName":"Stringer/Multi-beam or Girder"},{"id":"VA-000000000012747","state":"VA","stateName":"Virginia","countyFips":"810","facilityCarried":"ROUTE 13 NBL","featuresIntersected":"CB & LOOKOUT RD - TRES A","location":"1581NHMPTN CO0.00NCL VA B","lat":38.558056,"lon":-77.493889,"lengthFt":1758.7,"yearBuilt":1964,"adt":5424,"lowestRating":7,"conditionCategory":"good","structurallyDeficient":false,"materialName":"Prestressed Concrete","designTypeName":"Stringer/Multi-beam or Girder"},{"id":"FL-100806","state":"FL","stateName":"Florida","countyFips":"057","facilityCarried":"SR618A SELMON EXPY","featuresIntersected":"39TH ST TO 78TH ST","location":"4.7 MI W OF US-301","lat":28.396667,"lon":-83.953056,"lengthFt":1700.1,"yearBuilt":2006,"adt":19000,"lowestRating":7,"conditionCategory":"good","structurallyDeficient":false,"materialName":"Prestressed Concrete Continuous","designTypeName":"Segmental Box Girder"},{"id":"VA-000000000020752","state":"VA","stateName":"Virginia","countyFips":"199","facilityCarried":"IS 664 NBL S Appr","featuresIntersected":"James River","location":"South Approach MMMBT","lat":38.003056,"lon":-76.722222,"lengthFt":1668.5,"yearBuilt":1990,"adt":34964,"lowestRating":5,"conditionCategory":"fair","structurallyDeficient":false,"materialName":"Prestressed Concrete Continuous","designTypeName":"Stringer/Multi-beam or Girder"},{"id":"VA-000000000020753","state":"VA","stateName":"Virginia","countyFips":"199","facilityCarried":"IS 664 SBL S Appr","featuresIntersected":"James River","location":"South Approach MMMBT","lat":37.996944,"lon":-76.738056,"lengthFt":1663.6,"yearBuilt":1990,"adt":34566,"lowestRating":5,"conditionCategory":"fair","structurallyDeficient":false,"materialName":"Prestressed Concrete Continuous","designTypeName":"Stringer/Multi-beam or Girder"},{"id":"SC-000000000008516","state":"SC","stateName":"South Carolina","countyFips":"015","facilityCarried":"I-526","featuresIntersected":"COOPER RIVER","location":"IN N. CHARLESTON","lat":33.556111,"lon":-80.511667,"lengthFt":1645.0,"yearBuilt":1992,"adt":73200,"lowestRating":5,"conditionCategory":"fair","structurallyDeficient":false,"materialName":"Prestressed Concrete Continuous","designTypeName":"Stringer/Multi-beam or Girder"},{"id":"FL-720249","state":"FL","stateName":"Florida","countyFips":"031","facilityCarried":"I-295 SB (BUCKMAN)","featuresIntersected":"ST. JOHNS RIVER","location":"I-295 OVER ST.JOHNS RIVER","lat":30.815278,"lon":-82.998611,"lengthFt":1630.0,"yearBuilt":1970,"adt":64250,"lowestRating":6,"conditionCategory":"fair","structurallyDeficient":false,"materialName":"Steel","designTypeName":"Stringer/Multi-beam or Girder"},{"id":"FL-720343","state":"FL","stateName":"Florida","countyFips":"031","facilityCarried":"I-295 NB (BUCKMAN)","featuresIntersected":"ST. JOHNS RIVER","location":"I-295 OVER ST.JOHNS RIVER","lat":30.822222,"lon":-82.566667,"lengthFt":1630.0,"yearBuilt":1970,"adt":64250,"lowestRating":6,"conditionCategory":"fair","structurallyDeficient":false,"materialName":"Steel","designTypeName":"Stringer/Multi-beam or Girder"},{"id":"FL-480289","state":"FL","stateName":"Florida","countyFips":"033","facilityCarried":"SR30 US98 EB","featuresIntersected":"Pensacola Bay","location":"0.25MI W of 17th Street","lat":31.477222,"lon":-87.401389,"lengthFt":1613.8,"yearBuilt":2019,"adt":55000,"lowestRating":7,"conditionCategory":"good","structurallyDeficient":false,"materialName":"Steel","designTypeName":"Stringer/Multi-beam or Girder"},{"id":"FL-480290","state":"FL","stateName":"Florida","countyFips":"033","facilityCarried":"US98 SR30 WB","featuresIntersected":"Pensacola Bay","location":"0.25MI W of 17th Street","lat":31.499722,"lon":-87.350833,"lengthFt":1613.8,"yearBuilt":2023,"adt":56835,"lowestRating":7,"conditionCategory":"good","structurallyDeficient":false,"materialName":"Steel Continuous","designTypeName":"Stringer/Multi-beam or Girder"},{"id":"FL-150210","state":"FL","stateName":"Florida","countyFips":"103","facilityCarried":"I-275 SB","featuresIntersected":"OLD TAMPA BAY","location":"2.3MI WEST OF SR-60","lat":29.077222,"lon":-82.950556,"lengthFt":1590.0,"yearBuilt":1991,"adt":76000,"lowestRating":6,"conditionCategory":"fair","structurallyDeficient":false,"materialName":"Prestressed Concrete Continuous","designTypeName":"Stringer/Multi-beam or Girder"},{"id":"NY-000000005516342","state":"NY","stateName":"New York","countyFips":"087","facilityCarried":"RTE 87","featuresIntersected":"Hudson River  MNRR HU LI","location":"I87SB-I287EB / Hudson Rvr","lat":41.878889,"lon":-74.165278,"lengthFt":1589.4,"yearBuilt":2018,"adt":78144,"lowestRating":8,"conditionCategory":"good","structurallyDeficient":false,"materialName":"Steel Continuous","designTypeName":"Cable-Stayed"},{"id":"FL-150107","state":"FL","stateName":"Florida","countyFips":"103","facilityCarried":"I-275 NB","featuresIntersected":"TAMPA BAY","location":"2.3 MI W OF SR-60","lat":29.037778,"lon":-82.930833,"lengthFt":1587.2,"yearBuilt":1959,"adt":76000,"lowestRating":5,"conditionCategory":"fair","structurallyDeficient":false,"materialName":"Prestressed Concrete","designTypeName":"Stringer/Multi-beam or Girder"},{"id":"NY-000000005516341","state":"NY","stateName":"New York","countyFips":"087","facilityCarried":"RTE 87","featuresIntersected":"Hudson River  MNRR HU LI","location":"I87N-I287W NB / Hudson Rv","lat":41.875,"lon":-74.21,"lengthFt":1583.8,"yearBuilt":2017,"adt":68962,"lowestRating":8,"conditionCategory":"good","structurallyDeficient":false,"materialName":"Steel Continuous","designTypeName":"Cable-Stayed"},{"id":"TX-211090R00565001","state":"TX","stateName":"Texas","countyFips":"215","facilityCarried":"PHARR/RENOSA INTL","featuresIntersected":"RIO GRANDE RIVER","location":"2MI S OF US281/SPUR600 IN","lat":26.395833,"lon":-98.383889,"lengthFt":1577.0,"yearBuilt":1994,"adt":9525,"lowestRating":6,"conditionCategory":"fair","structurallyDeficient":false,"materialName":"Prestressed Concrete","designTypeName":"Stringer/Multi-beam or Girder"},{"id":"TX-180570019603473","state":"TX","stateName":"Texas","countyFips":"113","facilityCarried":"IH635 IH35E W S DC","featuresIntersected":"IH635IH35E ROYAL ETC","location":"IH 635 @ IH 35E","lat":33.093889,"lon":-98.439722,"lengthFt":1566.3,"yearBuilt":2014,"adt":17100,"lowestRating":7,"conditionCategory":"good","structurallyDeficient":false,"materialName":"Steel Continuous","designTypeName":"Stringer/Multi-beam or Girder"},{"id":"NC-000000000130353","state":"NC","stateName":"North Carolina","countyFips":"013","facilityCarried":"US17","featuresIntersected":"US17 BUS. & TAR RIVER","location":"0.2 MI.S.JCT.US264","lat":36.2025,"lon":-77.226944,"lengthFt":1527.4,"yearBuilt":2010,"adt":19500,"lowestRating":6,"conditionCategory":"fair","structurallyDeficient":false,"materialName":"Prestressed Concrete Continuous","designTypeName":"Stringer/Multi-beam or Girder"},{"id":"NC-000000001770007","state":"NC","stateName":"North Carolina","countyFips":"177","facilityCarried":"US64","featuresIntersected":"ALLIGATOR RIVER","location":"6.3 MI. E. JCT. SR1229","lat":37.510278,"lon":-76.388889,"lengthFt":1496.1,"yearBuilt":1960,"adt":4500,"lowestRating":4,"conditionCategory":"poor","structurallyDeficient":true,"materialName":"Steel","designTypeName":"Movable - Swing"},{"id":"NC-000000000530035","state":"NC","stateName":"North Carolina","countyFips":"053","facilityCarried":"US158W","featuresIntersected":"CURRITUCK SOUND","location":"0.1 MI. E. JCT. SR1187","lat":36.426111,"lon":-75.779722,"lengthFt":1492.7,"yearBuilt":1995,"adt":10750,"lowestRating":6,"conditionCategory":"fair","structurallyDeficient":false,"materialName":"Prestressed Concrete","designTypeName":"Stringer/Multi-beam or Girder"},{"id":"NJ-0901150","state":"NJ","stateName":"New Jersey","countyFips":"017","facilityCarried":"US 1&9","featuresIntersected":"Hcksck & Pssc Rvrs  Rds","location":"KEARNY to JERSEY CITY","lat":40.893056,"lon":-74.203889,"lengthFt":1490.7,"yearBuilt":1932,"adt":86402,"lowestRating":4,"conditionCategory":"poor","structurallyDeficient":true,"materialName":"Steel","designTypeName":"Truss - Thru"},{"id":"NC-000000000530016","state":"NC","stateName":"North Carolina","countyFips":"053","facilityCarried":"US158E","featuresIntersected":"CURRITUCK SOUND","location":".01 MI.E.JCT.SR1187","lat":36.408056,"lon":-75.7725,"lengthFt":1486.5,"yearBuilt":1966,"adt":21500,"lowestRating":5,"conditionCategory":"fair","structurallyDeficient":false,"materialName":"Prestressed Concrete","designTypeName":"Stringer/Multi-beam or Girder"},{"id":"FL-100300","state":"FL","stateName":"Florida","countyFips":"057","facilityCarried":"US-92 (SR-600)","featuresIntersected":"OLD TAMPA BAY","location":"2.0 MILE W OF SR-618","lat":28.027222,"lon":-83.7725,"lengthFt":1486.0,"yearBuilt":1975,"adt":17750,"lowestRating":5,"conditionCategory":"fair","structurallyDeficient":false,"materialName":"Prestressed Concrete","designTypeName":"Stringer/Multi-beam or Girder"},{"id":"NC-000000000550009","state":"NC","stateName":"North Carolina","countyFips":"055","facilityCarried":"US64","featuresIntersected":"CROATAN SOUND","location":"1.6 MI. E. JCT. SR1113","lat":36.217778,"lon":-76.981944,"lengthFt":1426.5,"yearBuilt":1955,"adt":2400,"lowestRating":4,"conditionCategory":"poor","structurallyDeficient":true,"materialName":"Steel","designTypeName":"Girder and Floorbeam"},{"id":"FL-490032","state":"FL","stateName":"Florida","countyFips":"037","facilityCarried":"US98 SR30","featuresIntersected":"Apalachicola Bay","location":"2 Miles E OF Apalachicola","lat":31.123889,"lon":-85.123889,"lengthFt":1417.5,"yearBuilt":1988,"adt":8100,"lowestRating":6,"conditionCategory":"fair","structurallyDeficient":false,"materialName":"Prestressed Concrete","designTypeName":"Stringer/Multi-beam or Girder"},{"id":"LA-035104240533051","state":"LA","stateName":"Louisiana","countyFips":"101","facilityCarried":"US0090","featuresIntersected":"La 182/LA70/LOC/DRAINAGE","location":"0.7 MI E OF LA182","lat":31.021944,"lon":-92.312778,"lengthFt":1416.1,"yearBuilt":1977,"adt":7885,"lowestRating":6,"conditionCategory":"fair","structurallyDeficient":false,"materialName":"Steel","designTypeName":"Stringer/Multi-beam or Girder"},{"id":"FL-154259","state":"FL","stateName":"Florida","countyFips":"103","facilityCarried":"49TH ST. NB","featuresIntersected":"TAMPA BAY","location":"BETWEEN SR-686 & SR-60","lat":29.096944,"lon":-83.182222,"lengthFt":1401.0,"yearBuilt":1993,"adt":35500,"lowestRating":6,"conditionCategory":"fair","structurallyDeficient":false,"materialName":"Prestressed Concrete","designTypeName":"Stringer/Multi-beam or Girder"},{"id":"FL-154260","state":"FL","stateName":"Florida","countyFips":"103","facilityCarried":"49TH ST. SB","featuresIntersected":"TAMPA BAY","location":"BETWEEN SR-686 AND SR-60","lat":29.092222,"lon":-83.209444,"lengthFt":1401.0,"yearBuilt":1993,"adt":35500,"lowestRating":6,"conditionCategory":"fair","structurallyDeficient":false,"materialName":"Prestressed Concrete","designTypeName":"Stringer/Multi-beam or Girder"},{"id":"NJ-4500001","state":"NJ","stateName":"New Jersey","countyFips":"015","facilityCarried":"US 322","featuresIntersected":"DELAWARE RIVER","location":"2 MILES WEST OF US 130","lat":40.731111,"lon":-75.543056,"lengthFt":1391.5,"yearBuilt":1974,"adt":39131,"lowestRating":6,"conditionCategory":"fair","structurallyDeficient":false,"materialName":"Steel","designTypeName":"Truss - Thru"},{"id":"PA-000000000015452","state":"PA","stateName":"Pennsylvania","countyFips":"015","facilityCarried":"US 322","featuresIntersected":"DELAWARE RIVER","location":"2 MILES WEST OF US 130","lat":40.731111,"lon":-75.543056,"lengthFt":1391.5,"yearBuilt":1974,"adt":39131,"lowestRating":6,"conditionCategory":"fair","structurallyDeficient":false,"materialName":"Steel","designTypeName":"Truss - Thru"},{"id":"FL-100585","state":"FL","stateName":"Florida","countyFips":"057","facilityCarried":"US-92 (SR-600)","featuresIntersected":"TAMPA BAY","location":"2.1 MILE W OF SR-618","lat":28.05,"lon":-83.775,"lengthFt":1386.6,"yearBuilt":1996,"adt":17750,"lowestRating":7,"conditionCategory":"good","structurallyDeficient":false,"materialName":"Prestressed Concrete Continuous","designTypeName":"Stringer/Multi-beam or Girder"},{"id":"FL-480213","state":"FL","stateName":"Florida","countyFips":"033","facilityCarried":"I10 SR8","featuresIntersected":"Escambia Bay and FG&A RR","location":"0.01 Miles East of US90","lat":30.625278,"lon":-88.3575,"lengthFt":1382.0,"yearBuilt":2006,"adt":34000,"lowestRating":5,"conditionCategory":"fair","structurallyDeficient":false,"materialName":"Prestressed Concrete Continuous","designTypeName":"Stringer/Multi-beam or Girder"},{"id":"MS-860000003000000","state":"MS","stateName":"Mississippi","countyFips":"059","facilityCarried":"SR 619","featuresIntersected":"PASCAGOULA BAY","location":"1.2 MI S US 90","lat":30.713056,"lon":-89.932222,"lengthFt":1380.8,"yearBuilt":1989,"adt":870,"lowestRating":6,"conditionCategory":"fair","structurallyDeficient":false,"materialName":"Prestressed Concrete Continuous","designTypeName":"Stringer/Multi-beam or Girder"},{"id":"AR-000000000007100","state":"AR","stateName":"Arkansas","countyFips":"017","facilityCarried":"US 82","featuresIntersected":"MISSISSIPPI RIVER","location":"MISS/AR STATE LINE","lat":34.245,"lon":-91.418889,"lengthFt":1375.3,"yearBuilt":2010,"adt":7400,"lowestRating":6,"conditionCategory":"fair","structurallyDeficient":false,"materialName":"Steel","designTypeName":"Cable-Stayed"},{"id":"MS-210008207600010","state":"MS","stateName":"Mississippi","countyFips":"151","facilityCarried":"US 82","featuresIntersected":"MISSISSIPPI RIVER","location":"MISS/AR STATE LINE","lat":34.245556,"lon":-91.418889,"lengthFt":1375.3,"yearBuilt":2010,"adt":7000,"lowestRating":6,"conditionCategory":"fair","structurallyDeficient":false,"materialName":"Steel","designTypeName":"Cable-Stayed"},{"id":"FL-480214","state":"FL","stateName":"Florida","countyFips":"033","facilityCarried":"SR8 I10","featuresIntersected":"Escambia Bay and FG&A RR","location":"I10 over CSX RR 339747T","lat":30.651389,"lon":-88.375278,"lengthFt":1373.6,"yearBuilt":2007,"adt":34000,"lowestRating":7,"conditionCategory":"good","structurallyDeficient":false,"materialName":"Prestressed Concrete Continuous","designTypeName":"Stringer/Multi-beam or Girder"},{"id":"AR-0000000000B5700","state":"AR","stateName":"Arkansas","countyFips":"119","facilityCarried":"I-440 EB MAIN LANE","featuresIntersected":"I30 OFF I530 SH365 FRAZ","location":"SO TERM INT-WE RP(I-8)","lat":35.509167,"lon":-93.145278,"lengthFt":1353.3,"yearBuilt":1977,"adt":53361,"lowestRating":6,"conditionCategory":"fair","structurallyDeficient":false,"materialName":"Steel Continuous","designTypeName":"Stringer/Multi-beam or Girder"},{"id":"LA-084300340100001","state":"LA","stateName":"Louisiana","countyFips":"085","facilityCarried":"LA0006","featuresIntersected":"TOLEDO BEND RES.","location":"3.45 MI WEST OF LA 191","lat":33.038056,"lon":-94.995556,"lengthFt":1319.6,"yearBuilt":1967,"adt":3030,"lowestRating":6,"conditionCategory":"fair","structurallyDeficient":false,"materialName":"Steel Continuous","designTypeName":"Girder and Floorbeam"},{"id":"TX-112020011905017","state":"TX","stateName":"Texas","countyFips":"403","facilityCarried":"SH 21","featuresIntersected":"SABINE RIVER","location":"0.0 MI W OF LOUISIANA S/L","lat":32.986111,"lon":-95.092778,"lengthFt":1319.6,"yearBuilt":1967,"adt":2988,"lowestRating":6,"conditionCategory":"fair","structurallyDeficient":false,"materialName":"Steel Continuous","designTypeName":"Stringer/Multi-beam or Girder"},{"id":"TX-180570009214197","state":"TX","stateName":"Texas","countyFips":"113","facilityCarried":"IH 345 SB","featuresIntersected":"IH 30 US 75 Dart Rail","location":"IH345 & IH30 Interchange","lat":33.727778,"lon":-97.739167,"lengthFt":1319.2,"yearBuilt":1971,"adt":39466,"lowestRating":4,"conditionCategory":"poor","structurallyDeficient":true,"materialName":"Steel Continuous","designTypeName":"Girder and Floorbeam"},{"id":"TX-180570009214198","state":"TX","stateName":"Texas","countyFips":"113","facilityCarried":"IH 345 NB","featuresIntersected":"IH 30 US 75 DART etc","location":"At IH30/IH345 Interchange","lat":33.999167,"lon":-97.587778,"lengthFt":1311.4,"yearBuilt":1971,"adt":39466,"lowestRating":5,"conditionCategory":"fair","structurallyDeficient":false,"materialName":"Steel Continuous","designTypeName":"Girder and Floorbeam"},{"id":"NY-000000005521889","state":"NY","stateName":"New York","countyFips":"081","facilityCarried":"RTE I278","featuresIntersected":"BRONX KILLS  CSX  Harlem","location":"I278 OVER HELLGATE","lat":42.333333,"lon":-74.168889,"lengthFt":1311.0,"yearBuilt":1936,"adt":116151,"lowestRating":5,"conditionCategory":"fair","structurallyDeficient":false,"materialName":"Steel","designTypeName":"Suspension"},{"id":"NC-000000000550071","state":"NC","stateName":"North Carolina","countyFips":"055","facilityCarried":"NC12","featuresIntersected":"PAMLICO SOUND","location":"24 MI S JCT US158","lat":36.877778,"lon":-76.234444,"lengthFt":1298.6,"yearBuilt":2021,"adt":5600,"lowestRating":7,"conditionCategory":"good","structurallyDeficient":false,"materialName":"Prestressed Concrete","designTypeName":"Slab"},{"id":"AL-015820","state":"AL","stateName":"Alabama","countyFips":"089","facilityCarried":"I-565; ALT US 72","featuresIntersected":"N/S R.R / CITY STREETS","location":"1.3 MI E JCT I565 * SR53","lat":35.716667,"lon":-87.266667,"lengthFt":1294.4,"yearBuilt":1991,"adt":98210,"lowestRating":5,"conditionCategory":"fair","structurallyDeficient":false,"materialName":"Steel","designTypeName":"Stringer/Multi-beam or Girder"},{"id":"AL-015821","state":"AL","stateName":"Alabama","countyFips":"089","facilityCarried":"I-565; ALT US 72","featuresIntersected":"N/S R.R / CITY STREETS","location":"1.3 MI E JCT I565 * SR53","lat":35.716667,"lon":-87.266667,"lengthFt":1283.9,"yearBuilt":1991,"adt":98210,"lowestRating":6,"conditionCategory":"fair","structurallyDeficient":false,"materialName":"Steel","designTypeName":"Stringer/Multi-beam or Girder"},{"id":"TX-210310033104005","state":"TX","stateName":"Texas","countyFips":"061","facilityCarried":"PR 100","featuresIntersected":"INTRACOASTAL WATERWAY","location":"QN ISABELLA  CAUSEWAY","lat":26.395833,"lon":-98.494444,"lengthFt":1251.0,"yearBuilt":1974,"adt":15902,"lowestRating":5,"conditionCategory":"fair","structurallyDeficient":false,"materialName":"Steel Continuous","designTypeName":"Stringer/Multi-beam or Girder"},{"id":"KS-999913500872901","state":"KS","stateName":"Kansas","countyFips":"173","facilityCarried":"I135 HWY SB","featuresIntersected":"RR   12CITY ST& STRM","location":"I135 WL VDT  ENG TO 18TH","lat":38.961111,"lon":-98.938889,"lengthFt":1249.7,"yearBuilt":1977,"adt":43000,"lowestRating":6,"conditionCategory":"fair","structurallyDeficient":false,"materialName":"Concrete Continuous","designTypeName":"Box Beam - Multiple"},{"id":"NY-000000001066669","state":"NY","stateName":"New York","countyFips":"005","facilityCarried":"RTE I278","featuresIntersected":"BRUCKNER EXPWY  BRUCKNER","location":"1 MI NE I278+I87","lat":41.205556,"lon":-74.054167,"lengthFt":1224.0,"yearBuilt":1960,"adt":143338,"lowestRating":4,"conditionCategory":"poor","structurallyDeficient":true,"materialName":"Steel Continuous","designTypeName":"Stringer/Multi-beam or Girder"},{"id":"NC-000000000150038","state":"NC","stateName":"North Carolina","countyFips":"015","facilityCarried":"US17","featuresIntersected":"CHOWAN RIVER","location":"2.6 MI. N. JCT. SR1501","lat":37.452778,"lon":-77.923889,"lengthFt":1220.9,"yearBuilt":1999,"adt":9600,"lowestRating":6,"conditionCategory":"fair","structurallyDeficient":false,"materialName":"Steel Continuous","designTypeName":"Stringer/Multi-beam or Girder"},{"id":"FL-900094","state":"FL","stateName":"Florida","countyFips":"087","facilityCarried":"US 1 (SR 5)","featuresIntersected":"LONG KEY CHANNEL","location":"LONG KEY (MM 63.2)","lat":26.178056,"lon":-80.914167,"lengthFt":1217.6,"yearBuilt":1981,"adt":13200,"lowestRating":5,"conditionCategory":"fair","structurallyDeficient":false,"materialName":"Prestressed Concrete Continuous","designTypeName":"Segmental Box Girder"},{"id":"KS-999913500872911","state":"KS","stateName":"Kansas","countyFips":"173","facilityCarried":"I135 HWY NB","featuresIntersected":"RR   12CITY ST& STRM","location":"I135 EL VDT  ENG TO 18TH","lat":38.961111,"lon":-98.883333,"lengthFt":1211.1,"yearBuilt":1977,"adt":43000,"lowestRating":6,"conditionCategory":"fair","structurallyDeficient":false,"materialName":"Concrete Continuous","designTypeName":"Box Beam - Multiple"},{"id":"AR-0000000000A5700","state":"AR","stateName":"Arkansas","countyFips":"119","facilityCarried":"I 440-SEC 1 WB","featuresIntersected":"I30 SH365 FRAZIER FOURCH","location":"SO TERMINAL-EW RAMP","lat":35.934167,"lon":-92.824722,"lengthFt":1208.9,"yearBuilt":1977,"adt":18000,"lowestRating":6,"conditionCategory":"fair","structurallyDeficient":false,"materialName":"Steel Continuous","designTypeName":"Stringer/Multi-beam or Girder"},{"id":"LA-610404240601001","state":"LA","stateName":"Louisiana","countyFips":"007","facilityCarried":"US0090","featuresIntersected":"LA 662  Aligator Bayou","location":"0.8 Mi. E. of Duhon Blvd","lat":30.028056,"lon":-92.108333,"lengthFt":1207.9,"yearBuilt":1998,"adt":4014,"lowestRating":6,"conditionCategory":"fair","structurallyDeficient":false,"materialName":"Prestressed Concrete","designTypeName":"Stringer/Multi-beam or Girder"},{"id":"LA-610404240601002","state":"LA","stateName":"Louisiana","countyFips":"007","facilityCarried":"US0090","featuresIntersected":"BAYOU BOEUF BR EXTENSION","location":"JCT of US 90 & LA 662","lat":29.809167,"lon":-91.363889,"lengthFt":1207.4,"yearBuilt":1998,"adt":10035,"lowestRating":6,"conditionCategory":"fair","structurallyDeficient":false,"materialName":"Prestressed Concrete","designTypeName":"Stringer/Multi-beam or Girder"},{"id":"FL-600224","state":"FL","stateName":"Florida","countyFips":"131","facilityCarried":"US331  SR83","featuresIntersected":"Choctawhatchee Bay","location":"2.0MI N. of US98 SR30","lat":30.413889,"lon":-86.369444,"lengthFt":1205.2,"yearBuilt":2016,"adt":13750,"lowestRating":7,"conditionCategory":"good","structurallyDeficient":false,"materialName":"Prestressed Concrete Continuous","designTypeName":"Stringer/Multi-beam or Girder"},{"id":"TX-130290017910061","state":"TX","stateName":"Texas","countyFips":"057","facilityCarried":"SH 35","featuresIntersected":"LAVACA BAY","location":"AT PORT LAVACA N.C.L.","lat":29.665,"lon":-97.310556,"lengthFt":1190.2,"yearBuilt":1961,"adt":17189,"lowestRating":6,"conditionCategory":"fair","structurallyDeficient":false,"materialName":"Steel Continuous","designTypeName":"Stringer/Multi-beam or Girder"},{"id":"LA-624804501312071","state":"LA","stateName":"Louisiana","countyFips":"095","facilityCarried":"I0010","featuresIntersected":"US 51 & SWAMPS","location":"I0010","lat":30.695,"lon":-91.639722,"lengthFt":1175.3,"yearBuilt":1972,"adt":48723,"lowestRating":6,"conditionCategory":"fair","structurallyDeficient":false,"materialName":"Prestressed Concrete","designTypeName":"Stringer/Multi-beam or Girder"},{"id":"LA-624804501312072","state":"LA","stateName":"Louisiana","countyFips":"095","facilityCarried":"I0010","featuresIntersected":"US 51 & SWAMPS","location":"I0010","lat":31.358889,"lon":-91.400278,"lengthFt":1171.6,"yearBuilt":1972,"adt":27372,"lowestRating":7,"conditionCategory":"good","structurallyDeficient":false,"materialName":"Prestressed Concrete","designTypeName":"Stringer/Multi-beam or Girder"},{"id":"NJ-4500003","state":"NJ","stateName":"New Jersey","countyFips":"007","facilityCarried":"I-76","featuresIntersected":"I-676 SB  I-95 & DEL RIV","location":"GLOUCESTER CITY","lat":40.423056,"lon":-76.4,"lengthFt":1169.3,"yearBuilt":1957,"adt":110000,"lowestRating":6,"conditionCategory":"fair","structurallyDeficient":false,"materialName":"Steel","designTypeName":"Suspension"},{"id":"PA-000000000039190","state":"PA","stateName":"Pennsylvania","countyFips":"007","facilityCarried":"I-76","featuresIntersected":"I-676 SB  I-95 & DEL RIV","location":"GLOUCESTER CITY","lat":40.423056,"lon":-76.4,"lengthFt":1169.3,"yearBuilt":1957,"adt":110000,"lowestRating":6,"conditionCategory":"fair","structurallyDeficient":false,"materialName":"Steel","designTypeName":"Suspension"},{"id":"TX-121020027114696","state":"TX","stateName":"Texas","countyFips":"201","facilityCarried":"IH610 E&W/US290(C)","featuresIntersected":"IH610;US290;Mangum&Dacom","location":"IH610 & US 290","lat":30.030833,"lon":-95.5925,"lengthFt":1169.1,"yearBuilt":2020,"adt":31695,"lowestRating":7,"conditionCategory":"good","structurallyDeficient":false,"materialName":"Steel Continuous","designTypeName":"Box Beam - Multiple"},{"id":"LA-611704509203041","state":"LA","stateName":"Louisiana","countyFips":"033","facilityCarried":"I0110","featuresIntersected":"CITY STREETS","location":"1.5 M S of I-110&US 61","lat":31.083056,"lon":-91.180833,"lengthFt":1154.9,"yearBuilt":1970,"adt":64059,"lowestRating":6,"conditionCategory":"fair","structurallyDeficient":false,"materialName":"Steel","designTypeName":"Stringer/Multi-beam or Girder"},{"id":"LA-611704509203042","state":"LA","stateName":"Louisiana","countyFips":"033","facilityCarried":"I0110","featuresIntersected":"CITY STREETS","location":"1.5 M S of I-110&US 61","lat":31.083056,"lon":-91.203056,"lengthFt":1153.6,"yearBuilt":1969,"adt":32092,"lowestRating":6,"conditionCategory":"fair","structurallyDeficient":false,"materialName":"Prestressed Concrete","designTypeName":"Stringer/Multi-beam or Girder"},{"id":"CA-34 0006","state":"CA","stateName":"California","countyFips":"075","facilityCarried":"INTERSTATE 80","featuresIntersected":"GATE  SAN FRANCISCO BAY","location":"04-SF-080-R7.91-SF","lat":38.865833,"lon":-123.778333,"lengthFt":1152.3,"yearBuilt":2013,"adt":265000,"lowestRating":7,"conditionCategory":"good","structurallyDeficient":false,"materialName":"Steel Continuous","designTypeName":"Suspension"},{"id":"SC-000000000008720","state":"SC","stateName":"South Carolina","countyFips":"019","facilityCarried":"SC 517","featuresIntersected":"INTRACOASTAL WATERWAY","location":"10.1 MI NE OF CHARLESTON","lat":33.105,"lon":-81.221667,"lengthFt":1146.1,"yearBuilt":1994,"adt":19900,"lowestRating":6,"conditionCategory":"fair","structurallyDeficient":false,"materialName":"Prestressed Concrete Continuous","designTypeName":"Stringer/Multi-beam or Girder"},{"id":"CA-33 0612E","state":"CA","stateName":"California","countyFips":"001","facilityCarried":"I 80-I 880 CONN","featuresIntersected":"SB 880  I 80  W GRAND","location":"04-ALA-080-2.44-OAK","lat":38.690278,"lon":-123.2275,"lengthFt":1134.5,"yearBuilt":1996,"adt":269472,"lowestRating":5,"conditionCategory":"fair","structurallyDeficient":false,"materialName":"Steel Continuous","designTypeName":"Girder and Floorbeam"},{"id":"LA-023604503402691","state":"LA","stateName":"Louisiana","countyFips":"071","facilityCarried":"I0610","featuresIntersected":"CITY STREETS","location":"3.1 MI EAST OF I-10","lat":30.94,"lon":-91.310278,"lengthFt":1134.3,"yearBuilt":1975,"adt":40300,"lowestRating":6,"conditionCategory":"fair","structurallyDeficient":false,"materialName":"Steel","designTypeName":"Stringer/Multi-beam or Girder"},{"id":"SC-000000000008617","state":"SC","stateName":"South Carolina","countyFips":"019","facilityCarried":"SC 30","featuresIntersected":"ASHLEY RIV & WAPPOO CRK","location":"IN CHARLESTON","lat":34.030278,"lon":-80.664167,"lengthFt":1129.7,"yearBuilt":1993,"adt":63200,"lowestRating":6,"conditionCategory":"fair","structurallyDeficient":false,"materialName":"Prestressed Concrete Continuous","designTypeName":"Box Beam - Single/Spread"},{"id":"NY-000000005521269","state":"NY","stateName":"New York","countyFips":"081","facilityCarried":"RTE I295","featuresIntersected":"Cross Island Parkway  Cr","location":"295I OVER EAST RIVER","lat":41.266389,"lon":-74.823056,"lengthFt":1125.0,"yearBuilt":1961,"adt":92348,"lowestRating":5,"conditionCategory":"fair","structurallyDeficient":false,"materialName":"Steel","designTypeName":"Suspension"},{"id":"RI-000000000009000","state":"RI","stateName":"Rhode Island","countyFips":"005","facilityCarried":"RI 138","featuresIntersected":"EAST PASSAGE NARR BAY","location":"Betwn Jamestown NEWPORT","lat":41.8675,"lon":-72.289167,"lengthFt":1124.8,"yearBuilt":1969,"adt":28000,"lowestRating":5,"conditionCategory":"fair","structurallyDeficient":false,"materialName":"Steel","designTypeName":"Suspension"},{"id":"OR-07949B009 00028","state":"OR","stateName":"Oregon","countyFips":"007","facilityCarried":"US101 (HWY 9)","featuresIntersected":"Columbia River","location":"Desdemona Sands","lat":46.510833,"lon":-124.448611,"lengthFt":1120.0,"yearBuilt":1966,"adt":8551,"lowestRating":6,"conditionCategory":"fair","structurallyDeficient":false,"materialName":"Prestressed Concrete","designTypeName":"Stringer/Multi-beam or Girder"},{"id":"WA-0007666C0000000","state":"WA","stateName":"Washington","countyFips":"049","facilityCarried":"US 101","featuresIntersected":"COLUMBIA R","location":"3.37 S OREGON LINE","lat":46.295556,"lon":-124.332778,"lengthFt":1120.0,"yearBuilt":1966,"adt":23300,"lowestRating":5,"conditionCategory":"fair","structurallyDeficient":false,"materialName":"Prestressed Concrete","designTypeName":"Stringer/Multi-beam or Girder"},{"id":"MS-210009002301900","state":"MS","stateName":"Mississippi","countyFips":"045","facilityCarried":"US 90","featuresIntersected":"BAY ST LOUIS","location":"HANCOCK/HARRISON CL","lat":30.579444,"lon":-89.900833,"lengthFt":1112.9,"yearBuilt":2008,"adt":16000,"lowestRating":7,"conditionCategory":"good","structurallyDeficient":false,"materialName":"Prestressed Concrete Continuous","designTypeName":"Stringer/Multi-beam or Girder"},{"id":"LA-053304510900001","state":"LA","stateName":"Louisiana","countyFips":"065","facilityCarried":"I0020","featuresIntersected":"MISSISSIPPI RIVER","location":".1 MI EAST OF US 80","lat":32.802222,"lon":-90.945556,"lengthFt":1105.2,"yearBuilt":1973,"adt":36023,"lowestRating":5,"conditionCategory":"fair","structurallyDeficient":false,"materialName":"Steel Continuous","designTypeName":"Truss - Thru"},{"id":"MS-110002007500010","state":"MS","stateName":"Mississippi","countyFips":"149","facilityCarried":"I 20","featuresIntersected":"MISSISSIPPI RIVER","location":"MISS/LA STATE LINE","lat":32.8,"lon":-90.9475,"lengthFt":1105.2,"yearBuilt":1973,"adt":22000,"lowestRating":5,"conditionCategory":"fair","structurallyDeficient":false,"materialName":"Steel Continuous","designTypeName":"Truss - Thru"},{"id":"TX-160040018004079","state":"TX","stateName":"Texas","countyFips":"007","facilityCarried":"SH 35","featuresIntersected":"Copano Bay","location":"SH 35 at Copano BAy","lat":29.4225,"lon":-97.81,"lengthFt":1101.0,"yearBuilt":2015,"adt":7231,"lowestRating":7,"conditionCategory":"good","structurallyDeficient":false,"materialName":"Prestressed Concrete","designTypeName":"Stringer/Multi-beam or Girder"},{"id":"CA-34 0100","state":"CA","stateName":"California","countyFips":"075","facilityCarried":"INTERSTATE 280","featuresIntersected":"CHINA BASIN VIADUCT","location":"04-SF-280-R6.61-SF","lat":39.173333,"lon":-123.316944,"lengthFt":1100.1,"yearBuilt":1971,"adt":68200,"lowestRating":5,"conditionCategory":"fair","structurallyDeficient":false,"materialName":"Prestressed Concrete","designTypeName":"Stringer/Multi-beam or Girder"},{"id":"TX-180570009214256","state":"TX","stateName":"Texas","countyFips":"113","facilityCarried":"IH 45 SB","featuresIntersected":"TRINITY RIVER UPRR ETC","location":"1.8 MI S OF IH 30","lat":33.074444,"lon":-97.220278,"lengthFt":1086.5,"yearBuilt":1973,"adt":44565,"lowestRating":5,"conditionCategory":"fair","structurallyDeficient":false,"materialName":"Steel Continuous","designTypeName":"Stringer/Multi-beam or Girder"},{"id":"TX-180570009214257","state":"TX","stateName":"Texas","countyFips":"113","facilityCarried":"IH 45 NB","featuresIntersected":"TRINITY RIVER UPRR etc","location":"1.8 MI S OF IH 30","lat":34.381389,"lon":-98.206667,"lengthFt":1086.5,"yearBuilt":1973,"adt":45129,"lowestRating":5,"conditionCategory":"fair","structurallyDeficient":false,"materialName":"Steel Continuous","designTypeName":"Stringer/Multi-beam or Girder"},{"id":"DE-1737A056","state":"DE","stateName":"Delaware","countyFips":"003","facilityCarried":"I 295 N & US 40 E","featuresIntersected":"DELAWARE RIVER","location":"NEW CASTLE","lat":40.581389,"lon":-76.871944,"lengthFt":1079.6,"yearBuilt":1951,"adt":48349,"lowestRating":5,"conditionCategory":"fair","structurallyDeficient":false,"materialName":"Steel","designTypeName":"Suspension"},{"id":"DE-1737B056","state":"DE","stateName":"Delaware","countyFips":"003","facilityCarried":"I 295 S & US 40 W","featuresIntersected":"DELAWARE RIVER","location":"NEW CASTLE","lat":40.636389,"lon":-76.810833,"lengthFt":1079.6,"yearBuilt":1968,"adt":50098,"lowestRating":5,"conditionCategory":"fair","structurallyDeficient":false,"materialName":"Steel","designTypeName":"Suspension"},{"id":"NJ-3200004","state":"NJ","stateName":"New Jersey","countyFips":"033","facilityCarried":"I-295 NB & US 40 E","featuresIntersected":"Delaware River","location":"Delaware Memorial Bridge","lat":40.581111,"lon":-76.871944,"lengthFt":1079.6,"yearBuilt":1951,"adt":46123,"lowestRating":5,"conditionCategory":"fair","structurallyDeficient":false,"materialName":"Steel","designTypeName":"Suspension"},{"id":"NJ-3200005","state":"NJ","stateName":"New Jersey","countyFips":"033","facilityCarried":"I-295 SB & US 40 W","featuresIntersected":"Delaware River","location":"Delaware Memorial Bridge","lat":40.628056,"lon":-76.821944,"lengthFt":1079.6,"yearBuilt":1968,"adt":46830,"lowestRating":5,"conditionCategory":"fair","structurallyDeficient":false,"materialName":"Steel","designTypeName":"Suspension"},{"id":"FL-720518","state":"FL","stateName":"Florida","countyFips":"031","facilityCarried":"I-295(9A) DAMES PT","featuresIntersected":"ST.JOHNS RIV.& MILL COVE","location":"2.1 MI.S.OF HECKSCHER DR.","lat":30.441667,"lon":-82.216667,"lengthFt":1064.6,"yearBuilt":1989,"adt":84321,"lowestRating":6,"conditionCategory":"fair","structurallyDeficient":false,"materialName":"Prestressed Concrete Continuous","designTypeName":"Cable-Stayed"},{"id":"SC-000000000008519","state":"SC","stateName":"South Carolina","countyFips":"019","facilityCarried":"I-526 EB","featuresIntersected":"US 52&S-60&RR CSXT&NS","location":"NORTH CHARLESTON","lat":33.399722,"lon":-81.097222,"lengthFt":1061.5,"yearBuilt":1992,"adt":39550,"lowestRating":5,"conditionCategory":"fair","structurallyDeficient":false,"materialName":"Steel Continuous","designTypeName":"Stringer/Multi-beam or Girder"},{"id":"SC-000000000008525","state":"SC","stateName":"South Carolina","countyFips":"019","facilityCarried":"I-526 WB","featuresIntersected":"US 52&S-60&RR CSXT&NS","location":"IN N. CHARLESTON","lat":33.420556,"lon":-81.116389,"lengthFt":1061.5,"yearBuilt":1992,"adt":39550,"lowestRating":5,"conditionCategory":"fair","structurallyDeficient":false,"materialName":"Steel Continuous","designTypeName":"Stringer/Multi-beam or Girder"},{"id":"TX-121020325603075","state":"TX","stateName":"Texas","countyFips":"201","facilityCarried":"BELTWAY 8","featuresIntersected":"HOUSTON SHIP CHANNEL","location":"BLTWY 8 @ SHIP CHANNEL","lat":31.2,"lon":-96.468889,"lengthFt":1053.8,"yearBuilt":1980,"adt":57486,"lowestRating":6,"conditionCategory":"fair","structurallyDeficient":false,"materialName":"Prestressed Concrete Continuous","designTypeName":"Segmental Box Girder"},{"id":"NY-000000001058812","state":"NY","stateName":"New York","countyFips":"103","facilityCarried":"RTE 908J","featuresIntersected":"GREAT SOUTH BAY","location":"AT FIRE ISLAND INLET","lat":41.591111,"lon":-74.695278,"lengthFt":1053.7,"yearBuilt":1967,"adt":8443,"lowestRating":7,"conditionCategory":"good","structurallyDeficient":false,"materialName":"Steel","designTypeName":"Truss - Thru"},{"id":"NY-000000001058811","state":"NY","stateName":"New York","countyFips":"103","facilityCarried":"RTE 908J","featuresIntersected":"GREAT SOUTH BAY","location":"AT FIRE ISLAND INLET","lat":41.584722,"lon":-74.730556,"lengthFt":1051.9,"yearBuilt":1951,"adt":8443,"lowestRating":7,"conditionCategory":"good","structurallyDeficient":false,"materialName":"Steel","designTypeName":"Truss - Thru"},{"id":"LA-084004550530131","state":"LA","stateName":"Louisiana","countyFips":"079","facilityCarried":"I0049","featuresIntersected":"HWYS  STRTS  RR  BAYOU","location":"0.23 MI. NORTH OF US 167B","lat":31.795,"lon":-93.880833,"lengthFt":1050.4,"yearBuilt":1994,"adt":42770,"lowestRating":5,"conditionCategory":"fair","structurallyDeficient":false,"materialName":"Prestressed Concrete Continuous","designTypeName":"Stringer/Multi-beam or Girder"},{"id":"TX-121020038912090","state":"TX","stateName":"Texas","countyFips":"201","facilityCarried":"SH 146 SB","featuresIntersected":"HOUSTON SHIP CHANNEL","location":"0.6 MI N OF SH 225","lat":30.991389,"lon":-95.3225,"lengthFt":1049.1,"yearBuilt":1995,"adt":33130,"lowestRating":6,"conditionCategory":"fair","structurallyDeficient":false,"materialName":"Steel","designTypeName":"Suspension"},{"id":"LA-084004550530132","state":"LA","stateName":"Louisiana","countyFips":"079","facilityCarried":"I0049","featuresIntersected":"HWYS  STRTS  RR  BAYOU","location":"0.23 MI. NORTH OF US 167B","lat":32.291111,"lon":-92.638333,"lengthFt":1048.8,"yearBuilt":1995,"adt":7400,"lowestRating":5,"conditionCategory":"fair","structurallyDeficient":false,"materialName":"Prestressed Concrete Continuous","designTypeName":"Stringer/Multi-beam or Girder"},{"id":"FL-900020","state":"FL","stateName":"Florida","countyFips":"087","facilityCarried":"PIGEON KEY ACCESS","featuresIntersected":"KNIGHT CHANNEL","location":"MARATHON KEY (MM 47)","lat":25.284444,"lon":-81.698889,"lengthFt":1048.0,"yearBuilt":1912,"adt":null,"lowestRating":4,"conditionCategory":"poor","structurallyDeficient":true,"materialName":"Steel","designTypeName":"Girder and Floorbeam"},{"id":"TX-121020038912089","state":"TX","stateName":"Texas","countyFips":"201","facilityCarried":"SH 146 NB","featuresIntersected":"HOUSTON SHIP CHANNEL","location":"0.6 MI N OF SH 225","lat":30.763056,"lon":-96.149444,"lengthFt":1046.2,"yearBuilt":1995,"adt":42466,"lowestRating":6,"conditionCategory":"fair","structurallyDeficient":false,"materialName":"Steel","designTypeName":"Suspension"},{"id":"TX-181990000904422","state":"TX","stateName":"Texas","countyFips":"397","facilityCarried":"SH 66 WB","featuresIntersected":"LAKE RAY HUBBARD","location":"2.0 MI W OF SH205","lat":33.430833,"lon":-97.063056,"lengthFt":1028.0,"yearBuilt":2003,"adt":11491,"lowestRating":5,"conditionCategory":"fair","structurallyDeficient":false,"materialName":"Prestressed Concrete","designTypeName":"Stringer/Multi-beam or Girder"},{"id":"LA-040904513003081","state":"LA","stateName":"Louisiana","countyFips":"017","facilityCarried":"I0220","featuresIntersected":"CROSS LAKE KCS CSR LA 17","location":"2.8 MI NORTH OF I-20","lat":33.617778,"lon":-94.32,"lengthFt":1023.0,"yearBuilt":1988,"adt":42148,"lowestRating":5,"conditionCategory":"fair","structurallyDeficient":false,"materialName":"Prestressed Concrete Continuous","designTypeName":"Stringer/Multi-beam or Girder"},{"id":"LA-022900000020415","state":"LA","stateName":"Louisiana","countyFips":"057","facilityCarried":"LA0001","featuresIntersected":"BAYOU LAFOURCHE","location":"LA 1 OVER BAYOU LAFOURCHE","lat":29.521111,"lon":-91.63,"lengthFt":1021.6,"yearBuilt":2009,"adt":3305,"lowestRating":7,"conditionCategory":"good","structurallyDeficient":false,"materialName":"Steel","designTypeName":"Stringer/Multi-beam or Girder"},{"id":"TX-011170064101028","state":"TX","stateName":"Texas","countyFips":"231","facilityCarried":"SH 276","featuresIntersected":"LAKE TAWAKONI","location":"7.6 MI E JCT SH34 & SH276","lat":33.319722,"lon":-97.508056,"lengthFt":1020.0,"yearBuilt":2016,"adt":5311,"lowestRating":7,"conditionCategory":"good","structurallyDeficient":false,"materialName":"Prestressed Concrete","designTypeName":"Stringer/Multi-beam or Girder"},{"id":"CA-34 0077","state":"CA","stateName":"California","countyFips":"075","facilityCarried":"U.S. HIGHWAY 101","featuresIntersected":"I-80 & US 101 RAMPS STRS","location":"04-SF-101-R4.25L-SF","lat":38.089167,"lon":-122.597778,"lengthFt":1005.5,"yearBuilt":1955,"adt":59000,"lowestRating":5,"conditionCategory":"fair","structurallyDeficient":false,"materialName":"Steel","designTypeName":"Stringer/Multi-beam or Girder"},{"id":"VA-000000000031104","state":"VA","stateName":"Virginia","countyFips":"099","facilityCarried":"US 301","featuresIntersected":"POTOMAC RIVER","location":"US 301 over Potomac River","lat":39.263056,"lon":-78.523611,"lengthFt":1005.4,"yearBuilt":1939,"adt":20001,"lowestRating":5,"conditionCategory":"fair","structurallyDeficient":false,"materialName":"Steel","designTypeName":"Truss - Thru"},{"id":"VA-000000000012083","state":"VA","stateName":"Virginia","countyFips":"119","facilityCarried":"ROUTE 0003","featuresIntersected":"RAPPAHANNOCK RIVER     @","location":"MIDSEX.- LANC. CO.LINE","lat":38.990556,"lon":-76.435833,"lengthFt":998.9,"yearBuilt":1957,"adt":7559,"lowestRating":5,"conditionCategory":"fair","structurallyDeficient":false,"materialName":"Steel","designTypeName":"Truss - Thru"},{"id":"FL-100332","state":"FL","stateName":"Florida","countyFips":"057","facilityCarried":"SR618 WB & RAMPS","featuresIntersected":"HILLS RVR & DOWNTOWN TPA","location":"BETWEEN 19TH & BAYSHORE","lat":28.915556,"lon":-83.343333,"lengthFt":998.2,"yearBuilt":1975,"adt":25500,"lowestRating":7,"conditionCategory":"good","structurallyDeficient":false,"materialName":"Steel","designTypeName":"Stringer/Multi-beam or Girder"},{"id":"AL-010882","state":"AL","stateName":"Alabama","countyFips":"103","facilityCarried":"I 65","featuresIntersected":"TENNESSEE RIVER","location":"MORGAN-LIMESTONE COLINE","lat":35.238889,"lon":-87.872222,"lengthFt":996.6,"yearBuilt":1973,"adt":17375,"lowestRating":5,"conditionCategory":"fair","structurallyDeficient":false,"materialName":"Steel Continuous","designTypeName":"Girder and Floorbeam"},{"id":"AL-010883","state":"AL","stateName":"Alabama","countyFips":"103","facilityCarried":"I 65","featuresIntersected":"TENNESSEE RIVER","location":"MORGAN-LIMESTONE COLINE","lat":35.233333,"lon":-87.85,"lengthFt":996.6,"yearBuilt":1973,"adt":17375,"lowestRating":5,"conditionCategory":"fair","structurallyDeficient":false,"materialName":"Steel Continuous","designTypeName":"Girder and Floorbeam"},{"id":"MD-300000CHZ301010","state":"MD","stateName":"Maryland","countyFips":"017","facilityCarried":"U.S. ROUTE 301","featuresIntersected":"POTOMAC RIVER","location":"ON VIRGINIA LINE","lat":39.283611,"lon":-78.536944,"lengthFt":996.6,"yearBuilt":2022,"adt":18550,"lowestRating":8,"conditionCategory":"good","structurallyDeficient":false,"materialName":"Steel Continuous","designTypeName":"Stringer/Multi-beam or Girder"},{"id":"NC-000000000490231","state":"NC","stateName":"North Carolina","countyFips":"049","facilityCarried":"US17 NC55","featuresIntersected":"NEUSE R. & US70","location":"JCT.US17-US70 & NEUS","lat":36.470556,"lon":-77.921667,"lengthFt":992.6,"yearBuilt":2003,"adt":24500,"lowestRating":6,"conditionCategory":"fair","structurallyDeficient":false,"materialName":"Steel Continuous","designTypeName":"Stringer/Multi-beam or Girder"},{"id":"NY-000000001055789","state":"NY","stateName":"New York","countyFips":"081","facilityCarried":"RTE I678","featuresIntersected":"FLUSHING CREEK  MEADOW L","location":"JCT I495+RTE 678","lat":41.299722,"lon":-74.183333,"lengthFt":984.8,"yearBuilt":1963,"adt":127491,"lowestRating":4,"conditionCategory":"poor","structurallyDeficient":true,"materialName":"Steel","designTypeName":"Stringer/Multi-beam or Girder"},{"id":"FL-100333","state":"FL","stateName":"Florida","countyFips":"057","facilityCarried":"SR-618 EB & RAMPS","featuresIntersected":"HILLS RVR & DOWNTOWN TPA","location":"BTWN BAYSHORE & 19TH","lat":28.893333,"lon":-83.339722,"lengthFt":983.7,"yearBuilt":1975,"adt":25500,"lowestRating":7,"conditionCategory":"good","structurallyDeficient":false,"materialName":"Steel","designTypeName":"Stringer/Multi-beam or Girder"},{"id":"HI-003000H10201582","state":"HI","stateName":"Hawaii","countyFips":"003","facilityCarried":"AIRPT VIA (E.B) H1","featuresIntersected":"LAGN DR CATLIN OHOHIA ST","location":".04 MILE E OF VALKENBURGH","lat":21.723333,"lon":-159.548056,"lengthFt":981.2,"yearBuilt":1981,"adt":124400,"lowestRating":6,"conditionCategory":"fair","structurallyDeficient":false,"materialName":"Prestressed Concrete","designTypeName":"Stringer/Multi-beam or Girder"},{"id":"HI-003000H10201581","state":"HI","stateName":"Hawaii","countyFips":"003","facilityCarried":"AIRPT VIA (W.B) H1","featuresIntersected":"VALKBGH CATLIN OHOHIA ST","location":".04 MILE E OF VALKENBURGH","lat":21.756389,"lon":-159.543889,"lengthFt":980.8,"yearBuilt":1981,"adt":124400,"lowestRating":6,"conditionCategory":"fair","structurallyDeficient":false,"materialName":"Prestressed Concrete","designTypeName":"Stringer/Multi-beam or Girder"},{"id":"SC-000000000009824","state":"SC","stateName":"South Carolina","countyFips":"019","facilityCarried":"US 17","featuresIntersected":"COOPER RIVER  TOWN CREEK","location":"2 MI W OF MT. PLEASANT","lat":33.087778,"lon":-81.402222,"lengthFt":973.7,"yearBuilt":2005,"adt":94400,"lowestRating":7,"conditionCategory":"good","structurallyDeficient":false,"materialName":"Steel Continuous","designTypeName":"Cable-Stayed"},{"id":"TX-161780010106046","state":"TX","stateName":"Texas","countyFips":"355","facilityCarried":"US 181 NB","featuresIntersected":"NUECES BAY","location":"2.3 MI NE OF SHIP CHANNEL","lat":28.1025,"lon":-98.805278,"lengthFt":963.7,"yearBuilt":1963,"adt":27596,"lowestRating":5,"conditionCategory":"fair","structurallyDeficient":false,"materialName":"Prestressed Concrete","designTypeName":"Stringer/Multi-beam or Girder"},{"id":"TX-161780010106063","state":"TX","stateName":"Texas","countyFips":"355","facilityCarried":"US 181 SB","featuresIntersected":"NUECES BAY","location":"2.3 MI NE OF SHIP CHANNEL","lat":28.1525,"lon":-98.168333,"lengthFt":963.7,"yearBuilt":1963,"adt":28117,"lowestRating":5,"conditionCategory":"fair","structurallyDeficient":false,"materialName":"Prestressed Concrete","designTypeName":"Stringer/Multi-beam or Girder"},{"id":"TX-121020027116449","state":"TX","stateName":"Texas","countyFips":"201","facilityCarried":"IH610EB TO IH45NB","featuresIntersected":"IH 45 AND IH 610","location":"IH 610 AT IH 45","lat":30.903056,"lon":-95.390833,"lengthFt":959.5,"yearBuilt":2020,"adt":12000,"lowestRating":7,"conditionCategory":"good","structurallyDeficient":false,"materialName":"Steel Continuous","designTypeName":"Stringer/Multi-beam or Girder"},{"id":"AR-CEPSWLARSANDERS","state":"AR","stateName":"Arkansas","countyFips":"069","facilityCarried":"US Hwy 63/79","featuresIntersected":"Emmett Sanders Lock&Dam","location":"12.8 KM NE of Pine Bluff","lat":35.761111,"lon":-92.316667,"lengthFt":957.8,"yearBuilt":1996,"adt":3000,"lowestRating":5,"conditionCategory":"fair","structurallyDeficient":false,"materialName":"Prestressed Concrete","designTypeName":"Stringer/Multi-beam or Girder"},{"id":"AR-000000000006830","state":"AR","stateName":"Arkansas","countyFips":"095","facilityCarried":"US 79 -SEC 13","featuresIntersected":"White River; RR;River Rd","location":"1.8 MI W SH 86","lat":35.366667,"lon":-91.7775,"lengthFt":946.8,"yearBuilt":2015,"adt":3200,"lowestRating":7,"conditionCategory":"good","structurallyDeficient":false,"materialName":"Steel Continuous","designTypeName":"Stringer/Multi-beam or Girder"},{"id":"TX-201240030603030","state":"TX","stateName":"Texas","countyFips":"245","facilityCarried":"SH 73/SH 87 EB","featuresIntersected":"NECHES RIVER","location":"VETERANS MEMORIAL BRIDGE","lat":31.293333,"lon":-94.254444,"lengthFt":944.0,"yearBuilt":1991,"adt":16000,"lowestRating":6,"conditionCategory":"fair","structurallyDeficient":false,"materialName":"Prestressed Concrete","designTypeName":"Cable-Stayed"},{"id":"CA-28 0009","state":"CA","stateName":"California","countyFips":"013","facilityCarried":"SR 160","featuresIntersected":"SAN JOAQUIN RIVR ANTIOCH","location":"04-CC-160-0.82","lat":38.03,"lon":-121.897778,"lengthFt":943.7,"yearBuilt":1978,"adt":18900,"lowestRating":7,"conditionCategory":"good","structurallyDeficient":false,"materialName":"Steel Continuous","designTypeName":"Stringer/Multi-beam or Girder"},{"id":"AR-000000000005141","state":"AR","stateName":"Arkansas","countyFips":"035","facilityCarried":"I 40-SEC 52","featuresIntersected":"MISS RVR  CR  CI ST  RR","location":"4 MI E JCT I-55 & I-40","lat":35.453056,"lon":-91.217778,"lengthFt":943.1,"yearBuilt":1973,"adt":45000,"lowestRating":5,"conditionCategory":"fair","structurallyDeficient":false,"materialName":"Steel Continuous","designTypeName":"Arch - Thru"},{"id":"TN-79I00400001","state":"TN","stateName":"Tennessee","countyFips":"157","facilityCarried":"I40","featuresIntersected":"MISS RVR CR CI ST RR","location":"4 MI E JCT I-55 & I-40","lat":35.316944,"lon":-90.4,"lengthFt":943.1,"yearBuilt":1973,"adt":35551,"lowestRating":5,"conditionCategory":"fair","structurallyDeficient":false,"materialName":"Steel Continuous","designTypeName":"Arch - Thru"},{"id":"MI-000000000001582","state":"MI","stateName":"Michigan","countyFips":"033","facilityCarried":"I-75  INTL BRIDGE","featuresIntersected":"ST MARY RIV/PORTAGE AV W","location":"IN SAULT STE MARIE","lat":47.342222,"lon":-85.415,"lengthFt":928.0,"yearBuilt":1962,"adt":5242,"lowestRating":6,"conditionCategory":"fair","structurallyDeficient":false,"materialName":"Steel Continuous","designTypeName":"Truss - Thru"},{"id":"LA-053704510616841","state":"LA","stateName":"Louisiana","countyFips":"073","facilityCarried":"I0020","featuresIntersected":"CITY ST/ICG RR/OUACHITA","location":"16.84 MI E LINCOLN PAR LN","lat":33.845833,"lon":-93.760278,"lengthFt":915.5,"yearBuilt":1965,"adt":84225,"lowestRating":5,"conditionCategory":"fair","structurallyDeficient":false,"materialName":"Steel Continuous","designTypeName":"Girder and Floorbeam"},{"id":"LA-053704510616842","state":"LA","stateName":"Louisiana","countyFips":"073","facilityCarried":"I0020","featuresIntersected":"CITY ST/ICG RR/OUACHITA","location":"16.84 MI E LINCOLN PAR LN","lat":32.6,"lon":-92.520278,"lengthFt":915.5,"yearBuilt":1965,"adt":66061,"lowestRating":5,"conditionCategory":"fair","structurallyDeficient":false,"materialName":"Steel Continuous","designTypeName":"Girder and Floorbeam"},{"id":"LA-614704260200721","state":"LA","stateName":"Louisiana","countyFips":"093","facilityCarried":"LA0070","featuresIntersected":"MISSISSIPPI RIVER","location":"LA0070","lat":31.375,"lon":-91.448056,"lengthFt":910.2,"yearBuilt":1963,"adt":17100,"lowestRating":5,"conditionCategory":"fair","structurallyDeficient":false,"materialName":"Steel","designTypeName":"Truss - Thru"},{"id":"MD-300000BCZ472010","state":"MD","stateName":"Maryland","countyFips":"510","facilityCarried":"MD 695","featuresIntersected":"PATAPSCO RIVER","location":"I-695 OVER PATAPSCO RIVER","lat":40.174444,"lon":-77.1475,"lengthFt":909.1,"yearBuilt":1976,"adt":30767,"lowestRating":6,"conditionCategory":"fair","structurallyDeficient":false,"materialName":"Steel Continuous","designTypeName":"Truss - Thru"},{"id":"SC-000000000002662","state":"SC","stateName":"South Carolina","countyFips":"013","facilityCarried":"SC 170","featuresIntersected":"BROAD RIVER","location":"6MI SW OF BEAUFORT","lat":32.599444,"lon":-82.261389,"lengthFt":900.0,"yearBuilt":2004,"adt":29600,"lowestRating":5,"conditionCategory":"fair","structurallyDeficient":false,"materialName":"Prestressed Concrete Continuous","designTypeName":"Stringer/Multi-beam or Girder"},{"id":"CA-27 0052","state":"CA","stateName":"California","countyFips":"041","facilityCarried":"U.S. HIGHWAY 101","featuresIntersected":"GOLDEN GATE-SAN FRAN BAY","location":"04-MRN-101-L0.01","lat":38.15,"lon":-123.466667,"lengthFt":899.7,"yearBuilt":1937,"adt":112000,"lowestRating":5,"conditionCategory":"fair","structurallyDeficient":false,"materialName":"Steel","designTypeName":"Suspension"},{"id":"TX-150150007212206","state":"TX","stateName":"Texas","countyFips":"029","facilityCarried":"IH 10 WB UPPER LEV","featuresIntersected":"FREDERICKSBURG - POPLAR","location":"MULBERRY TO FRIO ST","lat":30.182222,"lon":-100.028611,"lengthFt":895.5,"yearBuilt":1989,"adt":33604,"lowestRating":5,"conditionCategory":"fair","structurallyDeficient":false,"materialName":"Prestressed Concrete Continuous","designTypeName":"Segmental Box Girder"},{"id":"GA-000000005101690","state":"GA","stateName":"Georgia","countyFips":"051","facilityCarried":"TALMADGE MEMORIAL","featuresIntersected":"M4032- 2 SR 25C- 2 CR744","location":"NW SECTION OF SAVANNAH","lat":32.606944,"lon":-82.617778,"lengthFt":885.2,"yearBuilt":1991,"adt":8310,"lowestRating":6,"conditionCategory":"fair","structurallyDeficient":false,"materialName":"Concrete Continuous","designTypeName":"Cable-Stayed"},{"id":"CA-22 0045","state":"CA","stateName":"California","countyFips":"113","facilityCarried":"INTERSTATE 80","featuresIntersected":"YOLO CAUSEWAY EAST","location":"03-YOL-080-7.25","lat":38.696944,"lon":-122.8325,"lengthFt":880.0,"yearBuilt":1963,"adt":135000,"lowestRating":7,"conditionCategory":"good","structurallyDeficient":false,"materialName":"Prestressed Concrete","designTypeName":"Tee Beam"},{"id":"PA-000000000038666","state":"PA","stateName":"Pennsylvania","countyFips":"101","facilityCarried":"PENROSE AVENUE","featuresIntersected":"SCHUYLKILL RIVER & R.R.","location":"GEORGE PLATT MEM. 3699G07","lat":40.736111,"lon":-76.009722,"lengthFt":878.0,"yearBuilt":1949,"adt":90217,"lowestRating":5,"conditionCategory":"fair","structurallyDeficient":false,"materialName":"Steel Continuous","designTypeName":"Truss - Thru"},{"id":"MS-21000900240494A","state":"MS","stateName":"Mississippi","countyFips":"047","facilityCarried":"US 90","featuresIntersected":"BILOXI BAY","location":"HARRISON/JACKSON CL","lat":31.509167,"lon":-89.605833,"lengthFt":876.6,"yearBuilt":2008,"adt":12500,"lowestRating":7,"conditionCategory":"good","structurallyDeficient":false,"materialName":"Prestressed Concrete Continuous","designTypeName":"Stringer/Multi-beam or Girder"},{"id":"MS-21000900240494B","state":"MS","stateName":"Mississippi","countyFips":"047","facilityCarried":"US 90","featuresIntersected":"BILOXI BAY","location":"HARRISON/JACKSON CL","lat":31.293889,"lon":-89.693611,"lengthFt":876.6,"yearBuilt":2008,"adt":12500,"lowestRating":7,"conditionCategory":"good","structurallyDeficient":false,"materialName":"Prestressed Concrete Continuous","designTypeName":"Stringer/Multi-beam or Girder"},{"id":"CA-53 3000","state":"CA","stateName":"California","countyFips":"037","facilityCarried":"ROUTE 710","featuresIntersected":"LONG BEACH/TERMINAL ISL","location":"07-LA-710-3.60","lat":35.234167,"lon":-118.676944,"lengthFt":874.6,"yearBuilt":2020,"adt":50000,"lowestRating":5,"conditionCategory":"fair","structurallyDeficient":false,"materialName":"Steel","designTypeName":"Cable-Stayed"},{"id":"CA-22 0124L","state":"CA","stateName":"California","countyFips":"113","facilityCarried":"INTERSTATE 5 SB","featuresIntersected":"YOLO BYPASS","location":"03-YOL-005-0.84","lat":39.327222,"lon":-122.489722,"lengthFt":871.1,"yearBuilt":1969,"adt":25500,"lowestRating":6,"conditionCategory":"fair","structurallyDeficient":false,"materialName":"Prestressed Concrete Continuous","designTypeName":"Tee Beam"},{"id":"CA-22 0124R","state":"CA","stateName":"California","countyFips":"113","facilityCarried":"INTERSTATE 5 NB","featuresIntersected":"YOLO BYPASS","location":"03-YOL-005-0.84","lat":39.353611,"lon":-122.489444,"lengthFt":871.1,"yearBuilt":1969,"adt":25500,"lowestRating":5,"conditionCategory":"fair","structurallyDeficient":false,"materialName":"Prestressed Concrete Continuous","designTypeName":"Tee Beam"},{"id":"MD-100000090021010","state":"MD","stateName":"Maryland","countyFips":"019","facilityCarried":"US 50","featuresIntersected":"CHOPTANK RIVER","location":"ON TALBOT CO LINE","lat":39.419167,"lon":-77.4675,"lengthFt":865.1,"yearBuilt":1987,"adt":27191,"lowestRating":5,"conditionCategory":"fair","structurallyDeficient":false,"materialName":"Steel Continuous","designTypeName":"Stringer/Multi-beam or Girder"},{"id":"CA-37 0352H","state":"CA","stateName":"California","countyFips":"085","facilityCarried":"N&S101- N280&N680","featuresIntersected":"I 280 I 680 US 101 STORY","location":"04-SCL-101-34.87-SJS","lat":37.805833,"lon":-123.41,"lengthFt":864.6,"yearBuilt":1974,"adt":40000,"lowestRating":5,"conditionCategory":"fair","structurallyDeficient":false,"materialName":"Concrete Continuous","designTypeName":"Box Beam - Multiple"},{"id":"TX-121020027107509","state":"TX","stateName":"Texas","countyFips":"201","facilityCarried":"IH 10 HOV","featuresIntersected":"IH 45 SB; IH10 EB & MISC","location":"AT IH 45 INTERCHANGE","lat":30.781667,"lon":-95.581667,"lengthFt":862.8,"yearBuilt":2001,"adt":3894,"lowestRating":5,"conditionCategory":"fair","structurallyDeficient":false,"materialName":"Steel Continuous","designTypeName":"Box Beam - Multiple"},{"id":"MI-000000000011716","state":"MI","stateName":"Michigan","countyFips":"163","facilityCarried":"I-75","featuresIntersected":"ROUGE R DEARBORN ST & RR","location":"IN DETROIT","lat":43.368056,"lon":-84.157222,"lengthFt":862.7,"yearBuilt":1967,"adt":103925,"lowestRating":6,"conditionCategory":"fair","structurallyDeficient":false,"materialName":"Steel Continuous","designTypeName":"Stringer/Multi-beam or Girder"},{"id":"CA-35 0038","state":"CA","stateName":"California","countyFips":"081","facilityCarried":"STATE ROUTE 84","featuresIntersected":"SAN FRANCISCO BAY-SOUTH","location":"04-SM-084-R29.25-MLP","lat":39.065,"lon":-123.288333,"lengthFt":860.0,"yearBuilt":1981,"adt":62000,"lowestRating":5,"conditionCategory":"fair","structurallyDeficient":false,"materialName":"Steel Continuous","designTypeName":"Box Beam - Multiple"},{"id":"TX-120850050001373","state":"TX","stateName":"Texas","countyFips":"167","facilityCarried":"IH 45 NB","featuresIntersected":"GALVESTON BAY","location":"3.70 MI SE OF SH 6","lat":30.076111,"lon":-95.852778,"lengthFt":859.2,"yearBuilt":2006,"adt":34360,"lowestRating":6,"conditionCategory":"fair","structurallyDeficient":false,"materialName":"Prestressed Concrete Continuous","designTypeName":"Segmental Box Girder"},{"id":"TX-120850050001374","state":"TX","stateName":"Texas","countyFips":"167","facilityCarried":"IH 45 SB","featuresIntersected":"GALVESTON BAY","location":"3.70 MI SE OF SH 6","lat":29.539722,"lon":-94.926111,"lengthFt":859.2,"yearBuilt":2007,"adt":34360,"lowestRating":6,"conditionCategory":"fair","structurallyDeficient":false,"materialName":"Prestressed Concrete Continuous","designTypeName":"Segmental Box Girder"},{"id":"NC-000000000550072","state":"NC","stateName":"North Carolina","countyFips":"055","facilityCarried":"NC12","featuresIntersected":"OREGON INLET","location":"10 MI. S. JCT. US158","lat":36.861667,"lon":-76.564444,"lengthFt":856.2,"yearBuilt":2019,"adt":5900,"lowestRating":7,"conditionCategory":"good","structurallyDeficient":false,"materialName":"Prestressed Concrete","designTypeName":"Segmental Box Girder"},{"id":"AR-000000000005600","state":"AR","stateName":"Arkansas","countyFips":"083","facilityCarried":"SH 109","featuresIntersected":"ARKANSAS RIVER","location":"1.5 MI SO JCT 194","lat":36.081667,"lon":-94.866667,"lengthFt":853.7,"yearBuilt":1980,"adt":3800,"lowestRating":6,"conditionCategory":"fair","structurallyDeficient":false,"materialName":"Steel Continuous","designTypeName":"Girder and Floorbeam"},{"id":"TX-180610F00460002","state":"TX","stateName":"Texas","countyFips":"121","facilityCarried":"SWISHER RD","featuresIntersected":"LEWISVILLE LAKE","location":"1.47 MI E  OF IH 35E","lat":33.573333,"lon":-97.058333,"lengthFt":852.0,"yearBuilt":2009,"adt":7000,"lowestRating":5,"conditionCategory":"fair","structurallyDeficient":false,"materialName":"Steel","designTypeName":"Arch - Thru"},{"id":"LA-071004503001411","state":"LA","stateName":"Louisiana","countyFips":"019","facilityCarried":"I0210","featuresIntersected":"PRIEN LAKE","location":"1.4 MI SOUTH OF I-10","lat":31.503889,"lon":-93.96,"lengthFt":850.0,"yearBuilt":1964,"adt":58320,"lowestRating":5,"conditionCategory":"fair","structurallyDeficient":false,"materialName":"Steel","designTypeName":"Girder and Floorbeam"},{"id":"NJ-4500011","state":"NJ","stateName":"New Jersey","countyFips":"007","facilityCarried":"ROUTE NJ 90","featuresIntersected":"DEL. R  R.AVE CON NJ TR.","location":"PENNSAUKEN","lat":40.15,"lon":-75.233056,"lengthFt":848.1,"yearBuilt":1976,"adt":19785,"lowestRating":6,"conditionCategory":"fair","structurallyDeficient":false,"materialName":"Steel","designTypeName":"Truss - Thru"},{"id":"PA-000000000039199","state":"PA","stateName":"Pennsylvania","countyFips":"007","facilityCarried":"ROUTE NJ 90","featuresIntersected":"DEL. R  R.AVE CON NJ TR.","location":"PENNSAUKEN","lat":40.15,"lon":-75.233056,"lengthFt":848.1,"yearBuilt":1976,"adt":19785,"lowestRating":6,"conditionCategory":"fair","structurallyDeficient":false,"materialName":"Steel","designTypeName":"Truss - Thru"},{"id":"DE-000000001496002","state":"DE","stateName":"Delaware","countyFips":"003","facilityCarried":"DELAWARE RT. 9","featuresIntersected":"C&D CANAL","location":"1/2 MI S OF DEL. CITY","lat":40.355556,"lon":-77.177778,"lengthFt":843.2,"yearBuilt":1969,"adt":1203,"lowestRating":5,"conditionCategory":"fair","structurallyDeficient":false,"materialName":"Steel","designTypeName":"Truss - Thru"},{"id":"FL-470029","state":"FL","stateName":"Florida","countyFips":"013","facilityCarried":"SR20","featuresIntersected":"Apalachicola River","location":"3.0mi East of SR71","lat":31.307778,"lon":-85.542778,"lengthFt":839.7,"yearBuilt":1938,"adt":5266,"lowestRating":5,"conditionCategory":"fair","structurallyDeficient":false,"materialName":"Steel Continuous","designTypeName":"Truss - Thru"},{"id":"LA-035104240536942","state":"LA","stateName":"Louisiana","countyFips":"101","facilityCarried":"US0090","featuresIntersected":"BAYOU RAMOS","location":"2.5 Mi W. of LA 662","lat":30.57,"lon":-92.744167,"lengthFt":836.9,"yearBuilt":1994,"adt":10035,"lowestRating":4,"conditionCategory":"poor","structurallyDeficient":true,"materialName":"Prestressed Concrete","designTypeName":"Stringer/Multi-beam or Girder"},{"id":"FL-470052","state":"FL","stateName":"Florida","countyFips":"013","facilityCarried":"SR20","featuresIntersected":"Apalachicola River","location":"1.9mi. East of SR71","lat":31.296111,"lon":-85.551944,"lengthFt":836.2,"yearBuilt":1998,"adt":5266,"lowestRating":6,"conditionCategory":"fair","structurallyDeficient":false,"materialName":"Steel Continuous","designTypeName":"Stringer/Multi-beam or Girder"},{"id":"LA-035104240536941","state":"LA","stateName":"Louisiana","countyFips":"101","facilityCarried":"US0090","featuresIntersected":"BAYOU RAMOS","location":"3.19 Mi E of LA 182","lat":30.665833,"lon":-91.199722,"lengthFt":834.9,"yearBuilt":1994,"adt":7885,"lowestRating":4,"conditionCategory":"poor","structurallyDeficient":true,"materialName":"Prestressed Concrete","designTypeName":"Stringer/Multi-beam or Girder"},{"id":"MN-69100","state":"MN","stateName":"Minnesota","countyFips":"137","facilityCarried":"US 2","featuresIntersected":"ST LOUIS R  TH35; RR","location":"AT WISCONSIN STATE LINE","lat":48.210278,"lon":-93.149444,"lengthFt":832.0,"yearBuilt":1982,"adt":18500,"lowestRating":7,"conditionCategory":"good","structurallyDeficient":false,"materialName":"Steel","designTypeName":"Arch - Thru"},{"id":"WI-B16003800000000","state":"WI","stateName":"Wisconsin","countyFips":"031","facilityCarried":"USH 2","featuresIntersected":"STH IH 35-MINNESOTA","location":"1.1M W MINN STATE LINE","lat":47.721389,"lon":-92.634722,"lengthFt":831.8,"yearBuilt":1983,"adt":17900,"lowestRating":7,"conditionCategory":"good","structurallyDeficient":false,"materialName":"Steel","designTypeName":"Arch - Thru"},{"id":"PR-025251","state":"PR","stateName":"Puerto Rico","countyFips":"151","facilityCarried":"PR 53","featuresIntersected":"GUAYANES RIVER","location":"6 KMS. N.E. OF YABUCOA.","lat":19.509444,"lon":-67.078333,"lengthFt":831.7,"yearBuilt":1997,"adt":17900,"lowestRating":7,"conditionCategory":"good","structurallyDeficient":false,"materialName":"Prestressed Concrete","designTypeName":"Stringer/Multi-beam or Girder"},{"id":"CA-33 0611R","state":"CA","stateName":"California","countyFips":"001","facilityCarried":"INTERSTATE 880 NB","featuresIntersected":"UP RR BNSF RY AMTRAK POR","location":"04-ALA-880-R34.00R-OAK","lat":39.195,"lon":-122.393056,"lengthFt":818.2,"yearBuilt":1998,"adt":126000,"lowestRating":7,"conditionCategory":"good","structurallyDeficient":false,"materialName":"Prestressed Concrete Continuous","designTypeName":"Box Beam - Multiple"},{"id":"NJ-4500010","state":"NJ","stateName":"New Jersey","countyFips":"007","facilityCarried":"I676 US30 PATCO","featuresIntersected":"DEL RIV I-95 RR&ROADS","location":"CITY OF CAMDEN","lat":40.326111,"lon":-75.868056,"lengthFt":817.0,"yearBuilt":1926,"adt":104658,"lowestRating":5,"conditionCategory":"fair","structurallyDeficient":false,"materialName":"Steel","designTypeName":"Suspension"},{"id":"PA-000000000039265","state":"PA","stateName":"Pennsylvania","countyFips":"007","facilityCarried":"I676 US30 PATCO","featuresIntersected":"DEL RIV I-95 RR&ROADS","location":"CITY OF CAMDEN","lat":40.326111,"lon":-75.868056,"lengthFt":817.0,"yearBuilt":1926,"adt":104658,"lowestRating":5,"conditionCategory":"fair","structurallyDeficient":false,"materialName":"Steel","designTypeName":"Suspension"},{"id":"FL-480164","state":"FL","stateName":"Florida","countyFips":"033","facilityCarried":"I110  SR8A","featuresIntersected":"I110 & City Streets","location":"I110/CSX RR 350290A","lat":31.236111,"lon":-88.703056,"lengthFt":813.6,"yearBuilt":1980,"adt":29750,"lowestRating":6,"conditionCategory":"fair","structurallyDeficient":false,"materialName":"Steel Continuous","designTypeName":"Box Beam - Single/Spread"},{"id":"MI-000000000009169","state":"MI","stateName":"Michigan","countyFips":"145","facilityCarried":"I-75 SB","featuresIntersected":"SAGINAW R  M-13  GTWRR","location":"AT ZILWAUKEE","lat":44.653889,"lon":-84.543611,"lengthFt":808.5,"yearBuilt":1984,"adt":23450,"lowestRating":6,"conditionCategory":"fair","structurallyDeficient":false,"materialName":"Prestressed Concrete Continuous","designTypeName":"Segmental Box Girder"},{"id":"MI-000000000009168","state":"MI","stateName":"Michigan","countyFips":"145","facilityCarried":"I-75 NB","featuresIntersected":"SAGINAW R  M13  GTWRR","location":"AT ZILWAUKEE","lat":44.679167,"lon":-84.541111,"lengthFt":806.1,"yearBuilt":1980,"adt":23450,"lowestRating":6,"conditionCategory":"fair","structurallyDeficient":false,"materialName":"Prestressed Concrete Continuous","designTypeName":"Segmental Box Girder"},{"id":"TX-112030039002059","state":"TX","stateName":"Texas","countyFips":"405","facilityCarried":"SH 147","featuresIntersected":"ANGELINA RIVER","location":"0.00 MI NE OF ANGELINA CL","lat":32.781389,"lon":-94.5525,"lengthFt":805.0,"yearBuilt":1960,"adt":1447,"lowestRating":6,"conditionCategory":"fair","structurallyDeficient":false,"materialName":"Prestressed Concrete","designTypeName":"Stringer/Multi-beam or Girder"},{"id":"FL-010106","state":"FL","stateName":"Florida","countyFips":"015","facilityCarried":"I-75 (SR-93)","featuresIntersected":"PEACE RIVER","location":"0.75 MI N OF US-17","lat":27.934722,"lon":-82.366944,"lengthFt":804.3,"yearBuilt":2003,"adt":82000,"lowestRating":7,"conditionCategory":"good","structurallyDeficient":false,"materialName":"Prestressed Concrete","designTypeName":"Stringer/Multi-beam or Girder"},{"id":"TX-150150007212205","state":"TX","stateName":"Texas","countyFips":"029","facilityCarried":"IH 10 EB ELEV ML","featuresIntersected":"W MAGNOLIA TO N FRIO ST","location":"IH 10 INBOUND DWNTWN Y","lat":29.949722,"lon":-100.062222,"lengthFt":804.0,"yearBuilt":1993,"adt":100430,"lowestRating":5,"conditionCategory":"fair","structurallyDeficient":false,"materialName":"Prestressed Concrete Continuous","designTypeName":"Segmental Box Girder"},{"id":"MN-9030","state":"MN","stateName":"Minnesota","countyFips":"137","facilityCarried":"I 535","featuresIntersected":"ST LOUIS R; RR STREET","location":"1.3 SE OF JCT TH 35","lat":48.371389,"lon":-92.220278,"lengthFt":798.0,"yearBuilt":1961,"adt":33021,"lowestRating":4,"conditionCategory":"poor","structurallyDeficient":true,"materialName":"Steel Continuous","designTypeName":"Truss - Thru"},{"id":"WI-B16000500000000","state":"WI","stateName":"Wisconsin","countyFips":"031","facilityCarried":"I 535","featuresIntersected":"ST LOUIS R; RR STREET","location":"1.3 SE OF JCT TH 35","lat":48.371389,"lon":-92.220278,"lengthFt":798.0,"yearBuilt":1961,"adt":33021,"lowestRating":4,"conditionCategory":"poor","structurallyDeficient":true,"materialName":"Steel Continuous","designTypeName":"Truss - Thru"},{"id":"FL-770054","state":"FL","stateName":"Florida","countyFips":"117","facilityCarried":"SR 417 SB 44.6","featuresIntersected":"LAKE JESUP","location":"0.83 MI NORTH OF SR 434","lat":29.610278,"lon":-81.666389,"lengthFt":793.5,"yearBuilt":1993,"adt":28000,"lowestRating":6,"conditionCategory":"fair","structurallyDeficient":false,"materialName":"Prestressed Concrete","designTypeName":"Stringer/Multi-beam or Girder"},{"id":"FL-770055","state":"FL","stateName":"Florida","countyFips":"117","facilityCarried":"SR 417 NB 44.6","featuresIntersected":"LAKE JESUP","location":"0.83 MI NORTH OF SR 434","lat":29.771389,"lon":-81.724722,"lengthFt":793.5,"yearBuilt":1993,"adt":28000,"lowestRating":6,"conditionCategory":"fair","structurallyDeficient":false,"materialName":"Prestressed Concrete","designTypeName":"Stringer/Multi-beam or Girder"},{"id":"TX-142270001513331","state":"TX","stateName":"Texas","countyFips":"453","facilityCarried":"IH 35 SB OVERHEAD","featuresIntersected":"IH 35 SB LOWER LEVEL","location":"3.5 MI S OF US 183","lat":31.755278,"lon":-98.898889,"lengthFt":792.5,"yearBuilt":1972,"adt":99058,"lowestRating":6,"conditionCategory":"fair","structurallyDeficient":false,"materialName":"Prestressed Concrete","designTypeName":"Stringer/Multi-beam or Girder"},{"id":"NY-000000005521218","state":"NY","stateName":"New York","countyFips":"085","facilityCarried":"RTE I278","featuresIntersected":"RTE I278  THE NARROWS","location":"I278 OVER VERRAZ. NARROWS","lat":41.530833,"lon":-74.300278,"lengthFt":791.6,"yearBuilt":1961,"adt":174804,"lowestRating":5,"conditionCategory":"fair","structurallyDeficient":false,"materialName":"Steel","designTypeName":"Suspension"},{"id":"SC-000000000008235","state":"SC","stateName":"South Carolina","countyFips":"019","facilityCarried":"I-526 EB","featuresIntersected":"WANDO RIV & LOCAL ROADS","location":"6 MI NE OF CHARLESTON","lat":33.647778,"lon":-80.881944,"lengthFt":790.0,"yearBuilt":1989,"adt":35650,"lowestRating":6,"conditionCategory":"fair","structurallyDeficient":false,"materialName":"Prestressed Concrete Continuous","designTypeName":"Segmental Box Girder"},{"id":"SC-000000000008238","state":"SC","stateName":"South Carolina","countyFips":"019","facilityCarried":"I-526 WB","featuresIntersected":"WANDO RIV & LOCAL ROADS","location":"6 MI NE OF CHARLESTON","lat":33.659444,"lon":-80.871667,"lengthFt":790.0,"yearBuilt":1989,"adt":35650,"lowestRating":6,"conditionCategory":"fair","structurallyDeficient":false,"materialName":"Prestressed Concrete Continuous","designTypeName":"Segmental Box Girder"},{"id":"FL-100852","state":"FL","stateName":"Florida","countyFips":"057","facilityCarried":"SR618Bto/fromUS92","featuresIntersected":"US92/Westshore/Manhattan","location":"0.6 Mi E/O Gandy Bridge","lat":28.883889,"lon":-83.155556,"lengthFt":787.2,"yearBuilt":2021,"adt":19250,"lowestRating":6,"conditionCategory":"fair","structurallyDeficient":false,"materialName":"Prestressed Concrete Continuous","designTypeName":"Segmental Box Girder"},{"id":"NY-000000005060381","state":"NY","stateName":"New York","countyFips":"071","facilityCarried":"RTE I84","featuresIntersected":"AMTRAK  GRAND AVENUE  HU","location":"JCT.RTE I-84 & HUDSON R.","lat":41.972778,"lon":-75.015833,"lengthFt":786.0,"yearBuilt":1963,"adt":33848,"lowestRating":6,"conditionCategory":"fair","structurallyDeficient":false,"materialName":"Steel","designTypeName":"Truss - Thru"},{"id":"MO-1245","state":"MO","stateName":"Missouri","countyFips":"510","facilityCarried":"IS 64 E","featuresIntersected":"IS 44  CST 4TH ST  CST","location":"S 23 T 45 N R 7 E","lat":39.274444,"lon":-90.345556,"lengthFt":784.7,"yearBuilt":1964,"adt":34244,"lowestRating":5,"conditionCategory":"fair","structurallyDeficient":false,"materialName":"Steel Continuous","designTypeName":"Girder and Floorbeam"},{"id":"MO-1246","state":"MO","stateName":"Missouri","countyFips":"510","facilityCarried":"IS 64 W","featuresIntersected":"IS 44  CST 4TH ST  CST","location":"S 23 T 45 N R 7 E","lat":39.290556,"lon":-90.332778,"lengthFt":784.7,"yearBuilt":1964,"adt":26618,"lowestRating":5,"conditionCategory":"fair","structurallyDeficient":false,"materialName":"Steel Continuous","designTypeName":"Girder and Floorbeam"},