[{"id":"WA-0018066A0000000","state":"WA","stateName":"Washington","countyFips":"033","facilityCarried":"SR 520","featuresIntersected":"LAKE WASHINGTON","location":"1.5 E JCT SR 513","lat":48.611667,"lon":-122.997778,"lowestRating":5,"yearBuilt":2016,"adt":56378,"conditionCategory":"fair","structurallyDeficient":false,"materialName":"Concrete","designTypeName":"Other","lengthFt":763.5,"maxSpanFt":763.5},{"id":"WA-000000KN0000000","state":"WA","stateName":"Washington","countyFips":"033","facilityCarried":"I-90","featuresIntersected":"LAKE WASHINGTON","location":"1.9 E JCT I-5","lat":48.25,"lon":-122.283333,"lowestRating":4,"yearBuilt":1940,"adt":63053,"conditionCategory":"poor","structurallyDeficient":true,"materialName":"Concrete","designTypeName":"Other","lengthFt":656.1,"maxSpanFt":656.1},{"id":"WA-0012271A0000000","state":"WA","stateName":"Washington","countyFips":"033","facilityCarried":"W.B. & REV I-90","featuresIntersected":"LAKE WASHINGTON","location":"2.6 E JCT I-5","lat":48.27,"lon":-123.8025,"lowestRating":5,"yearBuilt":1989,"adt":63053,"conditionCategory":"fair","structurallyDeficient":false,"materialName":"Prestressed Concrete","designTypeName":"Box Beam - Multiple","lengthFt":573.7,"maxSpanFt":573.7},{"id":"NY-000000005521217","state":"NY","stateName":"New York","countyFips":"085","facilityCarried":"RTE I278","featuresIntersected":"907C 907CX2M13033  RTE I","location":"I278 OVER THE NARROWS","lat":41.540556,"lon":-74.309167,"lowestRating":5,"yearBuilt":1961,"adt":182700,"conditionCategory":"fair","structurallyDeficient":false,"materialName":"Steel","designTypeName":"Suspension","lengthFt":773.8,"maxSpanFt":422.4},{"id":"NY-000000005521218","state":"NY","stateName":"New York","countyFips":"085","facilityCarried":"RTE I278","featuresIntersected":"RTE I278  THE NARROWS","location":"I278 OVER VERRAZ. NARROWS","lat":41.530833,"lon":-74.300278,"lowestRating":5,"yearBuilt":1961,"adt":174804,"conditionCategory":"fair","structurallyDeficient":false,"materialName":"Steel","designTypeName":"Suspension","lengthFt":791.6,"maxSpanFt":422.4},{"id":"CA-27 0052","state":"CA","stateName":"California","countyFips":"041","facilityCarried":"U.S. HIGHWAY 101","featuresIntersected":"GOLDEN GATE-SAN FRAN BAY","location":"04-MRN-101-L0.01","lat":38.15,"lon":-123.466667,"lowestRating":5,"yearBuilt":1937,"adt":112000,"conditionCategory":"fair","structurallyDeficient":false,"materialName":"Steel","designTypeName":"Suspension","lengthFt":899.7,"maxSpanFt":420},{"id":"MI-000000000002456","state":"MI","stateName":"Michigan","countyFips":"047","facilityCarried":"I-75","featuresIntersected":"STRAITS OF MACKINAC","location":"MACKINAW CITY-ST IGNACE","lat":46.183889,"lon":-85.530556,"lowestRating":7,"yearBuilt":1957,"adt":11076,"conditionCategory":"good","structurallyDeficient":false,"materialName":"Steel","designTypeName":"Suspension","lengthFt":1924.8,"maxSpanFt":380.1},{"id":"WA-0011964A0000000","state":"WA","stateName":"Washington","countyFips":"031","facilityCarried":"SR 104 WESTHALF","featuresIntersected":"HOOD CANAL","location":"13.7 E JCT US 101","lat":49.416111,"lon":-122.771111,"lowestRating":3,"yearBuilt":1982,"adt":17634,"conditionCategory":"poor","structurallyDeficient":true,"materialName":"Prestressed Concrete","designTypeName":"Other","lengthFt":375,"maxSpanFt":375},{"id":"NJ-3822507","state":"NJ","stateName":"New Jersey","countyFips":"003","facilityCarried":"95I 95I04011007","featuresIntersected":"9A 9A04121108/Hudson Rvr","location":"I-95 over Hudson River LL","lat":41.025,"lon":-74.148889,"lowestRating":5,"yearBuilt":1962,"adt":288046,"conditionCategory":"fair","structurallyDeficient":false,"materialName":"Steel","designTypeName":"Suspension","lengthFt":498.6,"maxSpanFt":350},{"id":"NY-000000005522507","state":"NY","stateName":"New York","countyFips":"061","facilityCarried":"RTE I95","featuresIntersected":"Amtrak Railroad  Fort Wa","location":"95I OVER HUDSON RIVER  LL","lat":41.024722,"lon":-74.149167,"lowestRating":5,"yearBuilt":1962,"adt":268692,"conditionCategory":"fair","structurallyDeficient":false,"materialName":"Steel","designTypeName":"Suspension","lengthFt":498.6,"maxSpanFt":350},{"id":"NJ-3822508","state":"NJ","stateName":"New Jersey","countyFips":"003","facilityCarried":"95I 95I04011007","featuresIntersected":"9A 9A04021108/Hudson Rvr","location":"I-95 over Hudson River UL","lat":42.475,"lon":-74.921944,"lowestRating":5,"yearBuilt":1931,"adt":306177,"conditionCategory":"fair","structurallyDeficient":false,"materialName":"Steel","designTypeName":"Suspension","lengthFt":518.8,"maxSpanFt":345.1},{"id":"NY-000000005522508","state":"NY","stateName":"New York","countyFips":"061","facilityCarried":"RTE I95","featuresIntersected":"Amtrak Railroad  Fort Wa","location":"I95 OVER HUDSON RIVER- UL","lat":42.475278,"lon":-74.921389,"lowestRating":5,"yearBuilt":1931,"adt":271808,"conditionCategory":"fair","structurallyDeficient":false,"materialName":"Steel","designTypeName":"Suspension","lengthFt":518.8,"maxSpanFt":328.1},{"id":"WA-0003418A0000000","state":"WA","stateName":"Washington","countyFips":"053","facilityCarried":"NB SR 16","featuresIntersected":"TACOMA NARROWS","location":"5.1 N JCT I-5","lat":48.722222,"lon":-123.802778,"lowestRating":5,"yearBuilt":1949,"adt":43285,"conditionCategory":"fair","structurallyDeficient":false,"materialName":"Steel Continuous","designTypeName":"Suspension","lengthFt":597.8,"maxSpanFt":280},{"id":"WA-0016441A0000000","state":"WA","stateName":"Washington","countyFips":"053","facilityCarried":"SB SR 16","featuresIntersected":"TACOMA NARROWS","location":"1.5 N JCT SR 163","lat":48.652778,"lon":-123.869444,"lowestRating":7,"yearBuilt":2007,"adt":43285,"conditionCategory":"good","structurallyDeficient":false,"materialName":"Steel Continuous","designTypeName":"Suspension","lengthFt":557,"maxSpanFt":280},{"id":"WA-0016525A0000000","state":"WA","stateName":"Washington","countyFips":"035","facilityCarried":"SR 104 EAST HALF","featuresIntersected":"HOOD CANAL","location":"0.1 E JEFFERSON CO","lat":48.754167,"lon":-123.241667,"lowestRating":4,"yearBuilt":2009,"adt":17634,"conditionCategory":"poor","structurallyDeficient":true,"materialName":"Prestressed Concrete","designTypeName":"Other","lengthFt":267,"maxSpanFt":267},{"id":"OR-22009 039 05848","state":"OR","stateName":"Oregon","countyFips":"071","facilityCarried":"Hwy 039 (OR 18)","featuresIntersected":"RR  College/River St","location":"MP 58.48","lat":45.881667,"lon":-123.377778,"lowestRating":7,"yearBuilt":2016,"adt":12493,"conditionCategory":"good","structurallyDeficient":false,"materialName":"Prestressed Concrete Continuous","designTypeName":"Stringer/Multi-beam or Girder","lengthFt":250,"maxSpanFt":250},{"id":"CA-28 0352L","state":"CA","stateName":"California","countyFips":"013","facilityCarried":"INTERSTATE 80 WB","featuresIntersected":"CARQUINEZ STRAITS  RR","location":"04-CC-080-13.80-VAL","lat":38.645556,"lon":-123.145833,"lowestRating":5,"yearBuilt":2003,"adt":154000,"conditionCategory":"fair","structurallyDeficient":false,"materialName":"Steel Continuous","designTypeName":"Suspension","lengthFt":346.5,"maxSpanFt":238.8},{"id":"MT-011401000000046","state":"MT","stateName":"Montana","countyFips":"053","facilityCarried":"KOOCANUSA BRIDGE","featuresIntersected":"KOOCANUSA RESERVOIR","location":"LAKE KOOCANUSA","lat":49.943889,"lon":-115.69,"lowestRating":6,"yearBuilt":1971,"adt":75,"conditionCategory":"fair","structurallyDeficient":false,"materialName":"Steel","designTypeName":"Truss - Deck","lengthFt":243.7,"maxSpanFt":238.2},{"id":"CA-34 0003","state":"CA","stateName":"California","countyFips":"075","facilityCarried":"INTERSTATE 80","featuresIntersected":"SAN FRANCISCO BAY  3 STS","location":"04-SF-080-6.35L-SF","lat":38.0925,"lon":-123.108333,"lowestRating":5,"yearBuilt":1936,"adt":200000,"conditionCategory":"fair","structurallyDeficient":false,"materialName":"Steel","designTypeName":"Suspension","lengthFt":2060.8,"maxSpanFt":231},{"id":"NY-000000005521229","state":"NY","stateName":"New York","countyFips":"081","facilityCarried":"RTE I678","featuresIntersected":"3RD AVE  HUTCHINSON RIVE","location":"I678 OVER EAST RIVER","lat":42.157778,"lon":-74.812222,"lowestRating":6,"yearBuilt":1938,"adt":111044,"conditionCategory":"fair","structurallyDeficient":false,"materialName":"Steel","designTypeName":"Suspension","lengthFt":689,"maxSpanFt":230},{"id":"DE-1737A056","state":"DE","stateName":"Delaware","countyFips":"003","facilityCarried":"I 295 N & US 40 E","featuresIntersected":"DELAWARE RIVER","location":"NEW CASTLE","lat":40.581389,"lon":-76.871944,"lowestRating":5,"yearBuilt":1951,"adt":48349,"conditionCategory":"fair","structurallyDeficient":false,"materialName":"Steel","designTypeName":"Suspension","lengthFt":1079.6,"maxSpanFt":215},{"id":"DE-1737B056","state":"DE","stateName":"Delaware","countyFips":"003","facilityCarried":"I 295 S & US 40 W","featuresIntersected":"DELAWARE RIVER","location":"NEW CASTLE","lat":40.636389,"lon":-76.810833,"lowestRating":5,"yearBuilt":1968,"adt":50098,"conditionCategory":"fair","structurallyDeficient":false,"materialName":"Steel","designTypeName":"Suspension","lengthFt":1079.6,"maxSpanFt":215},{"id":"NJ-3200004","state":"NJ","stateName":"New Jersey","countyFips":"033","facilityCarried":"I-295 NB & US 40 E","featuresIntersected":"Delaware River","location":"Delaware Memorial Bridge","lat":40.581111,"lon":-76.871944,"lowestRating":5,"yearBuilt":1951,"adt":46123,"conditionCategory":"fair","structurallyDeficient":false,"materialName":"Steel","designTypeName":"Suspension","lengthFt":1079.6,"maxSpanFt":215},{"id":"NJ-3200005","state":"NJ","stateName":"New Jersey","countyFips":"033","facilityCarried":"I-295 SB & US 40 W","featuresIntersected":"Delaware River","location":"Delaware Memorial Bridge","lat":40.628056,"lon":-76.821944,"lowestRating":5,"yearBuilt":1968,"adt":46830,"conditionCategory":"fair","structurallyDeficient":false,"materialName":"Steel","designTypeName":"Suspension","lengthFt":1079.6,"maxSpanFt":215},{"id":"NJ-4500003","state":"NJ","stateName":"New Jersey","countyFips":"007","facilityCarried":"I-76","featuresIntersected":"I-676 SB  I-95 & DEL RIV","location":"GLOUCESTER CITY","lat":40.423056,"lon":-76.4,"lowestRating":6,"yearBuilt":1957,"adt":110000,"conditionCategory":"fair","structurallyDeficient":false,"materialName":"Steel","designTypeName":"Suspension","lengthFt":1169.3,"maxSpanFt":200},{"id":"PA-000000000039190","state":"PA","stateName":"Pennsylvania","countyFips":"007","facilityCarried":"I-76","featuresIntersected":"I-676 SB  I-95 & DEL RIV","location":"GLOUCESTER CITY","lat":40.423056,"lon":-76.4,"lowestRating":6,"yearBuilt":1957,"adt":110000,"conditionCategory":"fair","structurallyDeficient":false,"materialName":"Steel","designTypeName":"Suspension","lengthFt":1169.3,"maxSpanFt":200},{"id":"WV-00000000010A214","state":"WV","stateName":"West Virginia","countyFips":"019","facilityCarried":"US 19","featuresIntersected":"NEW RIVER CSX RR  WV 82","location":"1.16 Miles N. of WV 16","lat":38.336944,"lon":-82.568889,"lowestRating":5,"yearBuilt":1977,"adt":19500,"conditionCategory":"fair","structurallyDeficient":false,"materialName":"Steel","designTypeName":"Arch - Deck","lengthFt":303.6,"maxSpanFt":181.7},{"id":"NY-000000005521269","state":"NY","stateName":"New York","countyFips":"081","facilityCarried":"RTE I295","featuresIntersected":"Cross Island Parkway  Cr","location":"295I OVER EAST RIVER","lat":41.266389,"lon":-74.823056,"lowestRating":5,"yearBuilt":1961,"adt":92348,"conditionCategory":"fair","structurallyDeficient":false,"materialName":"Steel","designTypeName":"Suspension","lengthFt":1125,"maxSpanFt":180},{"id":"NJ-4500010","state":"NJ","stateName":"New Jersey","countyFips":"007","facilityCarried":"I676 US30 PATCO","featuresIntersected":"DEL RIV I-95 RR&ROADS","location":"CITY OF CAMDEN","lat":40.326111,"lon":-75.868056,"lowestRating":5,"yearBuilt":1926,"adt":104658,"conditionCategory":"fair","structurallyDeficient":false,"materialName":"Steel","designTypeName":"Suspension","lengthFt":817,"maxSpanFt":175},{"id":"PA-000000000039265","state":"PA","stateName":"Pennsylvania","countyFips":"007","facilityCarried":"I676 US30 PATCO","featuresIntersected":"DEL RIV I-95 RR&ROADS","location":"CITY OF CAMDEN","lat":40.326111,"lon":-75.868056,"lowestRating":5,"yearBuilt":1926,"adt":104658,"conditionCategory":"fair","structurallyDeficient":false,"materialName":"Steel","designTypeName":"Suspension","lengthFt":817,"maxSpanFt":175},{"id":"NJ-3823040","state":"NJ","stateName":"New Jersey","countyFips":"017","facilityCarried":"440 X","featuresIntersected":"Kill Van Kull","location":"NJ 440","lat":41.25,"lon":-75.111944,"lowestRating":7,"yearBuilt":1931,"adt":9521,"conditionCategory":"good","structurallyDeficient":false,"materialName":"Steel","designTypeName":"Arch - Thru","lengthFt":185.4,"maxSpanFt":170.2},{"id":"NY-000000005523040","state":"NY","stateName":"New York","countyFips":"085","facilityCarried":"RTE 440","featuresIntersected":"KILL VAN KULL","location":"BAYONNE BR OVR KIL VN KUL","lat":41.246944,"lon":-75.121111,"lowestRating":7,"yearBuilt":1931,"adt":30008,"conditionCategory":"good","structurallyDeficient":false,"materialName":"Steel","designTypeName":"Arch - Thru","lengthFt":185.4,"maxSpanFt":170.2},{"id":"NJ-4500001","state":"NJ","stateName":"New Jersey","countyFips":"015","facilityCarried":"US 322","featuresIntersected":"DELAWARE RIVER","location":"2 MILES WEST OF US 130","lat":40.731111,"lon":-75.543056,"lowestRating":6,"yearBuilt":1974,"adt":39131,"conditionCategory":"fair","structurallyDeficient":false,"materialName":"Steel","designTypeName":"Truss - Thru","lengthFt":1391.5,"maxSpanFt":164.4},{"id":"PA-000000000015452","state":"PA","stateName":"Pennsylvania","countyFips":"015","facilityCarried":"US 322","featuresIntersected":"DELAWARE RIVER","location":"2 MILES WEST OF US 130","lat":40.731111,"lon":-75.543056,"lowestRating":6,"yearBuilt":1974,"adt":39131,"conditionCategory":"fair","structurallyDeficient":false,"materialName":"Steel","designTypeName":"Truss - Thru","lengthFt":1391.5,"maxSpanFt":164.4},{"id":"NY-000000005503400","state":"NY","stateName":"New York","countyFips":"087","facilityCarried":"RTE 6","featuresIntersected":"CSXT RIVER LINE  HUDSON","location":"JCT RTS 6-202 < HUDSON R","lat":41.649444,"lon":-74.279722,"lowestRating":5,"yearBuilt":1924,"adt":19611,"conditionCategory":"fair","structurallyDeficient":false,"materialName":"Steel","designTypeName":"Suspension","lengthFt":225.8,"maxSpanFt":163.2},{"id":"MA-B166779QKMBTNBI","state":"MA","stateName":"Massachusetts","countyFips":"025","facilityCarried":"HWY   SO STA CONN","featuresIntersected":"I  93 RAMPS CC KK D","location":"UNIT 1","lat":43.858333,"lon":-71.916667,"lowestRating":7,"yearBuilt":2004,"adt":350,"conditionCategory":"good","structurallyDeficient":false,"materialName":"Steel Continuous","designTypeName":"Box Beam - Multiple","lengthFt":233.3,"maxSpanFt":162.7},{"id":"MD-300000AAZ050013","state":"MD","stateName":"Maryland","countyFips":"003","facilityCarried":"US RTE 50  EB","featuresIntersected":"CHESAPEAKE BAY","location":"6 MI E OF MD RTE 2","lat":39.836389,"lon":-76.815833,"lowestRating":6,"yearBuilt":1951,"adt":38923,"conditionCategory":"fair","structurallyDeficient":false,"materialName":"Steel","designTypeName":"Suspension","lengthFt":2128.9,"maxSpanFt":160},{"id":"MD-300000AAZ050014","state":"MD","stateName":"Maryland","countyFips":"003","facilityCarried":"US RTE 50 WB","featuresIntersected":"CHESAPEAKE BAY","location":"6 MI E OF MD RTE 2","lat":39.103611,"lon":-77,"lowestRating":6,"yearBuilt":1973,"adt":39114,"conditionCategory":"fair","structurallyDeficient":false,"materialName":"Steel","designTypeName":"Suspension","lengthFt":2105.1,"maxSpanFt":160},{"id":"NY-000000002240039","state":"NY","stateName":"New York","countyFips":"061","facilityCarried":"Williamsburg Bridg","featuresIntersected":"FDR DRIVE  BARUCH DRIVE","location":"WILLIAMSBURG BR EAST RVR","lat":42.178333,"lon":-74.955556,"lowestRating":5,"yearBuilt":1903,"adt":81526,"conditionCategory":"fair","structurallyDeficient":false,"materialName":"Steel","designTypeName":"Suspension","lengthFt":667,"maxSpanFt":160},{"id":"RI-000000000009000","state":"RI","stateName":"Rhode Island","countyFips":"005","facilityCarried":"RI 138","featuresIntersected":"EAST PASSAGE NARR BAY","location":"Betwn Jamestown NEWPORT","lat":41.8675,"lon":-72.289167,"lowestRating":5,"yearBuilt":1969,"adt":28000,"conditionCategory":"fair","structurallyDeficient":false,"materialName":"Steel","designTypeName":"Suspension","lengthFt":1124.8,"maxSpanFt":160},{"id":"NY-000000002240019","state":"NY","stateName":"New York","countyFips":"061","facilityCarried":"BROOKLYN BRIDGE","featuresIntersected":"I278  FDR Drive  FDR Dri","location":"BROOKLYN BR OVER EAST RVR","lat":41.509722,"lon":-75.600556,"lowestRating":4,"yearBuilt":1883,"adt":110939,"conditionCategory":"poor","structurallyDeficient":true,"materialName":"Steel","designTypeName":"Suspension","lengthFt":598.9,"maxSpanFt":159.6},{"id":"LA-616300000610292","state":"LA","stateName":"Louisiana","countyFips":"125","facilityCarried":"LA0010","featuresIntersected":"MISSISSIPPI RIVER","location":"3.9 MILES EAST OF US 61","lat":30.928056,"lon":-92.016667,"lowestRating":7,"yearBuilt":2011,"adt":5763,"conditionCategory":"good","structurallyDeficient":false,"materialName":"Steel Continuous","designTypeName":"Cable-Stayed","lengthFt":318.5,"maxSpanFt":158.3},{"id":"LA-023602830802441","state":"LA","stateName":"Louisiana","countyFips":"071","facilityCarried":"US0090-B","featuresIntersected":"MISSISSIPPI RIVER","location":"US 90B OVER LA 428","lat":30.371944,"lon":-91.229722,"lowestRating":6,"yearBuilt":1957,"adt":67143,"conditionCategory":"fair","structurallyDeficient":false,"materialName":"Steel Continuous","designTypeName":"Truss - Thru","lengthFt":301.9,"maxSpanFt":157.6},{"id":"LA-023602830802442","state":"LA","stateName":"Louisiana","countyFips":"071","facilityCarried":"US0090-B","featuresIntersected":"MISSISSIPPI RIVER","location":"1.4 MI W OF LA 428","lat":30.491944,"lon":-90.28,"lowestRating":6,"yearBuilt":1985,"adt":154311,"conditionCategory":"fair","structurallyDeficient":false,"materialName":"Steel Continuous","designTypeName":"Truss - Thru","lengthFt":301.9,"maxSpanFt":157.5},{"id":"IN-080663","state":"IN","stateName":"Indiana","countyFips":"019","facilityCarried":"SR 265","featuresIntersected":"OHIO RIVER  2 LOCAL ROAD","location":"3.57 E SR 62","lat":39.262778,"lon":-86.623056,"lowestRating":8,"yearBuilt":2016,"adt":12700,"conditionCategory":"good","structurallyDeficient":false,"materialName":"Steel Continuous","designTypeName":"Cable-Stayed","lengthFt":442.9,"maxSpanFt":150.6},{"id":"KY-056B00543N","state":"KY","stateName":"Kentucky","countyFips":"111","facilityCarried":"KY841  IN265  I265","featuresIntersected":"OHIO RIVER","location":"1.5 MI N OF US 42","lat":39.277778,"lon":-86.633333,"lowestRating":8,"yearBuilt":2016,"adt":12700,"conditionCategory":"good","structurallyDeficient":false,"materialName":"Steel Continuous","designTypeName":"Cable-Stayed","lengthFt":442.9,"maxSpanFt":150.6},{"id":"CA-53 1471","state":"CA","stateName":"California","countyFips":"037","facilityCarried":"STATE ROUTE 47","featuresIntersected":"SAN PEDRO TERMINAL ISL","location":"07-LA-047-0.86","lat":35.345278,"lon":-119.722778,"lowestRating":4,"yearBuilt":1963,"adt":58000,"conditionCategory":"poor","structurallyDeficient":true,"materialName":"Steel","designTypeName":"Suspension","lengthFt":606.2,"maxSpanFt":150},{"id":"IL-082034800000000","state":"IL","stateName":"Illinois","countyFips":"163","facilityCarried":"FAI 70A","featuresIntersected":"MISSISSIPPI RIVER","location":"RIVER CROSSING MAIN","lat":39.880278,"lon":-91.346667,"lowestRating":7,"yearBuilt":2014,"adt":44300,"conditionCategory":"good","structurallyDeficient":false,"materialName":"Steel Continuous","designTypeName":"Cable-Stayed","lengthFt":646.2,"maxSpanFt":150},{"id":"MO-33066","state":"MO","stateName":"Missouri","countyFips":"510","facilityCarried":"IS 70 E","featuresIntersected":"CST BRDWAY  LEVEE RD","location":"S 14 T 45 N R 7 E","lat":39.765556,"lon":-91.756944,"lowestRating":7,"yearBuilt":2010,"adt":41357,"conditionCategory":"good","structurallyDeficient":false,"materialName":"Steel Continuous","designTypeName":"Cable-Stayed","lengthFt":646.3,"maxSpanFt":150},{"id":"NY-000000005025530","state":"NY","stateName":"New York","countyFips":"111","facilityCarried":"RTE 44","featuresIntersected":"AMTRAK  Gerald Drive  Ri","location":"JCT RTS 44-55 < HUDSON R","lat":42.0375,"lon":-74.006667,"lowestRating":5,"yearBuilt":1930,"adt":38047,"conditionCategory":"fair","structurallyDeficient":false,"materialName":"Steel Continuous","designTypeName":"Suspension","lengthFt":420.1,"maxSpanFt":149.5},{"id":"NY-000000002240027","state":"NY","stateName":"New York","countyFips":"061","facilityCarried":"RTE 27","featuresIntersected":"278IX  FDR DRIVE  CHERRY","location":"RTE 27 OVER EAST RIVER","lat":41.658889,"lon":-74.844167,"lowestRating":5,"yearBuilt":1909,"adt":null,"conditionCategory":"fair","structurallyDeficient":false,"materialName":"Steel","designTypeName":"Suspension","lengthFt":581.5,"maxSpanFt":147},{"id":"NY-000000002240028","state":"NY","stateName":"New York","countyFips":"061","facilityCarried":"RTE 27","featuresIntersected":"278IX  FDR DRIVE  CHERRY","location":"RTE 27 OVER EAST RIVER","lat":41.667778,"lon":-74.863333,"lowestRating":5,"yearBuilt":1909,"adt":43477,"conditionCategory":"fair","structurallyDeficient":false,"materialName":"Steel","designTypeName":"Suspension","lengthFt":611.9,"maxSpanFt":147},{"id":"LA-614704340200001","state":"LA","stateName":"Louisiana","countyFips":"093","facilityCarried":"LA3213","featuresIntersected":"MISSISSIPPI RIVER","location":"0.85M NE JCT LA20 & LA44","lat":30.99,"lon":-91.092222,"lowestRating":5,"yearBuilt":1989,"adt":13743,"conditionCategory":"fair","structurallyDeficient":false,"materialName":"Steel Continuous","designTypeName":"Truss - Thru","lengthFt":301,"maxSpanFt":146.2},{"id":"MD-3300044P0000000","state":"MD","stateName":"Maryland","countyFips":"031","facilityCarried":"CLARA BARTON PARKW","featuresIntersected":"CLARA BARTON PARKWAY (SB","location":"0.1 MILES WEST OF MACARTH","lat":40.319444,"lon":-77.497222,"lowestRating":4,"yearBuilt":1959,"adt":40057,"conditionCategory":"poor","structurallyDeficient":true,"materialName":"Concrete","designTypeName":"Slab","lengthFt":140.9,"maxSpanFt":140.9},{"id":"NY-000000005521889","state":"NY","stateName":"New York","countyFips":"081","facilityCarried":"RTE I278","featuresIntersected":"BRONX KILLS  CSX  Harlem","location":"I278 OVER HELLGATE","lat":42.333333,"lon":-74.168889,"lowestRating":5,"yearBuilt":1936,"adt":116151,"conditionCategory":"fair","structurallyDeficient":false,"materialName":"Steel","designTypeName":"Suspension","lengthFt":1311,"maxSpanFt":138},{"id":"AR-000000000007100","state":"AR","stateName":"Arkansas","countyFips":"017","facilityCarried":"US 82","featuresIntersected":"MISSISSIPPI RIVER","location":"MISS/AR STATE LINE","lat":34.245,"lon":-91.418889,"lowestRating":6,"yearBuilt":2010,"adt":7400,"conditionCategory":"fair","structurallyDeficient":false,"materialName":"Steel","designTypeName":"Cable-Stayed","lengthFt":1375.3,"maxSpanFt":137.8},{"id":"MS-210008207600010","state":"MS","stateName":"Mississippi","countyFips":"151","facilityCarried":"US 82","featuresIntersected":"MISSISSIPPI RIVER","location":"MISS/AR STATE LINE","lat":34.245556,"lon":-91.418889,"lowestRating":6,"yearBuilt":2010,"adt":7000,"conditionCategory":"fair","structurallyDeficient":false,"materialName":"Steel","designTypeName":"Cable-Stayed","lengthFt":1375.3,"maxSpanFt":137.8},{"id":"FL-720518","state":"FL","stateName":"Florida","countyFips":"031","facilityCarried":"I-295(9A) DAMES PT","featuresIntersected":"ST.JOHNS RIV.& MILL COVE","location":"2.1 MI.S.OF HECKSCHER DR.","lat":30.441667,"lon":-82.216667,"lowestRating":6,"yearBuilt":1989,"adt":84321,"conditionCategory":"fair","structurallyDeficient":false,"materialName":"Prestressed Concrete Continuous","designTypeName":"Cable-Stayed","lengthFt":1064.6,"maxSpanFt":130},{"id":"CA-34 0006","state":"CA","stateName":"California","countyFips":"075","facilityCarried":"INTERSTATE 80","featuresIntersected":"GATE  SAN FRANCISCO BAY","location":"04-SF-080-R7.91-SF","lat":38.865833,"lon":-123.778333,"lowestRating":7,"yearBuilt":2013,"adt":265000,"conditionCategory":"good","structurallyDeficient":false,"materialName":"Steel Continuous","designTypeName":"Suspension","lengthFt":1152.3,"maxSpanFt":126.3},{"id":"OR-02529 061 00332","state":"OR","stateName":"Oregon","countyFips":"051","facilityCarried":"HWY 061","featuresIntersected":"Willamette River","location":"FREMONT BRIDGE","lat":46.013889,"lon":-124.31,"lowestRating":6,"yearBuilt":1973,"adt":101643,"conditionCategory":"fair","structurallyDeficient":false,"materialName":"Steel Continuous","designTypeName":"Arch - Thru","lengthFt":215.4,"maxSpanFt":125.5},{"id":"GA-000000012750200","state":"GA","stateName":"Georgia","countyFips":"127","facilityCarried":"SIDNEY LANIER BRID","featuresIntersected":"BRUNSWICK RIVER","location":"0.5 S BRUNSWICK CTY LMTS","lat":32.723889,"lon":-81.684444,"lowestRating":7,"yearBuilt":2002,"adt":15300,"conditionCategory":"good","structurallyDeficient":false,"materialName":"Prestressed Concrete","designTypeName":"Cable-Stayed","lengthFt":778,"maxSpanFt":125},{"id":"TX-121020038912089","state":"TX","stateName":"Texas","countyFips":"201","facilityCarried":"SH 146 NB","featuresIntersected":"HOUSTON SHIP CHANNEL","location":"0.6 MI N OF SH 225","lat":30.763056,"lon":-96.149444,"lowestRating":6,"yearBuilt":1995,"adt":42466,"conditionCategory":"fair","structurallyDeficient":false,"materialName":"Steel","designTypeName":"Suspension","lengthFt":1046.2,"maxSpanFt":125},{"id":"TX-121020038912090","state":"TX","stateName":"Texas","countyFips":"201","facilityCarried":"SH 146 SB","featuresIntersected":"HOUSTON SHIP CHANNEL","location":"0.6 MI N OF SH 225","lat":30.991389,"lon":-95.3225,"lowestRating":6,"yearBuilt":1995,"adt":33130,"conditionCategory":"fair","structurallyDeficient":false,"materialName":"Steel","designTypeName":"Suspension","lengthFt":1049.1,"maxSpanFt":125},{"id":"LA-024504503700001","state":"LA","stateName":"Louisiana","countyFips":"089","facilityCarried":"I0310","featuresIntersected":"MISSISSIPPI RIVER","location":"4.4 MI S OF US 61","lat":31.06,"lon":-90.991667,"lowestRating":5,"yearBuilt":1983,"adt":47396,"conditionCategory":"fair","structurallyDeficient":false,"materialName":"Steel Continuous","designTypeName":"Cable-Stayed","lengthFt":274.5,"maxSpanFt":123.5},{"id":"LA-611704500900001","state":"LA","stateName":"Louisiana","countyFips":"033","facilityCarried":"I0010","featuresIntersected":"MISSISSIPPI RIVER","location":"I0010","lat":31.09,"lon":-91.680278,"lowestRating":6,"yearBuilt":1968,"adt":197070,"conditionCategory":"fair","structurallyDeficient":false,"materialName":"Steel Continuous","designTypeName":"Truss - Thru","lengthFt":455,"maxSpanFt":123.5},{"id":"OR-07949C009 00241","state":"OR","stateName":"Oregon","countyFips":"007","facilityCarried":"US101 (HWY 9)","featuresIntersected":"Columbia River","location":"Main through truss spans","lat":46.608889,"lon":-124.448889,"lowestRating":5,"yearBuilt":1966,"adt":19856,"conditionCategory":"fair","structurallyDeficient":false,"materialName":"Steel Continuous","designTypeName":"Truss - Thru","lengthFt":246.9,"maxSpanFt":123.2},{"id":"WA-0007666D0000000","state":"WA","stateName":"Washington","countyFips":"049","facilityCarried":"US 101","featuresIntersected":"COLUMBIA R","location":"0.96 S OREGON LINE","lat":46.608889,"lon":-124.448889,"lowestRating":5,"yearBuilt":1966,"adt":23300,"conditionCategory":"fair","structurallyDeficient":false,"materialName":"Steel Continuous","designTypeName":"Truss - Thru","lengthFt":665.1,"maxSpanFt":123.2},{"id":"OR-06497 123 00091","state":"OR","stateName":"Oregon","countyFips":"051","facilityCarried":"Hwy 123","featuresIntersected":"Willamette Rr/UPRR & P&W","location":"0.6 MI NW PORTLAND CC","lat":45.851944,"lon":-124.028056,"lowestRating":5,"yearBuilt":1931,"adt":16231,"conditionCategory":"fair","structurallyDeficient":false,"materialName":"Steel","designTypeName":"Suspension","lengthFt":360.7,"maxSpanFt":120.7},{"id":"FL-150189","state":"FL","stateName":"Florida","countyFips":"103","facilityCarried":"I-275 (SR 93)","featuresIntersected":"TAMPA BAY","location":"5.5MI N OF US-41","lat":27.989444,"lon":-83.229167,"lowestRating":7,"yearBuilt":1986,"adt":65215,"conditionCategory":"good","structurallyDeficient":false,"materialName":"Prestressed Concrete Continuous","designTypeName":"Cable-Stayed","lengthFt":2187.7,"maxSpanFt":120},{"id":"IN-029366","state":"IN","stateName":"Indiana","countyFips":"147","facilityCarried":"US 231","featuresIntersected":"OHIO RIVER  SR 66","location":"00.40 S OF SR 66","lat":38.304722,"lon":-87.335,"lowestRating":6,"yearBuilt":2002,"adt":8254,"conditionCategory":"fair","structurallyDeficient":false,"materialName":"Steel Continuous","designTypeName":"Cable-Stayed","lengthFt":451,"maxSpanFt":120},{"id":"KY-030B00164N","state":"KY","stateName":"Kentucky","countyFips":"059","facilityCarried":"US-231","featuresIntersected":"OHIO RIVER  IN ST RT 66","location":"2.6 MI N JCT US60","lat":38.094444,"lon":-87.172222,"lowestRating":6,"yearBuilt":2002,"adt":8388,"conditionCategory":"fair","structurallyDeficient":false,"materialName":"Steel Continuous","designTypeName":"Cable-Stayed","lengthFt":451,"maxSpanFt":120},{"id":"MD-300000BCZ472010","state":"MD","stateName":"Maryland","countyFips":"510","facilityCarried":"MD 695","featuresIntersected":"PATAPSCO RIVER","location":"I-695 OVER PATAPSCO RIVER","lat":40.174444,"lon":-77.1475,"lowestRating":6,"yearBuilt":1976,"adt":30767,"conditionCategory":"fair","structurallyDeficient":false,"materialName":"Steel Continuous","designTypeName":"Truss - Thru","lengthFt":909.1,"maxSpanFt":120},{"id":"NY-000000005516341","state":"NY","stateName":"New York","countyFips":"087","facilityCarried":"RTE 87","featuresIntersected":"Hudson River  MNRR HU LI","location":"I87N-I287W NB / Hudson Rv","lat":41.875,"lon":-74.21,"lowestRating":8,"yearBuilt":2017,"adt":68962,"conditionCategory":"good","structurallyDeficient":false,"materialName":"Steel Continuous","designTypeName":"Cable-Stayed","lengthFt":1583.8,"maxSpanFt":120},{"id":"NY-000000005516342","state":"NY","stateName":"New York","countyFips":"087","facilityCarried":"RTE 87","featuresIntersected":"Hudson River  MNRR HU LI","location":"I87SB-I287EB / Hudson Rvr","lat":41.878889,"lon":-74.165278,"lowestRating":8,"yearBuilt":2018,"adt":78144,"conditionCategory":"good","structurallyDeficient":false,"materialName":"Steel Continuous","designTypeName":"Cable-Stayed","lengthFt":1589.4,"maxSpanFt":120},{"id":"OR-02046 02WC04892","state":"OR","stateName":"Oregon","countyFips":"009","facilityCarried":"HWY 2W CONN","featuresIntersected":"COLUMBIA R (LONGVIEW BR)","location":"WASH. STATE LINE","lat":47.661111,"lon":-122.991667,"lowestRating":5,"yearBuilt":1929,"adt":22837,"conditionCategory":"fair","structurallyDeficient":false,"materialName":"Steel Continuous","designTypeName":"Truss - Thru","lengthFt":547.8,"maxSpanFt":120},{"id":"RI-000000000003000","state":"RI","stateName":"Rhode Island","countyFips":"001","facilityCarried":"RI 114","featuresIntersected":"MT HP BY N SEC RR 114 LP","location":"0.8 Mi S of JCT RI 138","lat":42.279444,"lon":-72.038056,"lowestRating":5,"yearBuilt":1929,"adt":18924,"conditionCategory":"fair","structurallyDeficient":false,"materialName":"Steel","designTypeName":"Suspension","lengthFt":485.8,"maxSpanFt":120},{"id":"WA-0003760A0000000","state":"WA","stateName":"Washington","countyFips":"015","facilityCarried":"SR 433","featuresIntersected":"COLUMBIA R @ LONGVIEW","location":"OREGON LINE","lat":47.661111,"lon":-122.991667,"lowestRating":5,"yearBuilt":1929,"adt":20865,"conditionCategory":"fair","structurallyDeficient":false,"materialName":"Steel Continuous","designTypeName":"Truss - Thru","lengthFt":547.8,"maxSpanFt":120},{"id":"ME-6421","state":"ME","stateName":"Maine","countyFips":"027","facilityCarried":"ROUTE 1","featuresIntersected":"Penobscot River(s chan)","location":"County line","lat":45.553056,"lon":-69.028056,"lowestRating":7,"yearBuilt":2007,"adt":4292,"conditionCategory":"good","structurallyDeficient":false,"materialName":"Prestressed Concrete Continuous","designTypeName":"Cable-Stayed","lengthFt":212.6,"maxSpanFt":116.1},{"id":"IL-002003600000000","state":"IL","stateName":"Illinois","countyFips":"003","facilityCarried":"FAP 312-IL 146","featuresIntersected":"MISSISSIPPI RIVER","location":"EAST CAPE GIRARDEAU","lat":38.470833,"lon":-91.111944,"lowestRating":6,"yearBuilt":2003,"adt":9350,"conditionCategory":"fair","structurallyDeficient":false,"materialName":"Steel Continuous","designTypeName":"Cable-Stayed","lengthFt":397,"maxSpanFt":115},{"id":"MO-4089","state":"MO","stateName":"Missouri","countyFips":"031","facilityCarried":"MO 74 E","featuresIntersected":"MISSISSIPPI RVR  CST AQU","location":"S 222 T 30 N R 14 E","lat":38.463611,"lon":-89.677778,"lowestRating":6,"yearBuilt":1997,"adt":12317,"conditionCategory":"fair","structurallyDeficient":false,"materialName":"Steel Continuous","designTypeName":"Cable-Stayed","lengthFt":395.6,"maxSpanFt":115},{"id":"NY-000000005523230","state":"NY","stateName":"New York","countyFips":"089","facilityCarried":"RTE 812","featuresIntersected":"CAN.QUEENS HWY.2  ST.LAW","location":"1.8 MI.NE OF OGDENSBURG","lat":45.67,"lon":-75.966944,"lowestRating":4,"yearBuilt":1960,"adt":3033,"conditionCategory":"poor","structurallyDeficient":true,"materialName":"Steel","designTypeName":"Suspension","lengthFt":738.5,"maxSpanFt":114.3},{"id":"CA-12 0188","state":"CA","stateName":"California","countyFips":"007","facilityCarried":"STATE ROUTE 162","featuresIntersected":"MFK FEATHER RI BIDWELL","location":"03-BUT-162-26.87","lat":40.960556,"lon":-122.841111,"lowestRating":7,"yearBuilt":1965,"adt":1500,"conditionCategory":"good","structurallyDeficient":false,"materialName":"Steel","designTypeName":"Suspension","lengthFt":179.3,"maxSpanFt":110.8},{"id":"CA-23 0015R","state":"CA","stateName":"California","countyFips":"095","facilityCarried":"INTERSTATE 80 EB","featuresIntersected":"CARQUINEZ STRAIT UP RR","location":"04-SOL-080-0.01","lat":38.522222,"lon":-123.040833,"lowestRating":5,"yearBuilt":1958,"adt":128000,"conditionCategory":"fair","structurallyDeficient":false,"materialName":"Steel Continuous","designTypeName":"Truss - Thru","lengthFt":520.9,"maxSpanFt":110},{"id":"GA-000000005101690","state":"GA","stateName":"Georgia","countyFips":"051","facilityCarried":"TALMADGE MEMORIAL","featuresIntersected":"M4032- 2 SR 25C- 2 CR744","location":"NW SECTION OF SAVANNAH","lat":32.606944,"lon":-82.617778,"lowestRating":6,"yearBuilt":1991,"adt":8310,"conditionCategory":"fair","structurallyDeficient":false,"materialName":"Concrete Continuous","designTypeName":"Cable-Stayed","lengthFt":885.2,"maxSpanFt":110},{"id":"AZ-02685","state":"AZ","stateName":"Arizona","countyFips":"015","facilityCarried":"US 93","featuresIntersected":"Colorado River","location":"Hoover Dam  NV border","lat":37.111111,"lon":-115.566667,"lowestRating":6,"yearBuilt":2010,"adt":17000,"conditionCategory":"fair","structurallyDeficient":false,"materialName":"Concrete","designTypeName":"Arch - Deck","lengthFt":190.6,"maxSpanFt":109},{"id":"NV-B2704","state":"NV","stateName":"Nevada","countyFips":"003","facilityCarried":"US 93","featuresIntersected":"COLORADO RIVER","location":"HOOVER DAM AREA","lat":37.240278,"lon":-115.591389,"lowestRating":6,"yearBuilt":2010,"adt":18300,"conditionCategory":"fair","structurallyDeficient":false,"materialName":"Concrete","designTypeName":"Arch - Deck","lengthFt":190.6,"maxSpanFt":109},{"id":"FL-720107","state":"FL","stateName":"Florida","countyFips":"031","facilityCarried":"SR-228 (HART BDG.)","featuresIntersected":"ST. JOHNS RIVER/HIGHLAND","location":"US-A1 OVER ST.JOHNS RIVER","lat":31.855556,"lon":-82.7,"lowestRating":5,"yearBuilt":1967,"adt":37000,"conditionCategory":"fair","structurallyDeficient":false,"materialName":"Steel Continuous","designTypeName":"Truss - Thru","lengthFt":384.4,"maxSpanFt":108.8},{"id":"CA-28 0100","state":"CA","stateName":"California","countyFips":"013","facilityCarried":"INTERSTATE 580","featuresIntersected":"SAN PABLO BAY","location":"04-CC-580-6.22-RCH","lat":39.5125,"lon":-122.9325,"lowestRating":5,"yearBuilt":1956,"adt":80000,"conditionCategory":"fair","structurallyDeficient":false,"materialName":"Steel","designTypeName":"Truss - Thru","lengthFt":2134.5,"maxSpanFt":108.7},{"id":"AZ-02028","state":"AZ","stateName":"Arizona","countyFips":"007","facilityCarried":"SR 188","featuresIntersected":"Roosevelt Lake","location":"0.1 mi N of Jct SR 88","lat":34.27,"lon":-111.64,"lowestRating":6,"yearBuilt":1992,"adt":1032,"conditionCategory":"fair","structurallyDeficient":false,"materialName":"Steel","designTypeName":"Arch - Thru","lengthFt":219.9,"maxSpanFt":108},{"id":"ME-3257","state":"ME","stateName":"Maine","countyFips":"009","facilityCarried":"LITTLE DEER ISLE R","featuresIntersected":"EGGEMOGGIN REACH","location":"1 MI S 15&175","lat":45.341944,"lon":-69.243056,"lowestRating":6,"yearBuilt":1939,"adt":4800,"conditionCategory":"fair","structurallyDeficient":false,"materialName":"Steel Continuous","designTypeName":"Suspension","lengthFt":250.5,"maxSpanFt":108},{"id":"KY-081B00041N","state":"KY","stateName":"Kentucky","countyFips":"161","facilityCarried":"US-62X","featuresIntersected":"OHIO RIVER-MYVLLE- CSX R","location":"3.8 MI NORTH JCT KY 9","lat":38.65,"lon":-84.722222,"lowestRating":4,"yearBuilt":1931,"adt":5104,"conditionCategory":"poor","structurallyDeficient":true,"materialName":"Steel","designTypeName":"Suspension","lengthFt":316.4,"maxSpanFt":106},{"id":"OH-0800333","state":"OH","stateName":"Ohio","countyFips":"015","facilityCarried":"BUS.62","featuresIntersected":"OHIO RIVER CSX RR LOCAL","location":"0.186 MI S OF USR 52","lat":38.8,"lon":-84.621944,"lowestRating":4,"yearBuilt":1931,"adt":6478,"conditionCategory":"poor","structurallyDeficient":true,"materialName":"Steel","designTypeName":"Suspension","lengthFt":316.4,"maxSpanFt":106},{"id":"KY-059B00048N","state":"KY","stateName":"Kentucky","countyFips":"117","facilityCarried":"KY 17","featuresIntersected":"OHIO RIVER","location":"SUSPENSION BR OVR OHIO RV","lat":40.027778,"lon":-85.5,"lowestRating":4,"yearBuilt":1867,"adt":9054,"conditionCategory":"poor","structurallyDeficient":true,"materialName":"Steel","designTypeName":"Suspension","lengthFt":216.2,"maxSpanFt":105.7},{"id":"OH-3101584","state":"OH","stateName":"Ohio","countyFips":"061","facilityCarried":"CR-600 ROEBLING","featuresIntersected":"US27 & OHIO RIVER","location":"0.53 mi. E. of I71/I75","lat":40.133889,"lon":-85.511944,"lowestRating":5,"yearBuilt":1867,"adt":9054,"conditionCategory":"fair","structurallyDeficient":false,"materialName":"Steel","designTypeName":"Suspension","lengthFt":216.2,"maxSpanFt":105.7},{"id":"ID-000000000020295","state":"ID","stateName":"Idaho","countyFips":"035","facilityCarried":"STC4783;DENT BR RD","featuresIntersected":"N.FK.CLEARWATER;DENT BR","location":"8.8N. 3.7E.OROFINO","lat":46.655556,"lon":-117.416667,"lowestRating":5,"yearBuilt":1971,"adt":180,"conditionCategory":"fair","structurallyDeficient":false,"materialName":"Steel","designTypeName":"Suspension","lengthFt":155.8,"maxSpanFt":105},{"id":"KY-081B00069N","state":"KY","stateName":"Kentucky","countyFips":"161","facilityCarried":"US-68","featuresIntersected":"OHIO RIVER","location":"3.8 MI N OF AA HWY (KY 9)","lat":38.794444,"lon":-85.294444,"lowestRating":6,"yearBuilt":2000,"adt":4734,"conditionCategory":"fair","structurallyDeficient":false,"materialName":"Steel Continuous","designTypeName":"Cable-Stayed","lengthFt":242,"maxSpanFt":105},{"id":"OH-0801305","state":"OH","stateName":"Ohio","countyFips":"015","facilityCarried":"US ROUTES 62/68","featuresIntersected":"OHIO RIVER CSX RR KY 8","location":"0.527MI S OF USR 52","lat":38.856944,"lon":-85.078889,"lowestRating":6,"yearBuilt":2000,"adt":5525,"conditionCategory":"fair","structurallyDeficient":false,"materialName":"Steel","designTypeName":"Cable-Stayed","lengthFt":242,"maxSpanFt":105},{"id":"NY-000000005068299","state":"NY","stateName":"New York","countyFips":"063","facilityCarried":"RTE 190","featuresIntersected":"Niagara River Parkway  N","location":"AT I190 & INT 104","lat":43.425833,"lon":-79.888056,"lowestRating":6,"yearBuilt":1960,"adt":14302,"conditionCategory":"fair","structurallyDeficient":false,"materialName":"Steel","designTypeName":"Arch - Deck","lengthFt":159.4,"maxSpanFt":103.5},{"id":"AZ-00537","state":"AZ","stateName":"Arizona","countyFips":"005","facilityCarried":"IRR US 89","featuresIntersected":"Glen Canyon","location":"25.4 mi N Jct US 89A","lat":37.24,"lon":-112.93,"lowestRating":6,"yearBuilt":1958,"adt":7955,"conditionCategory":"fair","structurallyDeficient":false,"materialName":"Steel","designTypeName":"Arch - Deck","lengthFt":127.1,"maxSpanFt":103},{"id":"WV-00000000035A090","state":"WV","stateName":"West Virginia","countyFips":"069","facilityCarried":"WV Route 251","featuresIntersected":"Ohio River","location":"0.22 Mi. West Jct WV 2 SB","lat":40.421944,"lon":-81.723056,"lowestRating":4,"yearBuilt":1849,"adt":5234,"conditionCategory":"poor","structurallyDeficient":true,"materialName":"Steel","designTypeName":"Suspension","lengthFt":130.7,"maxSpanFt":100.9},{"id":"CA-53 3000","state":"CA","stateName":"California","countyFips":"037","facilityCarried":"ROUTE 710","featuresIntersected":"LONG BEACH/TERMINAL ISL","location":"07-LA-710-3.60","lat":35.234167,"lon":-118.676944,"lowestRating":5,"yearBuilt":2020,"adt":50000,"conditionCategory":"fair","structurallyDeficient":false,"materialName":"Steel","designTypeName":"Cable-Stayed","lengthFt":874.6,"maxSpanFt":100},{"id":"NY-000000005060381","state":"NY","stateName":"New York","countyFips":"071","facilityCarried":"RTE I84","featuresIntersected":"AMTRAK  GRAND AVENUE  HU","location":"JCT.RTE I-84 & HUDSON R.","lat":41.972778,"lon":-75.015833,"lowestRating":6,"yearBuilt":1963,"adt":33848,"conditionCategory":"fair","structurallyDeficient":false,"materialName":"Steel","designTypeName":"Truss - Thru","lengthFt":786,"maxSpanFt":100},{"id":"NY-000000005060382","state":"NY","stateName":"New York","countyFips":"071","facilityCarried":"RTE I84","featuresIntersected":"GRAND AVENUE  HUDSON RIV","location":"0.75 mi East of Rt 9W","lat":41.933333,"lon":-75.02,"lowestRating":5,"yearBuilt":1980,"adt":22063,"conditionCategory":"fair","structurallyDeficient":false,"materialName":"Steel","designTypeName":"Truss - Thru","lengthFt":778.9,"maxSpanFt":100},{"id":"NY-000000005068199","state":"NY","stateName":"New York","countyFips":"063","facilityCarried":"RTE 955","featuresIntersected":"River Road / Niagara Par","location":"0.1 MI W OF INT 104 & 384","lat":43.745278,"lon":-79.134167,"lowestRating":6,"yearBuilt":1941,"adt":6002,"conditionCategory":"fair","structurallyDeficient":false,"materialName":"Steel","designTypeName":"Arch - Deck","lengthFt":144.4,"maxSpanFt":99.5},{"id":"ID-000000000017580","state":"ID","stateName":"Idaho","countyFips":"083","facilityCarried":"US 93","featuresIntersected":"SNAKE RIVER; PERRINE BR.","location":"0.6 N. TWIN FALLS","lat":44.091667,"lon":-114.886111,"lowestRating":6,"yearBuilt":1976,"adt":29000,"conditionCategory":"fair","structurallyDeficient":false,"materialName":"Steel Continuous","designTypeName":"Arch - Deck","lengthFt":150,"maxSpanFt":99.3},{"id":"WA-085555000000000","state":"WA","stateName":"Washington","countyFips":"005","facilityCarried":"SR 397","featuresIntersected":"COLUMBIA RIVER","location":"18.0 N JCT I-82","lat":47.662778,"lon":-119.775833,"lowestRating":5,"yearBuilt":1978,"adt":18849,"conditionCategory":"fair","structurallyDeficient":false,"materialName":"Prestressed Concrete Continuous","designTypeName":"Cable-Stayed","lengthFt":250.3,"maxSpanFt":98.1},{"id":"AL-018641","state":"AL","stateName":"Alabama","countyFips":"103","facilityCarried":"SR 53","featuresIntersected":"TENNESSEE RIVER","location":"MORGAN-MADISON CO LINE","lat":35.23,"lon":-86.89,"lowestRating":7,"yearBuilt":2006,"adt":10175,"conditionCategory":"good","structurallyDeficient":false,"materialName":"Steel Continuous","designTypeName":"Stringer/Multi-beam or Girder","lengthFt":207.5,"maxSpanFt":97.5},{"id":"IL-082600100000000","state":"IL","stateName":"Illinois","countyFips":"163","facilityCarried":"MLK bridge","featuresIntersected":"Miss.River TRRA Front 8t","location":"East St. Louis","lat":40.043333,"lon":-91.329444,"lowestRating":5,"yearBuilt":1950,"adt":7900,"conditionCategory":"fair","structurallyDeficient":false,"materialName":"Steel Continuous","designTypeName":"Truss - Thru","lengthFt":401,"maxSpanFt":96.3},{"id":"MO-3954","state":"MO","stateName":"Missouri","countyFips":"510","facilityCarried":"DR MARTIN LUTHER K","featuresIntersected":"CST S LENORE K SULLIVA","location":"S 13 T 45 N R 7 E","lat":40.073056,"lon":-91.658333,"lowestRating":5,"yearBuilt":1951,"adt":7252,"conditionCategory":"fair","structurallyDeficient":false,"materialName":"Steel Continuous","designTypeName":"Truss - Thru","lengthFt":401,"maxSpanFt":96.3},{"id":"DE-3156 050","state":"DE","stateName":"Delaware","countyFips":"005","facilityCarried":"SR1 / COASTAL HGWY","featuresIntersected":"INDIAN RIVER INLET","location":"INDIAN RIVER INLET","lat":39.411111,"lon":-76.415556,"lowestRating":7,"yearBuilt":2012,"adt":24984,"conditionCategory":"good","structurallyDeficient":false,"materialName":"Prestressed Concrete","designTypeName":"Cable-Stayed","lengthFt":260,"maxSpanFt":95},{"id":"MI-000000000009987","state":"MI","stateName":"Michigan","countyFips":"147","facilityCarried":"I-94 EB","featuresIntersected":"ST CLAIR RIVER  CN RR","location":"AT PORT HURON","lat":44.545833,"lon":-83.261111,"lowestRating":6,"yearBuilt":1997,"adt":6542,"conditionCategory":"fair","structurallyDeficient":false,"materialName":"Steel Continuous","designTypeName":"Arch - Thru","lengthFt":611.1,"maxSpanFt":92.2},{"id":"WV-00000000020A401","state":"WV","stateName":"West Virginia","countyFips":"039","facilityCarried":"I-64 EB & WB","featuresIntersected":"VA RANDLPH LEE& WASH STS","location":"0.42 MI E OF US 119","lat":39.176111,"lon":-82.558056,"lowestRating":5,"yearBuilt":1975,"adt":99696,"conditionCategory":"fair","structurallyDeficient":false,"materialName":"Concrete Continuous","designTypeName":"Box Beam - Single/Spread","lengthFt":174.6,"maxSpanFt":92.2},{"id":"MO-1396","state":"MO","stateName":"Missouri","countyFips":"155","facilityCarried":"IS 155 S","featuresIntersected":"MISSISSIPPI RVR  COUNTY","location":"S 11 T 17 N R 13 E","lat":36.289444,"lon":-91.1075,"lowestRating":6,"yearBuilt":1975,"adt":13360,"conditionCategory":"fair","structurallyDeficient":false,"materialName":"Steel Continuous","designTypeName":"Truss - Thru","lengthFt":710.2,"maxSpanFt":92},{"id":"TN-23I01550001","state":"TN","stateName":"Tennessee","countyFips":"045","facilityCarried":"I155","featuresIntersected":"MISSISSIPPI RIVER","location":"S 11 T 17 N R 13 E","lat":36.283056,"lon":-91.099722,"lowestRating":6,"yearBuilt":1975,"adt":11561,"conditionCategory":"fair","structurallyDeficient":false,"materialName":"Steel Continuous","designTypeName":"Truss - Thru","lengthFt":710.2,"maxSpanFt":91.9},{"id":"OH-0705950","state":"OH","stateName":"Ohio","countyFips":"013","facilityCarried":"WV-2","featuresIntersected":"T-533A NS RR EL.U.RD OH.","location":"AT OHIO R.BR. TO MDSVL WV","lat":41.283056,"lon":-81.221944,"lowestRating":5,"yearBuilt":1986,"adt":18000,"conditionCategory":"fair","structurallyDeficient":false,"materialName":"Steel Continuous","designTypeName":"Stringer/Multi-beam or Girder","lengthFt":262.9,"maxSpanFt":91.2},{"id":"WV-00000000026A084","state":"WV","stateName":"West Virginia","countyFips":"051","facilityCarried":"WV 2 SPUR","featuresIntersected":"Ohio River","location":"0.10 mi. West jct WV2","lat":41.285,"lon":-81.14,"lowestRating":5,"yearBuilt":1986,"adt":12629,"conditionCategory":"fair","structurallyDeficient":false,"materialName":"Steel","designTypeName":"Arch - Thru","lengthFt":262.9,"maxSpanFt":91.2},{"id":"IL-067001900000000","state":"IL","stateName":"Illinois","countyFips":"133","facilityCarried":"FAI 255 EB","featuresIntersected":"MISSISSIPPI RIVER","location":"3.0MI W OF COLUMBIA","lat":38.773611,"lon":-91.061111,"lowestRating":5,"yearBuilt":1986,"adt":25850,"conditionCategory":"fair","structurallyDeficient":false,"materialName":"Steel","designTypeName":"Arch - Thru","lengthFt":400.3,"maxSpanFt":91},{"id":"IL-067002000000000","state":"IL","stateName":"Illinois","countyFips":"133","facilityCarried":"FAI 255WB","featuresIntersected":"MISSISSIPPI RIVER","location":"N.W.OF COLUMBIA","lat":38.768611,"lon":-91.043889,"lowestRating":5,"yearBuilt":1984,"adt":25850,"conditionCategory":"fair","structurallyDeficient":false,"materialName":"Steel","designTypeName":"Arch - Thru","lengthFt":400.3,"maxSpanFt":91},{"id":"MO-1541","state":"MO","stateName":"Missouri","countyFips":"189","facilityCarried":"IS 255 N","featuresIntersected":"MISSISSIPPI RVR  UP RR","location":"S 6 T 43 N R 7 E","lat":38.883889,"lon":-91.295,"lowestRating":5,"yearBuilt":1985,"adt":30251,"conditionCategory":"fair","structurallyDeficient":false,"materialName":"Steel","designTypeName":"Arch - Thru","lengthFt":400.4,"maxSpanFt":91},{"id":"MO-4007","state":"MO","stateName":"Missouri","countyFips":"189","facilityCarried":"IS 255 S","featuresIntersected":"MISSISSIPPI RVR  UP RR","location":"S 6 T 43 N R 7 E","lat":38.866667,"lon":-91.352778,"lowestRating":5,"yearBuilt":1990,"adt":30251,"conditionCategory":"fair","structurallyDeficient":false,"materialName":"Steel","designTypeName":"Arch - Thru","lengthFt":400.4,"maxSpanFt":91},{"id":"OH-5301874","state":"OH","stateName":"Ohio","countyFips":"105","facilityCarried":"USR 33","featuresIntersected":"US33  OHIO RIVER  CSX RR","location":"0.30 MI W OF WV 68","lat":39.228889,"lon":-82.511111,"lowestRating":5,"yearBuilt":1981,"adt":4900,"conditionCategory":"fair","structurallyDeficient":false,"materialName":"Steel","designTypeName":"Other","lengthFt":271.6,"maxSpanFt":90.2},{"id":"WV-00000000018A183","state":"WV","stateName":"West Virginia","countyFips":"035","facilityCarried":"US 33","featuresIntersected":"US 33","location":"0.30 MI. W OF WV 68","lat":39.325,"lon":-82.19,"lowestRating":5,"yearBuilt":1981,"adt":4900,"conditionCategory":"fair","structurallyDeficient":false,"materialName":"Steel Continuous","designTypeName":"Truss - Thru","lengthFt":271.6,"maxSpanFt":90.2},{"id":"AR-000000000005141","state":"AR","stateName":"Arkansas","countyFips":"035","facilityCarried":"I 40-SEC 52","featuresIntersected":"MISS RVR  CR  CI ST  RR","location":"4 MI E JCT I-55 & I-40","lat":35.453056,"lon":-91.217778,"lowestRating":5,"yearBuilt":1973,"adt":45000,"conditionCategory":"fair","structurallyDeficient":false,"materialName":"Steel Continuous","designTypeName":"Arch - Thru","lengthFt":943.1,"maxSpanFt":90},{"id":"IL-001006800000000","state":"IL","stateName":"Illinois","countyFips":"001","facilityCarried":"US 24(WB)/ BROADWA","featuresIntersected":"MISS. R/STREETS/BNRR","location":"W EDGE DWNTWN QUINCY","lat":40.1825,"lon":-92.602778,"lowestRating":5,"yearBuilt":1986,"adt":8600,"conditionCategory":"fair","structurallyDeficient":false,"materialName":"Steel Continuous","designTypeName":"Cable-Stayed","lengthFt":450.8,"maxSpanFt":90},{"id":"KY-045B00064N","state":"KY","stateName":"Kentucky","countyFips":"089","facilityCarried":"KY-8S","featuresIntersected":"OHIO RVR-CSX RR-CO.RD.","location":".042 MI N JCT KY 8","lat":39.744444,"lon":-83.1,"lowestRating":6,"yearBuilt":1987,"adt":4433,"conditionCategory":"fair","structurallyDeficient":false,"materialName":"Steel","designTypeName":"Truss - Thru","lengthFt":299.1,"maxSpanFt":90},{"id":"KY-045B00092N","state":"KY","stateName":"Kentucky","countyFips":"089","facilityCarried":"SR93P","featuresIntersected":"Ohio River","location":"2ND ST BETWN","lat":39.516667,"lon":-82.794444,"lowestRating":7,"yearBuilt":2016,"adt":8176,"conditionCategory":"good","structurallyDeficient":false,"materialName":"Steel","designTypeName":"Cable-Stayed","lengthFt":261.6,"maxSpanFt":90},{"id":"KY-073B00173N","state":"KY","stateName":"Kentucky","countyFips":"145","facilityCarried":"U.S. 60","featuresIntersected":"Tenn. River/P&L Railroad","location":"TENNESSEE RIVER","lat":37.088889,"lon":-89.266667,"lowestRating":7,"yearBuilt":2013,"adt":6423,"conditionCategory":"good","structurallyDeficient":false,"materialName":"Steel Continuous","designTypeName":"Truss - Thru","lengthFt":369,"maxSpanFt":90},{"id":"MO-3493","state":"MO","stateName":"Missouri","countyFips":"127","facilityCarried":"US 24 W","featuresIntersected":"MISSISSIPPI RVR","location":"S 2 T 59 N R 5 W","lat":41.4075,"lon":-92.333056,"lowestRating":5,"yearBuilt":1985,"adt":10271,"conditionCategory":"fair","structurallyDeficient":false,"materialName":"Steel Continuous","designTypeName":"Cable-Stayed","lengthFt":450.8,"maxSpanFt":90},{"id":"NJ-3823051","state":"NJ","stateName":"New Jersey","countyFips":"039","facilityCarried":"I-278","featuresIntersected":"Arthur Kill","location":"Elizabeth  NJ","lat":40.701944,"lon":-75.283889,"lowestRating":9,"yearBuilt":2018,"adt":36917,"conditionCategory":"good","structurallyDeficient":false,"materialName":"Steel Continuous","designTypeName":"Cable-Stayed","lengthFt":198.5,"maxSpanFt":90},{"id":"NJ-3823052","state":"NJ","stateName":"New Jersey","countyFips":"039","facilityCarried":"278","featuresIntersected":"Arthur Kill","location":"Elizabeth  NJ","lat":40.681111,"lon":-75.303056,"lowestRating":8,"yearBuilt":2017,"adt":32714,"conditionCategory":"good","structurallyDeficient":false,"materialName":"Steel Continuous","designTypeName":"Cable-Stayed","lengthFt":198.4,"maxSpanFt":90},{"id":"NY-000000005523051","state":"NY","stateName":"New York","countyFips":"085","facilityCarried":"RTE 278","featuresIntersected":"ARTHUR KILL","location":"I278 NJ/NY BORDER","lat":40.702778,"lon":-75.284167,"lowestRating":9,"yearBuilt":2018,"adt":35831,"conditionCategory":"good","structurallyDeficient":false,"materialName":"Steel Continuous","designTypeName":"Cable-Stayed","lengthFt":198.5,"maxSpanFt":90},{"id":"NY-000000005523052","state":"NY","stateName":"New York","countyFips":"085","facilityCarried":"RTE 278","featuresIntersected":"ARTHUR KILL","location":"I278 NJ/NY BORDER","lat":40.682222,"lon":-75.302778,"lowestRating":8,"yearBuilt":2017,"adt":34120,"conditionCategory":"good","structurallyDeficient":false,"materialName":"Steel Continuous","designTypeName":"Cable-Stayed","lengthFt":198.6,"maxSpanFt":90},{"id":"OH-2701464","state":"OH","stateName":"Ohio","countyFips":"053","facilityCarried":"US 35-SILVER MEMOR","featuresIntersected":"OHIO RIVER","location":"JUST N OF GALLIPOLIS","lat":39.056111,"lon":-83.691111,"lowestRating":5,"yearBuilt":1969,"adt":22900,"conditionCategory":"fair","structurallyDeficient":false,"materialName":"Steel","designTypeName":"Truss - Thru","lengthFt":196.4,"maxSpanFt":90},{"id":"OH-4400089","state":"OH","stateName":"Ohio","countyFips":"087","facilityCarried":"SR 775","featuresIntersected":"OH 7(gov)  WV 2 & OHIO R","location":"PROCTORVILLE","lat":38.756111,"lon":-82.961944,"lowestRating":5,"yearBuilt":1981,"adt":14111,"conditionCategory":"fair","structurallyDeficient":false,"materialName":"Concrete","designTypeName":"Cable-Stayed","lengthFt":378.7,"maxSpanFt":90},{"id":"OH-4401263","state":"OH","stateName":"Ohio","countyFips":"087","facilityCarried":"SR93P","featuresIntersected":"OHIO RIVER","location":"2ND ST BETWN ADAMS /JEFF","lat":39.571111,"lon":-82.698056,"lowestRating":7,"yearBuilt":2016,"adt":10300,"conditionCategory":"good","structurallyDeficient":false,"materialName":"Steel","designTypeName":"Cable-Stayed","lengthFt":261.6,"maxSpanFt":90},{"id":"OH-7306830","state":"OH","stateName":"Ohio","countyFips":"145","facilityCarried":"SR852 | KY-8S","featuresIntersected":"OHIO RIVER | CSX RR","location":"0.61MI S OF USR 52","lat":39.881944,"lon":-83.146111,"lowestRating":6,"yearBuilt":1987,"adt":4466,"conditionCategory":"fair","structurallyDeficient":false,"materialName":"Steel","designTypeName":"Truss - Thru","lengthFt":299.1,"maxSpanFt":90},{"id":"OH-8490007","state":"OH","stateName":"Ohio","countyFips":"167","facilityCarried":"SR 807","featuresIntersected":"SR 7  OHIO RIVER","location":".25 MI S. OF JCT SR 7","lat":39.92,"lon":-82.681944,"lowestRating":6,"yearBuilt":1977,"adt":7184,"conditionCategory":"fair","structurallyDeficient":false,"materialName":"Steel","designTypeName":"Truss - Thru","lengthFt":258.3,"maxSpanFt":90},{"id":"SC-000000000009824","state":"SC","stateName":"South Carolina","countyFips":"019","facilityCarried":"US 17","featuresIntersected":"COOPER RIVER  TOWN CREEK","location":"2 MI W OF MT. PLEASANT","lat":33.087778,"lon":-81.402222,"lowestRating":7,"yearBuilt":2005,"adt":94400,"conditionCategory":"good","structurallyDeficient":false,"materialName":"Steel Continuous","designTypeName":"Cable-Stayed","lengthFt":973.7,"maxSpanFt":90},{"id":"TN-79I00400001","state":"TN","stateName":"Tennessee","countyFips":"157","facilityCarried":"I40","featuresIntersected":"MISS RVR CR CI ST RR","location":"4 MI E JCT I-55 & I-40","lat":35.316944,"lon":-90.4,"lowestRating":5,"yearBuilt":1973,"adt":35551,"conditionCategory":"fair","structurallyDeficient":false,"materialName":"Steel Continuous","designTypeName":"Arch - Thru","lengthFt":943.1,"maxSpanFt":90},{"id":"WV-00000000006A215","state":"WV","stateName":"West Virginia","countyFips":"011","facilityCarried":"WV 106","featuresIntersected":"OH 7(gov)  WV 2  OH Rivr","location":"0.67 MI NORTH OF US 60","lat":38.516111,"lon":-83.013056,"lowestRating":5,"yearBuilt":1985,"adt":12738,"conditionCategory":"fair","structurallyDeficient":false,"materialName":"Prestressed Concrete Continuous","designTypeName":"Cable-Stayed","lengthFt":378.7,"maxSpanFt":90},{"id":"WV-00000000027A063","state":"WV","stateName":"West Virginia","countyFips":"053","facilityCarried":"US 35","featuresIntersected":"OHIO RIVER","location":"0.40 MI W OF WV 2","lat":38.993889,"lon":-83.593889,"lowestRating":5,"yearBuilt":1969,"adt":24200,"conditionCategory":"fair","structurallyDeficient":false,"materialName":"Steel","designTypeName":"Truss - Thru","lengthFt":196.4,"maxSpanFt":90},{"id":"WV-00000000037A028","state":"WV","stateName":"West Virginia","countyFips":"073","facilityCarried":"WEST VIRGINIA 807","featuresIntersected":"Ohio River","location":"0.01 MILE WEST OF WV 2","lat":39.863056,"lon":-82.633056,"lowestRating":6,"yearBuilt":1977,"adt":5100,"conditionCategory":"fair","structurallyDeficient":false,"materialName":"Steel Continuous","designTypeName":"Truss - Thru","lengthFt":258.3,"maxSpanFt":90},{"id":"NY-000000005523220","state":"NY","stateName":"New York","countyFips":"089","facilityCarried":"CONN. NY 37 &CANAD","featuresIntersected":"Access Road  CSX TRANSPO","location":"4.0 MI.NE OF MASSENA","lat":45.263333,"lon":-75.330278,"lowestRating":5,"yearBuilt":1958,"adt":5956,"conditionCategory":"fair","structurallyDeficient":false,"materialName":"Steel","designTypeName":"Suspension","lengthFt":348.7,"maxSpanFt":89.5},{"id":"OH-8401608","state":"OH","stateName":"Ohio","countyFips":"167","facilityCarried":"US 50","featuresIntersected":"Ohio River","location":".8 MI S OF JCT SR 339","lat":40.411111,"lon":-82.991111,"lowestRating":6,"yearBuilt":2008,"adt":11602,"conditionCategory":"fair","structurallyDeficient":false,"materialName":"Steel","designTypeName":"Arch - Thru","lengthFt":400.9,"maxSpanFt":87.9},{"id":"WV-00000000054A200","state":"WV","stateName":"West Virginia","countyFips":"107","facilityCarried":"US 50","featuresIntersected":"OH618 OHIO RIVER CSXRR","location":"3.00 MILE W OF WV 68","lat":39.986111,"lon":-82.958056,"lowestRating":6,"yearBuilt":2008,"adt":11602,"conditionCategory":"fair","structurallyDeficient":false,"materialName":"Steel","designTypeName":"Arch - Thru","lengthFt":400.9,"maxSpanFt":87.9},{"id":"KY-045B00086N","state":"KY","stateName":"Kentucky","countyFips":"089","facilityCarried":"US 23","featuresIntersected":"OHIO RIVER","location":"N Terminus of US 23","lat":39.827778,"lon":-84.372222,"lowestRating":6,"yearBuilt":2006,"adt":8891,"conditionCategory":"fair","structurallyDeficient":false,"materialName":"Steel","designTypeName":"Cable-Stayed","lengthFt":215.5,"maxSpanFt":87.5},{"id":"LA-581500260100001","state":"LA","stateName":"Louisiana","countyFips":"029","facilityCarried":"US0065","featuresIntersected":"MISSISSIPPI RIVER","location":".01 MI EAST OF LA 131","lat":32.124167,"lon":-92.993889,"lowestRating":5,"yearBuilt":1940,"adt":21661,"conditionCategory":"fair","structurallyDeficient":false,"materialName":"Steel Continuous","designTypeName":"Truss - Thru","lengthFt":420.5,"maxSpanFt":87.5},{"id":"LA-581500260100002","state":"LA","stateName":"Louisiana","countyFips":"029","facilityCarried":"US0065","featuresIntersected":"MISSISSIPPI RIVER","location":".01 MI EAST OF LA 131","lat":32.986944,"lon":-92.300556,"lowestRating":6,"yearBuilt":1989,"adt":20933,"conditionCategory":"fair","structurallyDeficient":false,"materialName":"Steel Continuous","designTypeName":"Truss - Thru","lengthFt":420.2,"maxSpanFt":87.5},{"id":"MS-21000840010001A","state":"MS","stateName":"Mississippi","countyFips":"001","facilityCarried":"US 84","featuresIntersected":"MISSISSIPPI RIVER","location":"MISS/LA STATE LINE","lat":32.15,"lon":-93.018889,"lowestRating":5,"yearBuilt":1940,"adt":10500,"conditionCategory":"fair","structurallyDeficient":false,"materialName":"Steel Continuous","designTypeName":"Truss - Thru","lengthFt":420.5,"maxSpanFt":87.5},{"id":"MS-21000840010001B","state":"MS","stateName":"Mississippi","countyFips":"001","facilityCarried":"US 84","featuresIntersected":"MISSISSIPPI RIVER","location":"MISS/LA STATE LINE","lat":32.986667,"lon":-92.299722,"lowestRating":6,"yearBuilt":1989,"adt":10500,"conditionCategory":"fair","structurallyDeficient":false,"materialName":"Steel Continuous","designTypeName":"Truss - Thru","lengthFt":420.2,"maxSpanFt":87.5},{"id":"OH-7300026","state":"OH","stateName":"Ohio","countyFips":"145","facilityCarried":"US 23","featuresIntersected":"OHIO RIVER CSX FRONT ST","location":"OVER OH RIVER @ PORTSMOUT","lat":39.936111,"lon":-84.355,"lowestRating":6,"yearBuilt":2006,"adt":7434,"conditionCategory":"fair","structurallyDeficient":false,"materialName":"Steel","designTypeName":"Cable-Stayed","lengthFt":215.5,"maxSpanFt":87.5},{"id":"MI-000000000009988","state":"MI","stateName":"Michigan","countyFips":"147","facilityCarried":"I-94 WB","featuresIntersected":"ST CLAIR RIVER  CN RR","location":"AT PORT HURON","lat":44.579167,"lon":-83.236944,"lowestRating":7,"yearBuilt":1938,"adt":7234,"conditionCategory":"good","structurallyDeficient":false,"materialName":"Steel","designTypeName":"Truss - Thru","lengthFt":617.8,"maxSpanFt":87.1},{"id":"LA-053304510900001","state":"LA","stateName":"Louisiana","countyFips":"065","facilityCarried":"I0020","featuresIntersected":"MISSISSIPPI RIVER","location":".1 MI EAST OF US 80","lat":32.802222,"lon":-90.945556,"lowestRating":5,"yearBuilt":1973,"adt":36023,"conditionCategory":"fair","structurallyDeficient":false,"materialName":"Steel Continuous","designTypeName":"Truss - Thru","lengthFt":1105.2,"maxSpanFt":87},{"id":"MS-110002007500010","state":"MS","stateName":"Mississippi","countyFips":"149","facilityCarried":"I 20","featuresIntersected":"MISSISSIPPI RIVER","location":"MISS/LA STATE LINE","lat":32.8,"lon":-90.9475,"lowestRating":5,"yearBuilt":1973,"adt":22000,"conditionCategory":"fair","structurallyDeficient":false,"materialName":"Steel Continuous","designTypeName":"Truss - Thru","lengthFt":1105.2,"maxSpanFt":87},{"id":"CA-19C0060","state":"CA","stateName":"California","countyFips":"061","facilityCarried":"AUBURN-FORSTHILLRD","featuresIntersected":"N FK AMERICAN RIVER","location":"EAST OF I-80","lat":39.431944,"lon":-121.995,"lowestRating":7,"yearBuilt":1973,"adt":7318,"conditionCategory":"good","structurallyDeficient":false,"materialName":"Steel Continuous","designTypeName":"Truss - Deck","lengthFt":242.9,"maxSpanFt":86.2},{"id":"KY-019B00076N","state":"KY","stateName":"Kentucky","countyFips":"037","facilityCarried":"US-27","featuresIntersected":"OHIO RIVER","location":"AT OHIO RIVER","lat":40.361111,"lon":-84.638889,"lowestRating":6,"yearBuilt":1995,"adt":12632,"conditionCategory":"fair","structurallyDeficient":false,"materialName":"Steel Continuous","designTypeName":"Truss - Thru","lengthFt":229.8,"maxSpanFt":85},{"id":"OH-3101975","state":"OH","stateName":"Ohio","countyFips":"061","facilityCarried":"US 27","featuresIntersected":"OHIO RIVER / MEHRING WAY","location":"OVER OHIO RIVER","lat":40.441111,"lon":-84.731111,"lowestRating":6,"yearBuilt":1995,"adt":12632,"conditionCategory":"fair","structurallyDeficient":false,"materialName":"Steel","designTypeName":"Truss - Thru","lengthFt":229.8,"maxSpanFt":85},{"id":"IA-000000000023880","state":"IA","stateName":"Iowa","countyFips":"061","facilityCarried":"US 20","featuresIntersected":"MISS. RIVER  HWY & RR","location":"IN DUBUQUE","lat":43.3275,"lon":-91.9025,"lowestRating":6,"yearBuilt":1943,"adt":17700,"conditionCategory":"fair","structurallyDeficient":false,"materialName":"Steel Continuous","designTypeName":"Arch - Thru","lengthFt":576,"maxSpanFt":84.5},{"id":"IL-043000100000000","state":"IL","stateName":"Illinois","countyFips":"085","facilityCarried":"US 20","featuresIntersected":"MISS RIVER  HWY  RR","location":"IN DUBUQUE","lat":43.306111,"lon":-91.211389,"lowestRating":6,"yearBuilt":1943,"adt":17300,"conditionCategory":"fair","structurallyDeficient":false,"materialName":"Steel Continuous","designTypeName":"Arch - Thru","lengthFt":576,"maxSpanFt":84.5},{"id":"AR-000000000002899","state":"AR","stateName":"Arkansas","countyFips":"107","facilityCarried":"US 49- Phillips Co","featuresIntersected":"Mississippi River-Dist 1","location":"1 MI E JCT SH 20 & 44","lat":36.025,"lon":-91.921667,"lowestRating":4,"yearBuilt":1961,"adt":3900,"conditionCategory":"poor","structurallyDeficient":true,"materialName":"Steel","designTypeName":"Truss - Thru","lengthFt":520.4,"maxSpanFt":84},{"id":"MA-F020583TKDOTNBI","state":"MA","stateName":"Massachusetts","countyFips":"005","facilityCarried":"I 195","featuresIntersected":"COMB  ST79 & TAUNTON RIV","location":"FALL RIVER/SOMERSET LINE","lat":42.059722,"lon":-72.175,"lowestRating":5,"yearBuilt":1965,"adt":81260,"conditionCategory":"fair","structurallyDeficient":false,"materialName":"Steel","designTypeName":"Truss - Thru","lengthFt":578,"maxSpanFt":84},{"id":"MS-210004901433710","state":"MS","stateName":"Mississippi","countyFips":"027","facilityCarried":"US 49","featuresIntersected":"MISSISSIPPI RIVER","location":"MISS/AR STATE LINE","lat":35.632222,"lon":-91.912778,"lowestRating":4,"yearBuilt":1961,"adt":3700,"conditionCategory":"poor","structurallyDeficient":true,"materialName":"Steel","designTypeName":"Truss - Thru","lengthFt":520.4,"maxSpanFt":84},{"id":"NY-000000005521257","state":"NY","stateName":"New York","countyFips":"061","facilityCarried":"RTE 9A","featuresIntersected":"Edsall Avenue  Palisade","location":"JCT SH 9A & HARLEM RIVER","lat":42.018056,"lon":-74.400833,"lowestRating":5,"yearBuilt":1935,"adt":77015,"conditionCategory":"fair","structurallyDeficient":false,"materialName":"Steel","designTypeName":"Arch - Deck","lengthFt":187.6,"maxSpanFt":84},{"id":"KY-059B00046N","state":"KY","stateName":"Kentucky","countyFips":"117","facilityCarried":"I-75","featuresIntersected":"OHIO RIVER","location":"BRENT SPENCE BR OVER OHIO","lat":39.805556,"lon":-85.1,"lowestRating":5,"yearBuilt":1963,"adt":132112,"conditionCategory":"fair","structurallyDeficient":false,"materialName":"Steel Continuous","designTypeName":"Truss - Thru","lengthFt":173.7,"maxSpanFt":83},{"id":"OH-3107787","state":"OH","stateName":"Ohio","countyFips":"061","facilityCarried":"IR 71","featuresIntersected":"OHIO RIVER BRENT SPENCE","location":"OVER OHIO RIVER","lat":39.966111,"lon":-85.106944,"lowestRating":5,"yearBuilt":1963,"adt":163386,"conditionCategory":"fair","structurallyDeficient":false,"materialName":"Steel Continuous","designTypeName":"Truss - Thru","lengthFt":173.7,"maxSpanFt":83},{"id":"WV-00000000005A088","state":"WV","stateName":"West Virginia","countyFips":"009","facilityCarried":"WV CR2/23","featuresIntersected":"Ohio River","location":"1.2 mi. West jct. CR 67","lat":40.67,"lon":-82.06,"lowestRating":7,"yearBuilt":2023,"adt":9900,"conditionCategory":"good","structurallyDeficient":false,"materialName":"Steel","designTypeName":"Arch - Deck","lengthFt":185.3,"maxSpanFt":83},{"id":"IL-030990000000000","state":"IL","stateName":"Illinois","countyFips":"059","facilityCarried":"ILL 13","featuresIntersected":"OHIO RIVER","location":"AT STATE LN-KY MAINT","lat":38.718889,"lon":-88.448056,"lowestRating":5,"yearBuilt":1955,"adt":null,"conditionCategory":"fair","structurallyDeficient":false,"materialName":"Steel Continuous","designTypeName":"Truss - Thru","lengthFt":320,"maxSpanFt":82.5},{"id":"IN-029895","state":"IN","stateName":"Indiana","countyFips":"123","facilityCarried":"SR 237","featuresIntersected":"OHIO RIVER  3 STS  RR","location":"00.38 S SR 66","lat":38.21,"lon":-87.84,"lowestRating":5,"yearBuilt":1966,"adt":9560,"conditionCategory":"fair","structurallyDeficient":false,"materialName":"Steel Continuous","designTypeName":"Arch - Thru","lengthFt":270.9,"maxSpanFt":82.5},{"id":"KY-046B00043N","state":"KY","stateName":"Kentucky","countyFips":"091","facilityCarried":"KY-69","featuresIntersected":"OHIO RIVER","location":"OHIO RIVER @ HAWESVILLE","lat":38.261111,"lon":-87.788889,"lowestRating":5,"yearBuilt":1966,"adt":7411,"conditionCategory":"fair","structurallyDeficient":false,"materialName":"Steel Continuous","designTypeName":"Arch - Thru","lengthFt":270.9,"maxSpanFt":82.5},{"id":"KY-113B00045N","state":"KY","stateName":"Kentucky","countyFips":"225","facilityCarried":"KY-56","featuresIntersected":"OHIO RIVER AT SHAWNEETOW","location":"OHIO RIVER BRIDGE","lat":38.461111,"lon":-89.644444,"lowestRating":5,"yearBuilt":1956,"adt":2618,"conditionCategory":"fair","structurallyDeficient":false,"materialName":"Steel Continuous","designTypeName":"Truss - Thru","lengthFt":320,"maxSpanFt":82.5},{"id":"LA-614704260200721","state":"LA","stateName":"Louisiana","countyFips":"093","facilityCarried":"LA0070","featuresIntersected":"MISSISSIPPI RIVER","location":"LA0070","lat":31.375,"lon":-91.448056,"lowestRating":5,"yearBuilt":1963,"adt":17100,"conditionCategory":"fair","structurallyDeficient":false,"materialName":"Steel","designTypeName":"Truss - Thru","lengthFt":910.2,"maxSpanFt":82.5},{"id":"IL-002002200000000","state":"IL","stateName":"Illinois","countyFips":"003","facilityCarried":"FAI 57","featuresIntersected":"MISSISSIPPI RIVER","location":"I-57 AT CAIRO","lat":37.753056,"lon":-90.300833,"lowestRating":5,"yearBuilt":1978,"adt":13700,"conditionCategory":"fair","structurallyDeficient":false,"materialName":"Steel Continuous","designTypeName":"Arch - Thru","lengthFt":409.1,"maxSpanFt":82.1},{"id":"MO-1684","state":"MO","stateName":"Missouri","countyFips":"133","facilityCarried":"IS 57 S","featuresIntersected":"MISSISSIPPI RVR","location":"S 33 T 28 N R 15 E","lat":37.574167,"lon":-90.436944,"lowestRating":5,"yearBuilt":1976,"adt":10932,"conditionCategory":"fair","structurallyDeficient":false,"materialName":"Steel Continuous","designTypeName":"Truss - Thru","lengthFt":409.1,"maxSpanFt":82.1},{"id":"KY-056B00136N","state":"KY","stateName":"Kentucky","countyFips":"111","facilityCarried":"US 31 (2ND ST)","featuresIntersected":"OHIO RIVER","location":"AT KY/IN STATE LINE","lat":39.611111,"lon":-85.916667,"lowestRating":5,"yearBuilt":1929,"adt":23881,"conditionCategory":"fair","structurallyDeficient":false,"materialName":"Steel Continuous","designTypeName":"Truss - Thru","lengthFt":492.6,"maxSpanFt":82},{"id":"OH-4101960","state":"OH","stateName":"Ohio","countyFips":"081","facilityCarried":"US 22","featuresIntersected":"SR7(VETS.MEM.BR@OHIO R)","location":"0.13 MI. W. OF STATE LINE","lat":41.27,"lon":-81.888889,"lowestRating":5,"yearBuilt":1990,"adt":31494,"conditionCategory":"fair","structurallyDeficient":false,"materialName":"Concrete","designTypeName":"Cable-Stayed","lengthFt":196.5,"maxSpanFt":82},{"id":"WV-00000000005A060","state":"WV","stateName":"West Virginia","countyFips":"009","facilityCarried":"US Route 22","featuresIntersected":"OHIO RIVER & OHIO RT 7","location":"At Ohio State Line","lat":41.478889,"lon":-81.625,"lowestRating":5,"yearBuilt":1990,"adt":33960,"conditionCategory":"fair","structurallyDeficient":false,"materialName":"Steel Continuous","designTypeName":"Cable-Stayed","lengthFt":196.5,"maxSpanFt":82},{"id":"FL-720076","state":"FL","stateName":"Florida","countyFips":"031","facilityCarried":"SR-10A (MATHEWS)","featuresIntersected":"ST. JOHNS RV. & ALT-US-1","location":"SR-10A / ST. JOHNS RIVER","lat":31.372222,"lon":-82.2,"lowestRating":5,"yearBuilt":1953,"adt":72000,"conditionCategory":"fair","structurallyDeficient":false,"materialName":"Steel Continuous","designTypeName":"Truss - Thru","lengthFt":737.6,"maxSpanFt":81},{"id":"MA-B160174X3DOTNBI","state":"MA","stateName":"Massachusetts","countyFips":"025","facilityCarried":"US  1 NB/LOWR DECK","featuresIntersected":"WATER MYSTIC RIVER","location":"BIG MYS LOWER","lat":42.560278,"lon":-72.428611,"lowestRating":5,"yearBuilt":1950,"adt":41951,"conditionCategory":"fair","structurallyDeficient":false,"materialName":"Steel Continuous","designTypeName":"Truss - Thru","lengthFt":152.4,"maxSpanFt":80.1},{"id":"MA-B160174X4DOTNBI","state":"MA","stateName":"Massachusetts","countyFips":"025","facilityCarried":"US  1 SB/B MYSTC U","featuresIntersected":"US  1 NB/BIG MYSTIC LOWR","location":"BIG MYSTIC UPPER","lat":42.560278,"lon":-72.428611,"lowestRating":5,"yearBuilt":1950,"adt":33373,"conditionCategory":"fair","structurallyDeficient":false,"materialName":"Steel Continuous","designTypeName":"Truss - Thru","lengthFt":152.4,"maxSpanFt":80.1},{"id":"AL-012321","state":"AL","stateName":"Alabama","countyFips":"097","facilityCarried":"I-65 SB","featuresIntersected":"MOBILE RIVER DELTA","location":"5.5 MI N E US 43","lat":31.822778,"lon":-88.900556,"lowestRating":5,"yearBuilt":1980,"adt":11884,"conditionCategory":"fair","structurallyDeficient":false,"materialName":"Steel","designTypeName":"Arch - Thru","lengthFt":3209.8,"maxSpanFt":80},{"id":"AL-012322","state":"AL","stateName":"Alabama","countyFips":"097","facilityCarried":"I-65 NB","featuresIntersected":"MOBILE RIVER DELTA","location":"5.5 MI N E US 43","lat":31.776667,"lon":-88.886389,"lowestRating":5,"yearBuilt":1980,"adt":11884,"conditionCategory":"fair","structurallyDeficient":false,"materialName":"Steel","designTypeName":"Arch - Thru","lengthFt":3210.6,"maxSpanFt":80},{"id":"IL-002000600000000","state":"IL","stateName":"Illinois","countyFips":"003","facilityCarried":"US 51","featuresIntersected":"OHIO RIVER","location":"1 MI S CAIRO","lat":37.533056,"lon":-89.265833,"lowestRating":5,"yearBuilt":1937,"adt":5700,"conditionCategory":"fair","structurallyDeficient":false,"materialName":"Steel Continuous","designTypeName":"Truss - Thru","lengthFt":586.5,"maxSpanFt":80},{"id":"IN-034520","state":"IN","stateName":"Indiana","countyFips":"043","facilityCarried":"I-64","featuresIntersected":"OHIO RIVER  W WATER ST","location":"00.11 E SR 111","lat":39.495,"lon":-86.365,"lowestRating":5,"yearBuilt":1961,"adt":80030,"conditionCategory":"fair","structurallyDeficient":false,"materialName":"Steel","designTypeName":"Arch - Thru","lengthFt":205.3,"maxSpanFt":80},{"id":"KY-004B00021N","state":"KY","stateName":"Kentucky","countyFips":"007","facilityCarried":"US-51","featuresIntersected":"OHIO RIVER -IC (SOU) RR","location":"4.0 MI WEST OF JCT US51&6","lat":38.122222,"lon":-90.272222,"lowestRating":5,"yearBuilt":1937,"adt":5344,"conditionCategory":"fair","structurallyDeficient":false,"materialName":"Steel","designTypeName":"Truss - Thru","lengthFt":586.5,"maxSpanFt":80},{"id":"KY-056B00279N","state":"KY","stateName":"Kentucky","countyFips":"111","facilityCarried":"I-64","featuresIntersected":"OHIO RIVER  W WATER ST","location":"0.11 E OF SR 111 INDIANA","lat":39.461111,"lon":-86.344444,"lowestRating":5,"yearBuilt":1961,"adt":81936,"conditionCategory":"fair","structurallyDeficient":false,"materialName":"Steel","designTypeName":"Arch - Thru","lengthFt":205.3,"maxSpanFt":80},{"id":"NY-000000005017820","state":"NY","stateName":"New York","countyFips":"039","facilityCarried":"RTE 23","featuresIntersected":"CSX TRANS/AMTRAK  HUDSON","location":"0.5 MI E JCT RTS 385 & 23","lat":42.617778,"lon":-74.417222,"lowestRating":5,"yearBuilt":1935,"adt":18162,"conditionCategory":"fair","structurallyDeficient":false,"materialName":"Steel","designTypeName":"Truss - Thru","lengthFt":503.6,"maxSpanFt":80},{"id":"NY-000000005040010","state":"NY","stateName":"New York","countyFips":"111","facilityCarried":"RTE 199","featuresIntersected":"COUNTY ROAD 37  HUDSON R","location":"2.6 m E I-87 and RT209","lat":42.795556,"lon":-74.370833,"lowestRating":5,"yearBuilt":1957,"adt":21119,"conditionCategory":"fair","structurallyDeficient":false,"materialName":"Steel Continuous","designTypeName":"Truss - Deck","lengthFt":779.3,"maxSpanFt":80},{"id":"NY-000000005523240","state":"NY","stateName":"New York","countyFips":"045","facilityCarried":"RTE I81","featuresIntersected":"TIBA Shop Access Road  C","location":"2.5 MI.SW OF ALEX. BAY","lat":44.448611,"lon":-77.481944,"lowestRating":5,"yearBuilt":1938,"adt":3786,"conditionCategory":"fair","structurallyDeficient":false,"materialName":"Steel","designTypeName":"Suspension","lengthFt":450,"maxSpanFt":80},{"id":"SC-000000000008516","state":"SC","stateName":"South Carolina","countyFips":"015","facilityCarried":"I-526","featuresIntersected":"COOPER RIVER","location":"IN N. CHARLESTON","lat":33.556111,"lon":-80.511667,"lowestRating":5,"yearBuilt":1992,"adt":73200,"conditionCategory":"fair","structurallyDeficient":false,"materialName":"Prestressed Concrete Continuous","designTypeName":"Stringer/Multi-beam or Girder","lengthFt":1645,"maxSpanFt":80},{"id":"WA-0001447A0000000","state":"WA","stateName":"Washington","countyFips":"033","facilityCarried":"SR 99","featuresIntersected":"LAKE UNION","location":"7.7 N JCT SR 509","lat":48.6175,"lon":-123.719444,"lowestRating":5,"yearBuilt":1931,"adt":53501,"conditionCategory":"fair","structurallyDeficient":false,"materialName":"Steel","designTypeName":"Truss - Deck","lengthFt":295.5,"maxSpanFt":80},{"id":"IA-000000000047281","state":"IA","stateName":"Iowa","countyFips":"163","facilityCarried":"I 74 WB","featuresIntersected":"MISSISSIPPI RIVER","location":"IN BETTENDORF","lat":41.7875,"lon":-91.63,"lowestRating":8,"yearBuilt":2020,"adt":37650,"conditionCategory":"good","structurallyDeficient":false,"materialName":"Steel","designTypeName":"Arch - Thru","lengthFt":338.6,"maxSpanFt":79.5},{"id":"IA-000000000047291","state":"IA","stateName":"Iowa","countyFips":"163","facilityCarried":"I 74 EB","featuresIntersected":"MISSISSIPPI RIVER","location":"IN BETTENDORF","lat":42.080278,"lon":-91.758611,"lowestRating":8,"yearBuilt":2021,"adt":28250,"conditionCategory":"good","structurallyDeficient":false,"materialName":"Steel","designTypeName":"Arch - Thru","lengthFt":339.6,"maxSpanFt":79.5},{"id":"OR-01823 009 23403","state":"OR","stateName":"Oregon","countyFips":"011","facilityCarried":"US101(HWY009)","featuresIntersected":"COOS BAY (MCCULLOUGH BR)","location":"01.4 MI N HWY 240 JCT","lat":44.458889,"lon":-124.766944,"lowestRating":6,"yearBuilt":1936,"adt":14599,"conditionCategory":"fair","structurallyDeficient":false,"materialName":"Steel Continuous","designTypeName":"Truss - Thru","lengthFt":170.8,"maxSpanFt":79.3},{"id":"AR-000000000002271","state":"AR","stateName":"Arkansas","countyFips":"035","facilityCarried":"I- 55","featuresIntersected":"MISS RIVER & CORD 312","location":"TENNESSEE & ARK ST LN","lat":36.009167,"lon":-90.731944,"lowestRating":5,"yearBuilt":1949,"adt":42000,"conditionCategory":"fair","structurallyDeficient":false,"materialName":"Steel Continuous","designTypeName":"Truss - Thru","lengthFt":522.2,"maxSpanFt":79},{"id":"LA-022600060100001","state":"LA","stateName":"Louisiana","countyFips":"051","facilityCarried":"US0090","featuresIntersected":"MISSISSIPPI RIVER","location":".01 MI SOUTH OF LA 48","lat":30.733056,"lon":-91.710278,"lowestRating":5,"yearBuilt":1936,"adt":55210,"conditionCategory":"fair","structurallyDeficient":false,"materialName":"Steel Continuous","designTypeName":"Truss - Thru","lengthFt":238.1,"maxSpanFt":79},{"id":"TN-79I00550101","state":"TN","stateName":"Tennessee","countyFips":"157","facilityCarried":"I-55","featuresIntersected":"MISS RIVER & CORD 312","location":"ARKANSAS STATE LINE","lat":36.45,"lon":-91.400278,"lowestRating":5,"yearBuilt":1949,"adt":69044,"conditionCategory":"fair","structurallyDeficient":false,"materialName":"Steel Continuous","designTypeName":"Truss - Thru","lengthFt":522.2,"maxSpanFt":79},{"id":"KY-100B00110N","state":"KY","stateName":"Kentucky","countyFips":"199","facilityCarried":"KY 90","featuresIntersected":"CUMBERLAND RIVER","location":"0.8 MI. W. OF JCT US 27","lat":37.705556,"lon":-84.894444,"lowestRating":6,"yearBuilt":2005,"adt":14040,"conditionCategory":"fair","structurallyDeficient":false,"materialName":"Steel Continuous","designTypeName":"Truss - Thru","lengthFt":171.2,"maxSpanFt":78.6},{"id":"OH-4800303","state":"OH","stateName":"Ohio","countyFips":"095","facilityCarried":"HIGH LEVEL BRIDGE","featuresIntersected":"MAUMEE RIVER RRS&STREETS","location":"0.2 mile East of Summit","lat":42.488889,"lon":-84.198056,"lowestRating":6,"yearBuilt":1931,"adt":21253,"conditionCategory":"fair","structurallyDeficient":false,"materialName":"Steel","designTypeName":"Suspension","lengthFt":321.8,"maxSpanFt":78.5},{"id":"PA-000000000044345","state":"PA","stateName":"Pennsylvania","countyFips":"003","facilityCarried":"SR 885","featuresIntersected":"BLUFF","location":"Blvd of The Allies Bluffs","lat":40.416667,"lon":-81.355556,"lowestRating":6,"yearBuilt":2007,"adt":28222,"conditionCategory":"fair","structurallyDeficient":false,"materialName":"Concrete","designTypeName":"Slab","lengthFt":78.7,"maxSpanFt":78.5},{"id":"WV-00000000041A164","state":"WV","stateName":"West Virginia","countyFips":"081","facilityCarried":"I-64","featuresIntersected":"GLADE CREEK","location":"1.29 MI. E. OF CR. 9","lat":37.94,"lon":-81.7,"lowestRating":6,"yearBuilt":1988,"adt":10000,"conditionCategory":"fair","structurallyDeficient":false,"materialName":"Steel Continuous","designTypeName":"Truss - Deck","lengthFt":219,"maxSpanFt":78.4},{"id":"AL-015430","state":"AL","stateName":"Alabama","countyFips":"097","facilityCarried":"US 90/COCHRANE BR","featuresIntersected":"MOBILE RIVER","location":"0.2 MI E US 43","lat":30.798611,"lon":-89.175556,"lowestRating":6,"yearBuilt":1991,"adt":19190,"conditionCategory":"fair","structurallyDeficient":false,"materialName":"Prestressed Concrete Continuous","designTypeName":"Cable-Stayed","lengthFt":729.1,"maxSpanFt":78},{"id":"LA-034900080400001","state":"LA","stateName":"Louisiana","countyFips":"097","facilityCarried":"US0190","featuresIntersected":"ATCHAFALAYA R @ KSPNGS","location":"0.25 Mi W of LA 975","lat":32.044167,"lon":-92.862222,"lowestRating":5,"yearBuilt":1973,"adt":20176,"conditionCategory":"fair","structurallyDeficient":false,"materialName":"Steel","designTypeName":"Truss - Thru","lengthFt":340.3,"maxSpanFt":78},{"id":"OH-0706397","state":"OH","stateName":"Ohio","countyFips":"013","facilityCarried":"IR 470","featuresIntersected":"SR7 NS & W&L RRS OHIO R","location":".08 M E OF SR 7","lat":41.666111,"lon":-82.246111,"lowestRating":5,"yearBuilt":1978,"adt":42161,"conditionCategory":"fair","structurallyDeficient":false,"materialName":"Steel Continuous","designTypeName":"Stringer/Multi-beam or Girder","lengthFt":78.5,"maxSpanFt":78},{"id":"OR-22258 000 00000","state":"OR","stateName":"Oregon","countyFips":"051","facilityCarried":"Port. Mil  Lt Rail","featuresIntersected":"WILLAMETTE RIVER","location":"WILLAMETTE RIVER MP 13.2","lat":45.98,"lon":-122.71,"lowestRating":6,"yearBuilt":2015,"adt":630,"conditionCategory":"fair","structurallyDeficient":false,"materialName":"Prestressed Concrete Continuous","designTypeName":"Cable-Stayed","lengthFt":172,"maxSpanFt":78},{"id":"PA-000000000000535","state":"PA","stateName":"Pennsylvania","countyFips":"003","facilityCarried":"West End Bridge","featuresIntersected":"OHIO RIVER  CSX RR","location":"West End Bridge","lat":41.714167,"lon":-81.063889,"lowestRating":5,"yearBuilt":1930,"adt":46023,"conditionCategory":"fair","structurallyDeficient":false,"materialName":"Steel","designTypeName":"Arch - Thru","lengthFt":122.1,"maxSpanFt":78},{"id":"PA-000000000003442","state":"PA","stateName":"Pennsylvania","countyFips":"007","facilityCarried":"ROCHESTER MONACA","featuresIntersected":"SR 65 RR LOCAL OHIO RIV.","location":"ROCHESTER MONACA BRIDGE","lat":41.75,"lon":-81.748889,"lowestRating":6,"yearBuilt":1986,"adt":17325,"conditionCategory":"fair","structurallyDeficient":false,"materialName":"Steel Continuous","designTypeName":"Truss - Thru","lengthFt":211.6,"maxSpanFt":78},{"id":"WV-00000000035A123","state":"WV","stateName":"West Virginia","countyFips":"069","facilityCarried":"Interstate 470","featuresIntersected":"Ohio River","location":"0.54 mi. West jct US 250","lat":41.688056,"lon":-82.091111,"lowestRating":5,"yearBuilt":1978,"adt":42161,"conditionCategory":"fair","structurallyDeficient":false,"materialName":"Steel","designTypeName":"Arch - Thru","lengthFt":78.5,"maxSpanFt":78},{"id":"WV-00000000020A842","state":"WV","stateName":"West Virginia","countyFips":"039","facilityCarried":"I-64 EB","featuresIntersected":"WV25 US60 KANAWHA RV CSX","location":"0.75 Mi E of I-64 Exit 53","lat":39.453889,"lon":-81.986111,"lowestRating":6,"yearBuilt":2010,"adt":54800,"conditionCategory":"fair","structurallyDeficient":false,"materialName":"Prestressed Concrete Continuous","designTypeName":"Segmental Box Girder","lengthFt":297.5,"maxSpanFt":76},{"id":"KY-019B00039L","state":"KY","stateName":"Kentucky","countyFips":"037","facilityCarried":"I-471 NC","featuresIntersected":"OHIO RIVER","location":"SBL DAN BEARD OVER OHIO R","lat":39.1,"lon":-85.566667,"lowestRating":5,"yearBuilt":1976,"adt":49764,"conditionCategory":"fair","structurallyDeficient":false,"materialName":"Steel","designTypeName":"Arch - Thru","lengthFt":130,"maxSpanFt":75.8},{"id":"KY-019B00039R","state":"KY","stateName":"Kentucky","countyFips":"037","facilityCarried":"I-471","featuresIntersected":"OHIO RIVER","location":"NBL DAN BEARD OVER OHIO R","lat":39.127778,"lon":-85.538889,"lowestRating":5,"yearBuilt":1976,"adt":49764,"conditionCategory":"fair","structurallyDeficient":false,"materialName":"Steel","designTypeName":"Arch - Thru","lengthFt":130,"maxSpanFt":75.8},{"id":"OH-3117677","state":"OH","stateName":"Ohio","countyFips":"061","facilityCarried":"IR 471","featuresIntersected":"OHIO RVR-KY RVRBOAT ROW","location":"SBL DAN BEARD OVER OH RVR","lat":39.228889,"lon":-85.751944,"lowestRating":5,"yearBuilt":1976,"adt":50933,"conditionCategory":"fair","structurallyDeficient":false,"materialName":"Steel","designTypeName":"Arch - Thru","lengthFt":130,"maxSpanFt":75.8},{"id":"OH-3117685","state":"OH","stateName":"Ohio","countyFips":"061","facilityCarried":"IR 471","featuresIntersected":"OHIO RVR-KY RVRBOAT ROW","location":"NBL DAN BEARD OVER OH RVR","lat":39.213889,"lon":-85.768056,"lowestRating":5,"yearBuilt":1976,"adt":51654,"conditionCategory":"fair","structurallyDeficient":false,"materialName":"Steel","designTypeName":"Arch - Thru","lengthFt":130,"maxSpanFt":75.8},{"id":"IL-060025500000000","state":"IL","stateName":"Illinois","countyFips":"119","facilityCarried":"US 67","featuresIntersected":"Mississippi Rvr NSRR UPR","location":"ALTON RIVERFRONT","lat":39.334167,"lon":-90.754167,"lowestRating":5,"yearBuilt":1994,"adt":22000,"conditionCategory":"fair","structurallyDeficient":false,"materialName":"Steel Continuous","designTypeName":"Cable-Stayed","lengthFt":462,"maxSpanFt":75.6},{"id":"ME-6330","state":"ME","stateName":"Maine","countyFips":"031","facilityCarried":"I 95","featuresIntersected":"PISCATAQUA RIVER RTE 103","location":"MAINE-NEW HAMPSHIRE SL","lat":44.028889,"lon":-72.38,"lowestRating":6,"yearBuilt":1971,"adt":40420,"conditionCategory":"fair","structurallyDeficient":false,"materialName":"Steel Continuous","designTypeName":"Truss - Thru","lengthFt":400,"maxSpanFt":75.6},{"id":"MO-3497","state":"MO","stateName":"Missouri","countyFips":"183","facilityCarried":"US 67 S","featuresIntersected":"MISSISSIPPI RVR  BNSF RR","location":"S 25 T 48 N R 7 E","lat":40.281111,"lon":-91.647778,"lowestRating":5,"yearBuilt":1994,"adt":26574,"conditionCategory":"fair","structurallyDeficient":false,"materialName":"Steel Continuous","designTypeName":"Cable-Stayed","lengthFt":462,"maxSpanFt":75.6},{"id":"NH-021702580012800","state":"NH","stateName":"New Hampshire","countyFips":"015","facilityCarried":"I-95","featuresIntersected":"PISCATAQUA RIVER","location":"I-95 AT MAINE STATE LINE","lat":44.003611,"lon":-70.798333,"lowestRating":6,"yearBuilt":1971,"adt":73085,"conditionCategory":"fair","structurallyDeficient":false,"materialName":"Steel Continuous","designTypeName":"Truss - Thru","lengthFt":134.4,"maxSpanFt":75.6},{"id":"CA-20C0438","state":"CA","stateName":"California","countyFips":"097","facilityCarried":"ROCKPILE ROAD","featuresIntersected":"WARM SPRINGS CREEK","location":"3.5 MI JCT DUTCHER CRK RD","lat":40.289444,"lon":-123.141667,"lowestRating":7,"yearBuilt":1978,"adt":1650,"conditionCategory":"good","structurallyDeficient":false,"materialName":"Steel Continuous","designTypeName":"Truss - Deck","lengthFt":178.8,"maxSpanFt":75.2},{"id":"PA-000000000001011","state":"PA","stateName":"Pennsylvania","countyFips":"003","facilityCarried":"Fort Pitt Bridge","featuresIntersected":"MON R NS RR SR 0837 0376","location":"Fort Pitt Bridge","lat":40.944444,"lon":-81.203611,"lowestRating":6,"yearBuilt":1960,"adt":38461,"conditionCategory":"fair","structurallyDeficient":false,"materialName":"Steel","designTypeName":"Arch - Thru","lengthFt":120.9,"maxSpanFt":75.2},{"id":"PA-000000000001019","state":"PA","stateName":"Pennsylvania","countyFips":"003","facilityCarried":"Fort Pitt Bridge","featuresIntersected":"MON R  NS RR  SR 0837","location":"Fort Pitt Bridge","lat":40.974722,"lon":-81.16,"lowestRating":6,"yearBuilt":1959,"adt":40589,"conditionCategory":"fair","structurallyDeficient":false,"materialName":"Steel","designTypeName":"Arch - Thru","lengthFt":120.7,"maxSpanFt":75.2},{"id":"IN-024727","state":"IN","stateName":"Indiana","countyFips":"147","facilityCarried":"SR 161","featuresIntersected":"OHIO RIVER  US 60","location":"08.29 S SR 66","lat":39.007778,"lon":-88.008889,"lowestRating":5,"yearBuilt":1940,"adt":7268,"conditionCategory":"fair","structurallyDeficient":false,"materialName":"Steel","designTypeName":"Truss - Thru","lengthFt":462.4,"maxSpanFt":75.1},{"id":"KY-030B00118N","state":"KY","stateName":"Kentucky","countyFips":"059","facilityCarried":"KY-2262","featuresIntersected":"OHIO RIVER","location":"OHIO RIVER BRIDGE","lat":39.183333,"lon":-88.016667,"lowestRating":5,"yearBuilt":1940,"adt":7268,"conditionCategory":"fair","structurallyDeficient":false,"materialName":"Steel","designTypeName":"Truss - Thru","lengthFt":462.4,"maxSpanFt":75.1},{"id":"CA-35 0054","state":"CA","stateName":"California","countyFips":"081","facilityCarried":"STATE ROUTE 92","featuresIntersected":"SAN FRANCISCO BAY","location":"04-SM-092-R14.44-FSTC","lat":38.255278,"lon":-123.484722,"lowestRating":4,"yearBuilt":1967,"adt":120000,"conditionCategory":"poor","structurallyDeficient":true,"materialName":"Steel","designTypeName":"Orthotropic","lengthFt":3606.9,"maxSpanFt":75},{"id":"DE-1902 082","state":"DE","stateName":"Delaware","countyFips":"003","facilityCarried":"Korean War Vet Mem","featuresIntersected":"C&D Canal  Rd. 412","location":"C&D Canal","lat":41.2,"lon":-76.261111,"lowestRating":5,"yearBuilt":1995,"adt":90068,"conditionCategory":"fair","structurallyDeficient":false,"materialName":"Prestressed Concrete","designTypeName":"Cable-Stayed","lengthFt":465,"maxSpanFt":75},{"id":"IN-049660","state":"IN","stateName":"Indiana","countyFips":"029","facilityCarried":"I-275","featuresIntersected":"OHIO RIVER  CSX RR  CR","location":"00.00 OHIO RIVER","lat":39.516944,"lon":-85.733056,"lowestRating":5,"yearBuilt":1976,"adt":40222,"conditionCategory":"fair","structurallyDeficient":false,"materialName":"Steel Continuous","designTypeName":"Truss - Thru","lengthFt":405.2,"maxSpanFt":75},{"id":"IN-079970","state":"IN","stateName":"Indiana","countyFips":"019","facilityCarried":"I-65 NB","featuresIntersected":"OHIO RIVER","location":"00.44 S US 31 over OHIO R","lat":39.706944,"lon":-86.67,"lowestRating":7,"yearBuilt":2016,"adt":60500,"conditionCategory":"good","structurallyDeficient":false,"materialName":"Steel Continuous","designTypeName":"Cable-Stayed","lengthFt":210.6,"maxSpanFt":75},{"id":"KY-008B00052N","state":"KY","stateName":"Kentucky","countyFips":"015","facilityCarried":"I-275","featuresIntersected":"OHIO RIVER","location":"CROPPER BRIDGE OVER OHIO","lat":39.516667,"lon":-85.733333,"lowestRating":5,"yearBuilt":1976,"adt":40939,"conditionCategory":"fair","structurallyDeficient":false,"materialName":"Steel Continuous","designTypeName":"Truss - Thru","lengthFt":405.2,"maxSpanFt":75},{"id":"KY-056B00526R","state":"KY","stateName":"Kentucky","countyFips":"111","facilityCarried":"I-65 NB","featuresIntersected":"OHIO RIVER","location":"AT KY/IN STATE LINE","lat":39.722222,"lon":-86.677778,"lowestRating":7,"yearBuilt":2016,"adt":60500,"conditionCategory":"good","structurallyDeficient":false,"materialName":"Steel Continuous","designTypeName":"Cable-Stayed","lengthFt":210.6,"maxSpanFt":75},{"id":"LA-035102430200001","state":"LA","stateName":"Louisiana","countyFips":"101","facilityCarried":"LA0317","featuresIntersected":"ICWW @ BAYOU SALE","location":"6.2 MI S OF US 90(LA0317)","lat":30.694167,"lon":-92.350278,"lowestRating":6,"yearBuilt":1982,"adt":2700,"conditionCategory":"fair","structurallyDeficient":false,"materialName":"Steel","designTypeName":"Girder and Floorbeam","lengthFt":372.5,"maxSpanFt":75},{"id":"NJ-3823069","state":"NJ","stateName":"New Jersey","countyFips":"023","facilityCarried":"440 440 06011015","featuresIntersected":"Arthur Kill","location":"3 miles north of NJ TRPK","lat":41.348056,"lon":-75.295,"lowestRating":5,"yearBuilt":1928,"adt":83856,"conditionCategory":"fair","structurallyDeficient":false,"materialName":"Steel","designTypeName":"Truss - Thru","lengthFt":210,"maxSpanFt":75},{"id":"NY-000000005502190","state":"NY","stateName":"New York","countyFips":"119","facilityCarried":"RTE 987G","featuresIntersected":"NEW CROTON RESRVR","location":"TSP(NB) AT NEW CROTON RES","lat":41.566389,"lon":-75.083333,"lowestRating":6,"yearBuilt":1931,"adt":56221,"conditionCategory":"fair","structurallyDeficient":false,"materialName":"Steel","designTypeName":"Arch - Thru","lengthFt":79.4,"maxSpanFt":75},{"id":"NY-000000005523069","state":"NY","stateName":"New York","countyFips":"085","facilityCarried":"RTE 440","featuresIntersected":"ARTHUR KILL","location":"ARTHUR KILL","lat":41.348611,"lon":-75.295,"lowestRating":5,"yearBuilt":1928,"adt":81928,"conditionCategory":"fair","structurallyDeficient":false,"materialName":"Steel","designTypeName":"Truss - Thru","lengthFt":210,"maxSpanFt":75},{"id":"OH-8401225","state":"OH","stateName":"Ohio","countyFips":"167","facilityCarried":"WV-618","featuresIntersected":"Ohio River  WV 14  & CSX","location":".8 MI S. MEMORIAL BRIDGE","lat":39.686944,"lon":-83.153889,"lowestRating":5,"yearBuilt":1980,"adt":16602,"conditionCategory":"fair","structurallyDeficient":false,"materialName":"Steel Continuous","designTypeName":"Stringer/Multi-beam or Girder","lengthFt":253.1,"maxSpanFt":75},{"id":"PA-000000000000897","state":"PA","stateName":"Pennsylvania","countyFips":"003","facilityCarried":"Neville Island Brg","featuresIntersected":"CSX RR NS RR  OHIO RIVER","location":"Neville Island Bridge","lat":41.147222,"lon":-80.512222,"lowestRating":5,"yearBuilt":1976,"adt":50492,"conditionCategory":"fair","structurallyDeficient":false,"materialName":"Steel","designTypeName":"Arch - Thru","lengthFt":454.4,"maxSpanFt":75},{"id":"PA-000000000001876","state":"PA","stateName":"Pennsylvania","countyFips":"003","facilityCarried":"McKees Rocks Brg","featuresIntersected":"NORFOLK S RR  OHIO RIVER","location":"McKees Rocks Bridge (Main","lat":41.397222,"lon":-80.696389,"lowestRating":5,"yearBuilt":1931,"adt":27207,"conditionCategory":"fair","structurallyDeficient":false,"materialName":"Steel","designTypeName":"Arch - Thru","lengthFt":375.4,"maxSpanFt":75},{"id":"PA-000000000001966","state":"PA","stateName":"Pennsylvania","countyFips":"003","facilityCarried":"Sewickley Bridge","featuresIntersected":"SR 0051;N&SRR;CSX;OHIO R","location":"Sewickley Bridge","lat":42.165278,"lon":-80.6225,"lowestRating":6,"yearBuilt":1981,"adt":24470,"conditionCategory":"fair","structurallyDeficient":false,"materialName":"Steel Continuous","designTypeName":"Truss - Thru","lengthFt":185.2,"maxSpanFt":75},{"id":"TN-58SR1560001","state":"TN","stateName":"Tennessee","countyFips":"115","facilityCarried":"FAS 156","featuresIntersected":"TENNESSEE RIVER","location":"2 MI.FROM I-24","lat":36.57,"lon":-86.976667,"lowestRating":5,"yearBuilt":1981,"adt":4316,"conditionCategory":"fair","structurallyDeficient":false,"materialName":"Steel","designTypeName":"Arch - Thru","lengthFt":151.4,"maxSpanFt":75},{"id":"TX-121020325603075","state":"TX","stateName":"Texas","countyFips":"201","facilityCarried":"BELTWAY 8","featuresIntersected":"HOUSTON SHIP CHANNEL","location":"BLTWY 8 @ SHIP CHANNEL","lat":31.2,"lon":-96.468889,"lowestRating":6,"yearBuilt":1980,"adt":57486,"conditionCategory":"fair","structurallyDeficient":false,"materialName":"Prestressed Concrete Continuous","designTypeName":"Segmental Box Girder","lengthFt":1053.8,"maxSpanFt":75},{"id":"WV-00000000054A103","state":"WV","stateName":"West Virginia","countyFips":"107","facilityCarried":"WV 618","featuresIntersected":"Ohio River  WV 14  & CSX","location":"0.49 M WEST OF WV 68 S","lat":39.643889,"lon":-83.065,"lowestRating":5,"yearBuilt":1980,"adt":15700,"conditionCategory":"fair","structurallyDeficient":false,"materialName":"Steel","designTypeName":"Truss - Thru","lengthFt":253.1,"maxSpanFt":75},{"id":"LA-611700071000001","state":"LA","stateName":"Louisiana","countyFips":"033","facilityCarried":"US0190","featuresIntersected":"MISSISSIPPI RIVER","location":"1.1 MI W OF US 61","lat":31.221944,"lon":-91.877778,"lowestRating":3,"yearBuilt":1939,"adt":18380,"conditionCategory":"poor","structurallyDeficient":true,"materialName":"Steel Continuous","designTypeName":"Truss - Thru","lengthFt":587.9,"maxSpanFt":74.8},{"id":"MA-B166009PMDOTNBI","state":"MA","stateName":"Massachusetts","countyFips":"025","facilityCarried":"I  93 & RMP SA-CN","featuresIntersected":"WATER CHARLES RIV/RAMPS","location":"N OF TD GARDEN","lat":42.58,"lon":-72.372778,"lowestRating":5,"yearBuilt":2002,"adt":155200,"conditionCategory":"fair","structurallyDeficient":false,"materialName":"Steel","designTypeName":"Cable-Stayed","lengthFt":145.7,"maxSpanFt":74.5},