[{"id":"PA-000000000039144","state":"PA","stateName":"Pennsylvania","countyFips":"101","facilityCarried":"Fishers Lane","featuresIntersected":"Tacony Creek","location":"W of Ramona Street  18E13","lat":40.436667,"lon":-75.436667,"yearBuilt":1801,"adt":50,"lowestRating":3,"conditionCategory":"poor","structurallyDeficient":true,"materialName":"Masonry","designTypeName":"Arch - Deck","lengthFt":5.4},{"id":"PA-000000000007480","state":"PA","stateName":"Pennsylvania","countyFips":"017","facilityCarried":"OLD EASTON ROAD","featuresIntersected":"NOCKAMIXON CREEK","location":"AHLERS BRIDGE   2584-A3","lat":41.899722,"lon":-75.19,"yearBuilt":1804,"adt":100,"lowestRating":5,"conditionCategory":"fair","structurallyDeficient":false,"materialName":"Masonry","designTypeName":"Arch - Deck","lengthFt":4.5},{"id":"PA-000000000010723","state":"PA","stateName":"Pennsylvania","countyFips":"029","facilityCarried":"OLD SCHUYLKILL RD","featuresIntersected":"PIGEON CREEK","location":"500 N of PA-724  3139-G9","lat":41.772778,"lon":-77.139722,"yearBuilt":1804,"adt":406,"lowestRating":3,"conditionCategory":"poor","structurallyDeficient":true,"materialName":"Masonry","designTypeName":"Arch - Deck","lengthFt":5.3},{"id":"PA-000000000010086","state":"PA","stateName":"Pennsylvania","countyFips":"029","facilityCarried":"STRASBURG ROAD","featuresIntersected":"EAST BR.BRANDYWINE CREEK","location":"COPES BRIDGE       31D11","lat":40.8325,"lon":-76.1875,"yearBuilt":1807,"adt":7057,"lowestRating":6,"conditionCategory":"fair","structurallyDeficient":false,"materialName":"Masonry","designTypeName":"Arch - Deck","lengthFt":15.4},{"id":"MD-100000030105010","state":"MD","stateName":"Maryland","countyFips":"005","facilityCarried":"YORK ROAD","featuresIntersected":"LITTLE FALLS","location":"0.07 MI S OF MD 45","lat":0.010833,"lon":-0.001944,"yearBuilt":1809,"adt":499,"lowestRating":5,"conditionCategory":"fair","structurallyDeficient":false,"materialName":"Masonry","designTypeName":"Arch - Deck","lengthFt":6.2},{"id":"PA-000000000015208","state":"PA","stateName":"Pennsylvania","countyFips":"045","facilityCarried":"ST.DAVIDS ROAD","featuresIntersected":"DARBY CREEK / 3476-F8","location":"1MI.W.NEWTOWN RD.  14A13","lat":40.081389,"lon":-75.930278,"yearBuilt":1810,"adt":5429,"lowestRating":5,"conditionCategory":"fair","structurallyDeficient":false,"materialName":"Masonry","designTypeName":"Arch - Deck","lengthFt":2.6},{"id":"PA-000000000027313","state":"PA","stateName":"Pennsylvania","countyFips":"091","facilityCarried":"LIMEKILN PIKE","featuresIntersected":"SANDY RUN","location":"FITZWATERTN  3258-D10","lat":41.182778,"lon":-76.79,"yearBuilt":1810,"adt":9367,"lowestRating":5,"conditionCategory":"fair","structurallyDeficient":false,"materialName":"Masonry","designTypeName":"Arch - Deck","lengthFt":2.0},{"id":"PA-000000000029759","state":"PA","stateName":"Pennsylvania","countyFips":"099","facilityCarried":"COVERED BRIDGE LN.","featuresIntersected":"SHERMAN CREEK","location":".2 SW DELV. SHERM.C WHTFD","lat":41.706111,"lon":-78.744444,"yearBuilt":1810,"adt":25,"lowestRating":5,"conditionCategory":"fair","structurallyDeficient":false,"materialName":"Steel","designTypeName":"Stringer/Multi-beam or Girder","lengthFt":17.4},{"id":"RI-000000000007690","state":"RI","stateName":"Rhode Island","countyFips":"007","facilityCarried":"MARTIN ST","featuresIntersected":"BLACKSTONE RIVER","location":"0.3 Mi W of JCT RI 122","lat":42.95,"lon":-72.84,"yearBuilt":1810,"adt":2958,"lowestRating":7,"conditionCategory":"good","structurallyDeficient":false,"materialName":"Steel","designTypeName":"Stringer/Multi-beam or Girder","lengthFt":15.6},{"id":"PA-000000000040359","state":"PA","stateName":"Pennsylvania","countyFips":"025","facilityCarried":"GLEN ONOKO BRIDGE","featuresIntersected":"LEHIGH RIVER","location":"LEHIGH GORGE SP","lat":42.52,"lon":-76.889722,"yearBuilt":1812,"adt":100,"lowestRating":5,"conditionCategory":"fair","structurallyDeficient":false,"materialName":"Steel","designTypeName":"Stringer/Multi-beam or Girder","lengthFt":23.9},{"id":"WV-00000000035A036","state":"WV","stateName":"West Virginia","countyFips":"069","facilityCarried":"US Route 40","featuresIntersected":"Little Wheeling Creek","location":"0.05 Mi. West Jct. WV 88","lat":41.076111,"lon":-81.515,"yearBuilt":1817,"adt":12800,"lowestRating":4,"conditionCategory":"poor","structurallyDeficient":true,"materialName":"Masonry","designTypeName":"Arch - Deck","lengthFt":19.5},{"id":"WV-00000000049A105","state":"WV","stateName":"West Virginia","countyFips":"097","facilityCarried":"COUNTY ROUTE 11/4","featuresIntersected":"GRASSY CREEK","location":"0.09 MI E OF CO RT 11/8","lat":39.658056,"lon":-80.283056,"yearBuilt":1817,"adt":50,"lowestRating":7,"conditionCategory":"good","structurallyDeficient":false,"materialName":"Other","designTypeName":"Culvert","lengthFt":3.0},{"id":"PA-000000000000458","state":"PA","stateName":"Pennsylvania","countyFips":"001","facilityCarried":"STORMS STORE ROAD","featuresIntersected":"CONEWAGO CREEK","location":"2.25 MI.SW OF NEW OXFORD","lat":41.396944,"lon":-78.375833,"yearBuilt":1820,"adt":650,"lowestRating":7,"conditionCategory":"good","structurallyDeficient":false,"materialName":"Masonry","designTypeName":"Arch - Deck","lengthFt":6.1},{"id":"PA-000000000017694","state":"PA","stateName":"Pennsylvania","countyFips":"055","facilityCarried":"ANDERSON ROAD","featuresIntersected":"CONOCOCHEAGUE CREEK W BR","location":"0.85 MI NE OF SR 416","lat":40.346944,"lon":-78.178611,"yearBuilt":1820,"adt":150,"lowestRating":4,"conditionCategory":"poor","structurallyDeficient":true,"materialName":"Masonry","designTypeName":"Arch - Deck","lengthFt":8.3},{"id":"PA-000000000039218","state":"PA","stateName":"Pennsylvania","countyFips":"101","facilityCarried":"Bells Mill Road","featuresIntersected":"Wissahickon Creek","location":"SW of Germantown Ave16G02","lat":41.326111,"lon":-76.098333,"yearBuilt":1820,"adt":12200,"lowestRating":4,"conditionCategory":"poor","structurallyDeficient":true,"materialName":"Masonry","designTypeName":"Arch - Deck","lengthFt":6.7},{"id":"VA-000000000011350","state":"VA","stateName":"Virginia","countyFips":"107","facilityCarried":"SNICKERSVILLE ROAD","featuresIntersected":"BEAVERDAM CREEK","location":"00.09FR731N/00.01TO731S","lat":39.446667,"lon":-78.327778,"yearBuilt":1820,"adt":2060,"lowestRating":7,"conditionCategory":"good","structurallyDeficient":false,"materialName":"Masonry","designTypeName":"Arch - Deck","lengthFt":12.4},{"id":"MA-F090033KQMUNNBI","state":"MA","stateName":"Massachusetts","countyFips":"005","facilityCarried":"ST 79 ELM ST","featuresIntersected":"WATER ASSONET RIVER","location":".1 MI EAST OF ASSONET CTR","lat":43.007222,"lon":-72.653056,"yearBuilt":1822,"adt":8895,"lowestRating":6,"conditionCategory":"fair","structurallyDeficient":false,"materialName":"Masonry","designTypeName":"Arch - Deck","lengthFt":4.5},{"id":"NJ-18E0201","state":"NJ","stateName":"New Jersey","countyFips":"035","facilityCarried":"OPOSSUM ROAD","featuresIntersected":"BEDENS BROOK","location":"1 MI SOUTH OF US 206","lat":41.978056,"lon":-76.04,"yearBuilt":1822,"adt":1863,"lowestRating":6,"conditionCategory":"fair","structurallyDeficient":false,"materialName":"Other","designTypeName":"Arch - Deck","lengthFt":4.8},{"id":"NJ-18E0302","state":"NJ","stateName":"New Jersey","countyFips":"035","facilityCarried":"DEAD TREE RUN ROAD","featuresIntersected":"PIKE RUN","location":"1 MI EAST OF RT 206","lat":40.548056,"lon":-75.816944,"yearBuilt":1822,"adt":989,"lowestRating":6,"conditionCategory":"fair","structurallyDeficient":false,"materialName":"Masonry","designTypeName":"Arch - Deck","lengthFt":5.7},{"id":"MD-100000210018010","state":"MD","stateName":"Maryland","countyFips":"043","facilityCarried":"US 40 ALT","featuresIntersected":"ANTIETAM CREEK","location":"0.42 M E OF KENLY AVENUE","lat":40.861667,"lon":-78.716944,"yearBuilt":1823,"adt":6082,"lowestRating":5,"conditionCategory":"fair","structurallyDeficient":false,"materialName":"Masonry","designTypeName":"Arch - Deck","lengthFt":13.1},{"id":"MA-L1504687MMUNNBI","state":"MA","stateName":"Massachusetts","countyFips":"017","facilityCarried":"HWY   MERRIMACK ST","featuresIntersected":"WATER MERRIMACK CANAL","location":"AT DUTTON ST","lat":43.887222,"lon":-72.537222,"yearBuilt":1823,"adt":20520,"lowestRating":6,"conditionCategory":"fair","structurallyDeficient":false,"materialName":"Masonry","designTypeName":"Arch - Deck","lengthFt":3.6},{"id":"MD-100000210039010","state":"MD","stateName":"Maryland","countyFips":"043","facilityCarried":"MD 68","featuresIntersected":"BEAVER CREEK","location":"2.24 MILES EAST OF MD 65","lat":39.694167,"lon":-78.612222,"yearBuilt":1824,"adt":2592,"lowestRating":5,"conditionCategory":"fair","structurallyDeficient":false,"materialName":"Masonry","designTypeName":"Arch - Deck","lengthFt":3.8},{"id":"MD-200000W-5371010","state":"MD","stateName":"Maryland","countyFips":"043","facilityCarried":"ROXBURY ROAD","featuresIntersected":"ANTIETAM CREEK","location":"1.27 MI W OF ALT US RT 40","lat":39.871389,"lon":-77.774722,"yearBuilt":1824,"adt":778,"lowestRating":6,"conditionCategory":"fair","structurallyDeficient":false,"materialName":"Masonry","designTypeName":"Arch - Deck","lengthFt":9.8},{"id":"PA-000000000023503","state":"PA","stateName":"Pennsylvania","countyFips":"077","facilityCarried":"WALNUT STREET","featuresIntersected":"CEDAR CREEK","location":"ST ELMO ST & READING ROAD","lat":41.624722,"lon":-77.028889,"yearBuilt":1824,"adt":1000,"lowestRating":4,"conditionCategory":"poor","structurallyDeficient":true,"materialName":"Masonry","designTypeName":"Arch - Deck","lengthFt":3.5},{"id":"VT-100111002301111","state":"VT","stateName":"Vermont","countyFips":"001","facilityCarried":"C3010","featuresIntersected":"MUDDY BRANCH","location":"0.4 MI TO JCT C3 TH 8","lat":44.059167,"lon":-73.869444,"yearBuilt":1824,"adt":10,"lowestRating":6,"conditionCategory":"fair","structurallyDeficient":false,"materialName":"Wood or Timber","designTypeName":"Truss - Thru","lengthFt":6.8},{"id":"VA-000000000011117","state":"VA","stateName":"Virginia","countyFips":"107","facilityCarried":"JOHN S. MOSBY HWY.","featuresIntersected":"LITTLE RIVER","location":"0.35 FR 631 & 0.06 TO 612","lat":39.825,"lon":-78.264167,"yearBuilt":1824,"adt":9058,"lowestRating":5,"conditionCategory":"fair","structurallyDeficient":false,"materialName":"Masonry","designTypeName":"Arch - Deck","lengthFt":10.8},{"id":"NJ-18B0301","state":"NJ","stateName":"New Jersey","countyFips":"035","facilityCarried":"ZION-WERTSVILLE RD","featuresIntersected":"ROCK BROOK","location":"0.1 MI NO. Hollow Road","lat":41.07,"lon":-75.343056,"yearBuilt":1825,"adt":903,"lowestRating":6,"conditionCategory":"fair","structurallyDeficient":false,"materialName":"Concrete","designTypeName":"Slab","lengthFt":4.1},{"id":"NY-000000003363560","state":"NY","stateName":"New York","countyFips":"039","facilityCarried":"COUNTY ROAD 23B","featuresIntersected":"CATSKILL CREEK","location":"HAMLET OF LEEDS","lat":42.849167,"lon":-74.344167,"yearBuilt":1825,"adt":3422,"lowestRating":5,"conditionCategory":"fair","structurallyDeficient":false,"materialName":"Concrete","designTypeName":"Arch - Deck","lengthFt":23.9},{"id":"PA-000000000017570","state":"PA","stateName":"Pennsylvania","countyFips":"055","facilityCarried":"Fannettsburg Road","featuresIntersected":"W.BR.CONOCOCHEAGUE CREEK","location":"0.35 MI SE OF SR533","lat":41.155556,"lon":-79.438056,"yearBuilt":1825,"adt":559,"lowestRating":5,"conditionCategory":"fair","structurallyDeficient":false,"materialName":"Masonry","designTypeName":"Arch - Deck","lengthFt":10.0},{"id":"PA-000000000017571","state":"PA","stateName":"Pennsylvania","countyFips":"055","facilityCarried":"SR  4004","featuresIntersected":"CONODOGUINET CREEK","location":"4.0 MI.W.UPPER STRASBUR","lat":41.665,"lon":-78.931111,"yearBuilt":1825,"adt":559,"lowestRating":4,"conditionCategory":"poor","structurallyDeficient":true,"materialName":"Masonry","designTypeName":"Arch - Deck","lengthFt":6.1},{"id":"PA-000000000017685","state":"PA","stateName":"Pennsylvania","countyFips":"055","facilityCarried":"HILL ROAD","featuresIntersected":"CONOCOCHEAGUE CREEK W.BR","location":"1.05 MI NE OF SR75","lat":41.461667,"lon":-78.236667,"yearBuilt":1825,"adt":250,"lowestRating":5,"conditionCategory":"fair","structurallyDeficient":false,"materialName":"Masonry","designTypeName":"Arch - Deck","lengthFt":6.8},{"id":"MA-D040203J5MUNNBI","state":"MA","stateName":"Massachusetts","countyFips":"005","facilityCarried":"HWY   RUSSELLS MIL","featuresIntersected":"WATER PASKAMANSETT RIVER","location":".75 M W OF TUCKER RD","lat":41.821111,"lon":-71.663333,"yearBuilt":1826,"adt":4500,"lowestRating":5,"conditionCategory":"fair","structurallyDeficient":false,"materialName":"Masonry","designTypeName":"Arch - Deck","lengthFt":2.9},{"id":"PA-000000000007481","state":"PA","stateName":"Pennsylvania","countyFips":"017","facilityCarried":"OLD EASTON ROAD","featuresIntersected":"NOCKAMIXON CREEK","location":"AHLERS BRIDGE    2584-A2","lat":40.719722,"lon":-76.71,"yearBuilt":1826,"adt":100,"lowestRating":5,"conditionCategory":"fair","structurallyDeficient":false,"materialName":"Masonry","designTypeName":"Arch - Deck","lengthFt":4.0},{"id":"PA-000000000010536","state":"PA","stateName":"Pennsylvania","countyFips":"029","facilityCarried":"STRASBURG ROAD","featuresIntersected":"W.BR.BRANDYWINE CREEK","location":"MORTONVILLE 29F12/3580F09","lat":41.231667,"lon":-76.951111,"yearBuilt":1826,"adt":3800,"lowestRating":6,"conditionCategory":"fair","structurallyDeficient":false,"materialName":"Masonry","designTypeName":"Arch - Deck","lengthFt":22.0},{"id":"PA-000000000028828","state":"PA","stateName":"Pennsylvania","countyFips":"095","facilityCarried":"CEDAR DRIVE","featuresIntersected":"INDIAN CREEK","location":"AT SR 4003","lat":42.410556,"lon":-76.591111,"yearBuilt":1826,"adt":100,"lowestRating":4,"conditionCategory":"poor","structurallyDeficient":true,"materialName":"Masonry","designTypeName":"Arch - Deck","lengthFt":5.5},{"id":"PA-000000000003893","state":"PA","stateName":"Pennsylvania","countyFips":"007","facilityCarried":"MERCHANT ST","featuresIntersected":"BIG SEWICKLEY CREEK","location":"402001 AMBR-LEETSDALELINE","lat":41.864444,"lon":-80.627222,"yearBuilt":1827,"adt":2000,"lowestRating":5,"conditionCategory":"fair","structurallyDeficient":false,"materialName":"Masonry","designTypeName":"Arch - Deck","lengthFt":3.7},{"id":"PA-000000000017609","state":"PA","stateName":"Pennsylvania","countyFips":"055","facilityCarried":"SR 4018 McClays Ml","featuresIntersected":"TRIB CONODOGUINET  CR","location":"1.5 MI SE OF MOWERSVILLE","lat":41.440278,"lon":-77.9825,"yearBuilt":1827,"adt":702,"lowestRating":5,"conditionCategory":"fair","structurallyDeficient":false,"materialName":"Masonry","designTypeName":"Arch - Deck","lengthFt":4.5},{"id":"PA-000000000017610","state":"PA","stateName":"Pennsylvania","countyFips":"055","facilityCarried":"SR 4018","featuresIntersected":"CONODOGUINET CREEK","location":"2 MI. S.E. OF MOWERSVILLE","lat":41.455,"lon":-77.943611,"yearBuilt":1827,"adt":877,"lowestRating":6,"conditionCategory":"fair","structurallyDeficient":false,"materialName":"Masonry","designTypeName":"Arch - Deck","lengthFt":10.2},{"id":"OH-3030970","state":"OH","stateName":"Ohio","countyFips":"059","facilityCarried":"TR 75 REINHART RD","featuresIntersected":"SALT FORK (S BRIDGE)","location":"0.1 MI N US 40","lat":41.216944,"lon":-82.096111,"yearBuilt":1828,"adt":50,"lowestRating":3,"conditionCategory":"poor","structurallyDeficient":true,"materialName":"Masonry","designTypeName":"Arch - Deck","lengthFt":5.5},{"id":"PA-000000000017743","state":"PA","stateName":"Pennsylvania","countyFips":"055","facilityCarried":"WEST KING STREET","featuresIntersected":"CONOCOCHEAGUE CREEK","location":"750 FT N OF US 30","lat":40.5325,"lon":-78.9275,"yearBuilt":1828,"adt":3700,"lowestRating":5,"conditionCategory":"fair","structurallyDeficient":false,"materialName":"Masonry","designTypeName":"Arch - Deck","lengthFt":5.9},{"id":"PA-000000000023499","state":"PA","stateName":"Pennsylvania","countyFips":"077","facilityCarried":"LEHIGH PARKWAY E.","featuresIntersected":"LITTLE LEHIGH CREEK","location":"SCHREIBERS BRIDGE","lat":41.229722,"lon":-75.97,"yearBuilt":1828,"adt":1000,"lowestRating":4,"conditionCategory":"poor","structurallyDeficient":true,"materialName":"Masonry","designTypeName":"Arch - Deck","lengthFt":7.7},{"id":"PA-000000000027596","state":"PA","stateName":"Pennsylvania","countyFips":"091","facilityCarried":"BYBERRY ROAD 25J13","featuresIntersected":"SOUTHAMPTON CREEK","location":"BRYN ATHYN   3259H05","lat":41.030833,"lon":-75.858333,"yearBuilt":1828,"adt":13179,"lowestRating":6,"conditionCategory":"fair","structurallyDeficient":false,"materialName":"Masonry","designTypeName":"Arch - Deck","lengthFt":2.8},{"id":"MD-100000210036010","state":"MD","stateName":"Maryland","countyFips":"043","facilityCarried":"MD 68","featuresIntersected":"CONOCOCHEAGUE CREEK","location":"0.20 MILE WEST OF US 11","lat":39.93,"lon":-78.368056,"yearBuilt":1829,"adt":4532,"lowestRating":5,"conditionCategory":"fair","structurallyDeficient":false,"materialName":"Masonry","designTypeName":"Arch - Deck","lengthFt":16.7},{"id":"MD-200000W-0821010","state":"MD","stateName":"Maryland","countyFips":"043","facilityCarried":"BROADFORDING ROAD","featuresIntersected":"CONOCOCHEAGUE CREEK","location":"0.7 MI W OF MD RTE 63","lat":39.973056,"lon":-77.921667,"yearBuilt":1829,"adt":265,"lowestRating":7,"conditionCategory":"good","structurallyDeficient":false,"materialName":"Masonry","designTypeName":"Arch - Deck","lengthFt":15.9},{"id":"MD-200000W-2384010","state":"MD","stateName":"Maryland","countyFips":"043","facilityCarried":"UNGER ROAD","featuresIntersected":"GROVE CREEK","location":"0.5 MI SW OF LEIT SMITH R","lat":39.829722,"lon":-78.278056,"yearBuilt":1830,"adt":194,"lowestRating":6,"conditionCategory":"fair","structurallyDeficient":false,"materialName":"Concrete","designTypeName":"Slab","lengthFt":2.2},{"id":"MD-200000W-5651010","state":"MD","stateName":"Maryland","countyFips":"043","facilityCarried":"KEEDYSVILLE ROAD","featuresIntersected":"ANTIETAM CREEK","location":"0.8 MI NW OF MD RTE 34","lat":39.947222,"lon":-79.103889,"yearBuilt":1830,"adt":1173,"lowestRating":5,"conditionCategory":"fair","structurallyDeficient":false,"materialName":"Masonry","designTypeName":"Arch - Deck","lengthFt":10.5},{"id":"OH-6039154","state":"OH","stateName":"Ohio","countyFips":"119","facilityCarried":"NORTH PIKE","featuresIntersected":"VALLEY RUN","location":".19 MI W OF POPLAR FORKS","lat":41.501111,"lon":-83.266111,"yearBuilt":1830,"adt":209,"lowestRating":4,"conditionCategory":"poor","structurallyDeficient":true,"materialName":"Masonry","designTypeName":"Arch - Deck","lengthFt":3.5},{"id":"PA-000000000007728","state":"PA","stateName":"Pennsylvania","countyFips":"017","facilityCarried":"WATERWORKS APT RD","featuresIntersected":"DELAWARE CANAL","location":"AT SR 32 INTERSECT","lat":40.52,"lon":-76.43,"yearBuilt":1830,"adt":null,"lowestRating":1,"conditionCategory":"poor","structurallyDeficient":true,"materialName":"Steel","designTypeName":"Girder and Floorbeam","lengthFt":5.1},{"id":"PA-000000000027795","state":"PA","stateName":"Pennsylvania","countyFips":"091","facilityCarried":"COLLEGEVILLE ROAD","featuresIntersected":"BRANCH SKIPPACK CREEK","location":"1MI.S.OF PA 73   3142C07","lat":40.781389,"lon":-76.821111,"yearBuilt":1830,"adt":2705,"lowestRating":4,"conditionCategory":"poor","structurallyDeficient":true,"materialName":"Masonry","designTypeName":"Arch - Deck","lengthFt":2.4},{"id":"PA-000000000029329","state":"PA","stateName":"Pennsylvania","countyFips":"097","facilityCarried":"RISHEL COV. BRDG.","featuresIntersected":"CHILLISQUAQUE CREEK","location":"T-573 (Snyder Road)","lat":41.962778,"lon":-78.385556,"yearBuilt":1830,"adt":100,"lowestRating":6,"conditionCategory":"fair","structurallyDeficient":false,"materialName":"Wood or Timber","designTypeName":"Truss - Thru","lengthFt":11.0},{"id":"DC-0002","state":"DC","stateName":"District of Columbia","countyFips":"001","facilityCarried":"WISCONSIN AVENUE","featuresIntersected":"C&O CANAL","location":"GEORGETOWN & C&O","lat":39.331111,"lon":-78.325556,"yearBuilt":1831,"adt":800,"lowestRating":6,"conditionCategory":"fair","structurallyDeficient":false,"materialName":"Masonry","designTypeName":"Arch - Deck","lengthFt":6.0},{"id":"MA-L1504787HMUNNBI","state":"MA","stateName":"Massachusetts","countyFips":"017","facilityCarried":"HWY   MERRIMACK ST","featuresIntersected":"WATER WESTERN CANAL","location":"AT SUFFOLK ST","lat":44.040556,"lon":-71.368611,"yearBuilt":1831,"adt":17900,"lowestRating":5,"conditionCategory":"fair","structurallyDeficient":false,"materialName":"Steel","designTypeName":"Stringer/Multi-beam or Girder","lengthFt":2.6},{"id":"OH-7830165","state":"OH","stateName":"Ohio","countyFips":"155","facilityCarried":"ARLINGTON BLVD","featuresIntersected":"MAHONING RIVER E BRANCH","location":"200 FT WEST OF MILTON","lat":41.655,"lon":-81.456944,"yearBuilt":1831,"adt":2000,"lowestRating":3,"conditionCategory":"poor","structurallyDeficient":true,"materialName":"Wood or Timber","designTypeName":"Truss - Thru","lengthFt":12.1},{"id":"CT-01626","state":"CT","stateName":"Connecticut","countyFips":"003","facilityCarried":"MAIN STREET NO. 2","featuresIntersected":"SR 598 WHITEHEAD HIGHWAY","location":"0.08 MI W OF PROSPECT ST","lat":42.975,"lon":-73.446111,"yearBuilt":1832,"adt":12900,"lowestRating":5,"conditionCategory":"fair","structurallyDeficient":false,"materialName":"Masonry","designTypeName":"Arch - Deck","lengthFt":10.4},{"id":"MD-200000W-5731010","state":"MD","stateName":"Maryland","countyFips":"043","facilityCarried":"HARPERS FERRY ROAD","featuresIntersected":"ANTIETAM CREEK","location":"ANTIETAM MD","lat":39.4725,"lon":-78.610833,"yearBuilt":1832,"adt":720,"lowestRating":6,"conditionCategory":"fair","structurallyDeficient":false,"materialName":"Masonry","designTypeName":"Arch - Deck","lengthFt":15.1},{"id":"MD-200000W-6371010","state":"MD","stateName":"Maryland","countyFips":"043","facilityCarried":"COFFMAN FARMS RD","featuresIntersected":"LITTLE ANTIETAM CREEK","location":"0.1 MI E OF MD RTE 34","lat":41.563889,"lon":-78.547778,"yearBuilt":1832,"adt":362,"lowestRating":7,"conditionCategory":"good","structurallyDeficient":false,"materialName":"Masonry","designTypeName":"Arch - Deck","lengthFt":5.4},{"id":"NH-001801370009500","state":"NH","stateName":"New Hampshire","countyFips":"009","facilityCarried":"WEST BATH ROAD","featuresIntersected":"AMMONOOSUC R NHRR(ABD)","location":"0.1 MI NH 10","lat":44.184722,"lon":-72.021944,"yearBuilt":1832,"adt":90,"lowestRating":5,"conditionCategory":"fair","structurallyDeficient":false,"materialName":"Wood or Timber","designTypeName":"Truss - Thru","lengthFt":37.5},{"id":"NH-025100930012400","state":"NH","stateName":"New Hampshire","countyFips":"005","facilityCarried":"MAIN STREET","featuresIntersected":"ASHUELOT RIVER","location":"340 FT FROM WINCHESTER S","lat":43.390278,"lon":-73.438611,"yearBuilt":1832,"adt":2159,"lowestRating":6,"conditionCategory":"fair","structurallyDeficient":false,"materialName":"Wood or Timber","designTypeName":"Truss - Thru","lengthFt":15.2},{"id":"NJ-1110152","state":"NJ","stateName":"New Jersey","countyFips":"021","facilityCarried":"NJ 29","featuresIntersected":"JACOBS CREEK","location":"1.37 MI N OF I-295 JCT","lat":41.428889,"lon":-75.193056,"yearBuilt":1832,"adt":13585,"lowestRating":5,"conditionCategory":"fair","structurallyDeficient":false,"materialName":"Masonry","designTypeName":"Culvert","lengthFt":2.5},{"id":"PA-000000000007718","state":"PA","stateName":"Pennsylvania","countyFips":"017","facilityCarried":"MT. EYRE ROAD","featuresIntersected":"DELAWARE CANAL","location":"50 FT EAST OF SR 2071","lat":40.49,"lon":-75.879722,"yearBuilt":1832,"adt":660,"lowestRating":6,"conditionCategory":"fair","structurallyDeficient":false,"materialName":"Prestressed Concrete","designTypeName":"Box Beam - Multiple","lengthFt":5.2},{"id":"PA-000000000007719","state":"PA","stateName":"Pennsylvania","countyFips":"017","facilityCarried":"MILK HOUSE DRIVE","featuresIntersected":"DELAWARE CANAL","location":"BETWEEN PA 32 AND SR 2071","lat":40.839722,"lon":-76.019722,"yearBuilt":1832,"adt":10,"lowestRating":5,"conditionCategory":"fair","structurallyDeficient":false,"materialName":"Wood or Timber","designTypeName":"Truss - Thru","lengthFt":5.0},{"id":"PA-000000000007722","state":"PA","stateName":"Pennsylvania","countyFips":"017","facilityCarried":"TEBOLA BEANS BRIDG","featuresIntersected":"DELAWARE CANAL","location":"SE OF TAYLORSVILLE","lat":40.389722,"lon":-75.25,"yearBuilt":1832,"adt":40,"lowestRating":0,"conditionCategory":"poor","structurallyDeficient":true,"materialName":"Steel","designTypeName":"Stringer/Multi-beam or Girder","lengthFt":4.7},{"id":"PA-000000000007725","state":"PA","stateName":"Pennsylvania","countyFips":"017","facilityCarried":"TOWPATH ACCESS","featuresIntersected":"DELAWARE CANAL","location":"NW OF BROWNSBURG","lat":41.19,"lon":-75.77,"yearBuilt":1832,"adt":4,"lowestRating":4,"conditionCategory":"poor","structurallyDeficient":true,"materialName":"Prestressed Concrete","designTypeName":"Box Beam - Multiple","lengthFt":4.9},{"id":"PA-000000000007727","state":"PA","stateName":"Pennsylvania","countyFips":"017","facilityCarried":"UNION MILL DRIVE","featuresIntersected":"DELAWARE CANAL","location":"AT SR 32 INTERSECT","lat":40.429722,"lon":-76.419722,"yearBuilt":1832,"adt":60,"lowestRating":5,"conditionCategory":"fair","structurallyDeficient":false,"materialName":"Prestressed Concrete","designTypeName":"Box Beam - Multiple","lengthFt":5.8},{"id":"PA-000000000007732","state":"PA","stateName":"Pennsylvania","countyFips":"017","facilityCarried":"MECHANIC STREET","featuresIntersected":"DELAWARE CANAL","location":"500 FT WEST OF SR 32","lat":41.558333,"lon":-75.116667,"yearBuilt":1832,"adt":380,"lowestRating":4,"conditionCategory":"poor","structurallyDeficient":true,"materialName":"Prestressed Concrete","designTypeName":"Box Beam - Multiple","lengthFt":6.4},{"id":"PA-000000000007737","state":"PA","stateName":"Pennsylvania","countyFips":"017","facilityCarried":"UPPER LIMEPORT RD.","featuresIntersected":"DELAWARE CANAL","location":"50 FT EAST OF SR 32","lat":41.789722,"lon":-75.66,"yearBuilt":1832,"adt":15,"lowestRating":6,"conditionCategory":"fair","structurallyDeficient":false,"materialName":"Prestressed Concrete","designTypeName":"Box Beam - Multiple","lengthFt":5.0},{"id":"PA-000000000007741","state":"PA","stateName":"Pennsylvania","countyFips":"017","facilityCarried":"PT PLEASANT BRIDGE","featuresIntersected":"DELAWARE CANAL","location":"300 FT EAST OF SR 32","lat":40.929722,"lon":-76.509722,"yearBuilt":1832,"adt":20,"lowestRating":4,"conditionCategory":"poor","structurallyDeficient":true,"materialName":"Prestressed Concrete","designTypeName":"Box Beam - Multiple","lengthFt":5.9},{"id":"PA-000000000007744","state":"PA","stateName":"Pennsylvania","countyFips":"017","facilityCarried":"BRIDGE THREE LANE","featuresIntersected":"DELAWARE CANAL","location":"SOUTH OF SMITHTOWN","lat":41.15,"lon":-75.799722,"yearBuilt":1832,"adt":10,"lowestRating":3,"conditionCategory":"poor","structurallyDeficient":true,"materialName":"Prestressed Concrete","designTypeName":"Box Beam - Multiple","lengthFt":3.2},{"id":"PA-000000000007745","state":"PA","stateName":"Pennsylvania","countyFips":"017","facilityCarried":"BRIDGE FOUR LANE","featuresIntersected":"DELAWARE CANAL","location":"200 FT EAST OF SR 32","lat":41.679722,"lon":-75.619444,"yearBuilt":1832,"adt":50,"lowestRating":4,"conditionCategory":"poor","structurallyDeficient":true,"materialName":"Prestressed Concrete","designTypeName":"Box Beam - Multiple","lengthFt":4.8},{"id":"PA-000000000007746","state":"PA","stateName":"Pennsylvania","countyFips":"017","facilityCarried":"BRIDGE FIVE LANE","featuresIntersected":"DELAWARE CANAL","location":"25 FT EAST OF SR 32","lat":40.47,"lon":-75.44,"yearBuilt":1832,"adt":10,"lowestRating":7,"conditionCategory":"good","structurallyDeficient":false,"materialName":"Prestressed Concrete","designTypeName":"Box Beam - Multiple","lengthFt":4.7},{"id":"PA-000000000007754","state":"PA","stateName":"Pennsylvania","countyFips":"017","facilityCarried":"CANAL LANE","featuresIntersected":"DELAWARE CANAL","location":"450 FT SW OF SR 32","lat":41.87,"lon":-76.74,"yearBuilt":1832,"adt":25,"lowestRating":3,"conditionCategory":"poor","structurallyDeficient":true,"materialName":"Prestressed Concrete","designTypeName":"Box Beam - Multiple","lengthFt":4.9},{"id":"PA-000000000007756","state":"PA","stateName":"Pennsylvania","countyFips":"017","facilityCarried":"GRAVEL PIT ROAD","featuresIntersected":"DELAWARE CANAL","location":"EAST OF NARROWSVILLE","lat":41.109722,"lon":-76.699722,"yearBuilt":1832,"adt":6,"lowestRating":4,"conditionCategory":"poor","structurallyDeficient":true,"materialName":"Steel","designTypeName":"Girder and Floorbeam","lengthFt":4.5},{"id":"PA-000000000007760","state":"PA","stateName":"Pennsylvania","countyFips":"017","facilityCarried":"ISLAND ROAD","featuresIntersected":"DELAWARE CANAL","location":"KINTNERSVILLE","lat":41.689722,"lon":-76.679722,"yearBuilt":1832,"adt":30,"lowestRating":4,"conditionCategory":"poor","structurallyDeficient":true,"materialName":"Prestressed Concrete","designTypeName":"Box Beam - Multiple","lengthFt":5.4},{"id":"PA-000000000007762","state":"PA","stateName":"Pennsylvania","countyFips":"017","facilityCarried":"ISLAND ROAD","featuresIntersected":"DELAWARE CANAL","location":"NW OF KINTNERSVILLE","lat":40.589722,"lon":-75.727778,"yearBuilt":1832,"adt":60,"lowestRating":4,"conditionCategory":"poor","structurallyDeficient":true,"materialName":"Prestressed Concrete","designTypeName":"Box Beam - Multiple","lengthFt":5.3},{"id":"PA-000000000028942","state":"PA","stateName":"Pennsylvania","countyFips":"095","facilityCarried":"CANAL ROAD","featuresIntersected":"DELAWARE CANAL","location":"SOUTH OF RAUBSVILLE","lat":41.685278,"lon":-75.957778,"yearBuilt":1832,"adt":200,"lowestRating":3,"conditionCategory":"poor","structurallyDeficient":true,"materialName":"Prestressed Concrete","designTypeName":"Box Beam - Multiple","lengthFt":2.7},{"id":"PA-000000000047971","state":"PA","stateName":"Pennsylvania","countyFips":"011","facilityCarried":"RIVER ROAD","featuresIntersected":"LAUREL RUN","location":"OUT. TO SCHUYLKILL RIVER","lat":41.688333,"lon":-77.592778,"yearBuilt":1832,"adt":500,"lowestRating":2,"conditionCategory":"poor","structurallyDeficient":true,"materialName":"Masonry","designTypeName":"Culvert","lengthFt":2.4},{"id":"PA-000000000054560","state":"PA","stateName":"Pennsylvania","countyFips":"017","facilityCarried":"Lower Limeport Rd","featuresIntersected":"Delaware Canal","location":"2.5 MI. N OF NEW HOPE","lat":41.393889,"lon":-75.076111,"yearBuilt":1832,"adt":20,"lowestRating":7,"conditionCategory":"good","structurallyDeficient":false,"materialName":"Prestressed Concrete","designTypeName":"Box Beam - Multiple","lengthFt":5.1},{"id":"MD-100000210038010","state":"MD","stateName":"Maryland","countyFips":"043","facilityCarried":"MD 68","featuresIntersected":"ANTIETAM CREEK","location":"1.9 MILES EAST OF MD 65","lat":39.959444,"lon":-78.715278,"yearBuilt":1833,"adt":2592,"lowestRating":6,"conditionCategory":"fair","structurallyDeficient":false,"materialName":"Masonry","designTypeName":"Arch - Deck","lengthFt":13.3},{"id":"MD-200000W-4001010","state":"MD","stateName":"Maryland","countyFips":"043","facilityCarried":"EAST OAK RIDGE DRI","featuresIntersected":"ANTIETAM CREEK","location":"0.09 MI W OF ALT US RT 40","lat":40.672222,"lon":-78.908333,"yearBuilt":1833,"adt":12292,"lowestRating":7,"conditionCategory":"good","structurallyDeficient":false,"materialName":"Masonry","designTypeName":"Arch - Deck","lengthFt":10.9},{"id":"MA-H030032PJMUNNBI","state":"MA","stateName":"Massachusetts","countyFips":"009","facilityCarried":"HWY   HIGHLAND ST","featuresIntersected":"WATER IPSWICH RIVER","location":"AT IPSWICH LINE","lat":43.480278,"lon":-72.044722,"yearBuilt":1833,"adt":4100,"lowestRating":5,"conditionCategory":"fair","structurallyDeficient":false,"materialName":"Masonry","designTypeName":"Arch - Deck","lengthFt":10.5},{"id":"MA-L150332BWMUNNBI","state":"MA","stateName":"Massachusetts","countyFips":"017","facilityCarried":"HWY   BROADWAY","featuresIntersected":"WATER WESTERN CANAL","location":"AT LEWIS & SUFFOLK STS.","lat":43.742778,"lon":-71.348056,"yearBuilt":1833,"adt":6600,"lowestRating":5,"conditionCategory":"fair","structurallyDeficient":false,"materialName":"Masonry","designTypeName":"Arch - Deck","lengthFt":3.6},{"id":"VT-101216000412161","state":"VT","stateName":"Vermont","countyFips":"023","facilityCarried":"C2001","featuresIntersected":"MAD RIVER","location":"0.08 MI TO JCT W VT100","lat":44.786667,"lon":-73.500278,"yearBuilt":1833,"adt":1900,"lowestRating":6,"conditionCategory":"fair","structurallyDeficient":false,"materialName":"Wood or Timber","designTypeName":"Arch - Thru","lengthFt":11.1},{"id":"NJ-100E171","state":"NJ","stateName":"New Jersey","countyFips":"019","facilityCarried":"CR 602","featuresIntersected":"TRIBUTARY OF BACK BROOK","location":"1.74 MI EAST OF NJ 31","lat":41.578056,"lon":-76.223889,"yearBuilt":1834,"adt":1850,"lowestRating":5,"conditionCategory":"fair","structurallyDeficient":false,"materialName":"Steel","designTypeName":"Truss - Thru","lengthFt":4.4},{"id":"NJ-18G0403","state":"NJ","stateName":"New Jersey","countyFips":"035","facilityCarried":"CANAL ROAD","featuresIntersected":"SIX MILE RUN","location":"0.2 MI SO BLACKWELLS MILL","lat":41.088056,"lon":-75.008889,"yearBuilt":1834,"adt":3641,"lowestRating":5,"conditionCategory":"fair","structurallyDeficient":false,"materialName":"Masonry","designTypeName":"Culvert","lengthFt":4.2},{"id":"PA-000000000023462","state":"PA","stateName":"Pennsylvania","countyFips":"077","facilityCarried":"SPRINGHOUSE ROAD","featuresIntersected":"ONTELAUNEE CREEK","location":"MOSSERVILLE","lat":41.791667,"lon":-77.106944,"yearBuilt":1834,"adt":100,"lowestRating":4,"conditionCategory":"poor","structurallyDeficient":true,"materialName":"Masonry","designTypeName":"Arch - Deck","lengthFt":2.8},{"id":"KY-081B00048N","state":"KY","stateName":"Kentucky","countyFips":"161","facilityCarried":"KY-3113","featuresIntersected":"LEE CREEK","location":".10 MI SOU. OF JCT KY 8","lat":38.777778,"lon":-85.088889,"yearBuilt":1835,"adt":9,"lowestRating":1,"conditionCategory":"poor","structurallyDeficient":true,"materialName":"Steel","designTypeName":"Girder and Floorbeam","lengthFt":6.1},{"id":"MA-L1503587GMUNNBI","state":"MA","stateName":"Massachusetts","countyFips":"017","facilityCarried":"HWY   CENTRAL ST","featuresIntersected":"WATER LWR PAWTUCKET CNL","location":"SOUTH OF MARKET ST","lat":43.681944,"lon":-72.141667,"yearBuilt":1835,"adt":12184,"lowestRating":7,"conditionCategory":"good","structurallyDeficient":false,"materialName":"Steel","designTypeName":"Stringer/Multi-beam or Girder","lengthFt":9.0},{"id":"MA-L1503887NMUNNBI","state":"MA","stateName":"Massachusetts","countyFips":"017","facilityCarried":"HWY   KEARNEY SQ","featuresIntersected":"WATER EASTERN CANAL","location":"MERRIMACK & E.MERRIMACK","lat":43.824167,"lon":-71.980556,"yearBuilt":1835,"adt":15000,"lowestRating":6,"conditionCategory":"fair","structurallyDeficient":false,"materialName":"Steel Continuous","designTypeName":"Stringer/Multi-beam or Girder","lengthFt":6.5},{"id":"OH-6333230","state":"OH","stateName":"Ohio","countyFips":"125","facilityCarried":"TOWNSHIP ROAD 153","featuresIntersected":"SIX MILE CREEK","location":"0.9 MI N OF JCT SR111","lat":41.866944,"lon":-85.283056,"yearBuilt":1835,"adt":324,"lowestRating":6,"conditionCategory":"fair","structurallyDeficient":false,"materialName":"Masonry","designTypeName":"Culvert","lengthFt":2.8},{"id":"VA-000000000012464","state":"VA","stateName":"Virginia","countyFips":"125","facilityCarried":"Buffalo Station Dr","featuresIntersected":"Owens Creek","location":"0.20-Rt 626 / 3.25-Rt.607","lat":37.753333,"lon":-79.510833,"yearBuilt":1835,"adt":44,"lowestRating":5,"conditionCategory":"fair","structurallyDeficient":false,"materialName":"Masonry","designTypeName":"Arch - Deck","lengthFt":3.8},{"id":"MD-200000W-H-31010","state":"MD","stateName":"Maryland","countyFips":"043","facilityCarried":"PROSPECT STREET","featuresIntersected":"ANTIETAM STREET","location":"1000 FT W OF US RTE 40 E","lat":40.570556,"lon":-78.58,"yearBuilt":1836,"adt":2730,"lowestRating":5,"conditionCategory":"fair","structurallyDeficient":false,"materialName":"Steel","designTypeName":"Stringer/Multi-beam or Girder","lengthFt":3.1},{"id":"VT-100911002709111","state":"VT","stateName":"Vermont","countyFips":"017","facilityCarried":"C2006","featuresIntersected":"OMPOMPANOOSUC RIVER","location":"0.2 MI TO JCT W VT113","lat":45.358056,"lon":-72.529167,"yearBuilt":1836,"adt":1250,"lowestRating":6,"conditionCategory":"fair","structurallyDeficient":false,"materialName":"Steel Continuous","designTypeName":"Stringer/Multi-beam or Girder","lengthFt":12.5},{"id":"VT-101105002811051","state":"VT","stateName":"Vermont","countyFips":"021","facilityCarried":"C3039","featuresIntersected":"MILL RIVER","location":"0.05 MI TO JCT W C3 TH25","lat":44.229167,"lon":-73.706389,"yearBuilt":1836,"adt":500,"lowestRating":5,"conditionCategory":"fair","structurallyDeficient":false,"materialName":"Wood or Timber","designTypeName":"Truss - Thru","lengthFt":11.9},{"id":"VT-101424004514241","state":"VT","stateName":"Vermont","countyFips":"027","facilityCarried":"C2002","featuresIntersected":"OTTAUQUECHEE RIVER","location":"0.03 MI TO JCT W US 4","lat":45.032222,"lon":-72.591111,"yearBuilt":1836,"adt":1500,"lowestRating":6,"conditionCategory":"fair","structurallyDeficient":false,"materialName":"Wood or Timber","designTypeName":"Arch - Thru","lengthFt":19.8},{"id":"NH-027901430017500","state":"NH","stateName":"New Hampshire","countyFips":"005","facilityCarried":"COOMBS BRIDGE RD","featuresIntersected":"ASHUELOT RIVER","location":"0.27MI. NH119","lat":43.294722,"lon":-73.438056,"yearBuilt":1837,"adt":609,"lowestRating":6,"conditionCategory":"fair","structurallyDeficient":false,"materialName":"Wood or Timber","designTypeName":"Truss - Thru","lengthFt":12.0},{"id":"NJ-1000022","state":"NJ","stateName":"New Jersey","countyFips":"019","facilityCarried":"COUNTY ROUTE 579","featuresIntersected":"TRIB. 3RD NESHANIC RIVER","location":"0.4 MI N OF TOAD LANE","lat":41.786111,"lon":-75.6,"yearBuilt":1837,"adt":5146,"lowestRating":5,"conditionCategory":"fair","structurallyDeficient":false,"materialName":"Masonry","designTypeName":"Arch - Deck","lengthFt":4.5},{"id":"PA-000000000010717","state":"PA","stateName":"Pennsylvania","countyFips":"029","facilityCarried":"COVENTRYVILLE ROAD","featuresIntersected":"FRENCH CREEK","location":"SOUTH COVENTRY TWP.05J11","lat":40.630556,"lon":-76.372778,"yearBuilt":1837,"adt":1662,"lowestRating":5,"conditionCategory":"fair","structurallyDeficient":false,"materialName":"Steel","designTypeName":"Stringer/Multi-beam or Girder","lengthFt":6.8},{"id":"PA-000000000016420","state":"PA","stateName":"Pennsylvania","countyFips":"049","facilityCarried":"T-400 GUDGEONVILLE","featuresIntersected":"ELK CREEK","location":"3/4 MI S OF BECKMAN RD","lat":43.540833,"lon":-80.2775,"yearBuilt":1837,"adt":205,"lowestRating":4,"conditionCategory":"poor","structurallyDeficient":true,"materialName":"Steel","designTypeName":"Stringer/Multi-beam or Girder","lengthFt":8.4},{"id":"IN-060310","state":"IN","stateName":"Indiana","countyFips":"013","facilityCarried":"PARK ROAD","featuresIntersected":"NORTH FORK SALT CREEK","location":"00.00 BROWN CO STATE PARK","lat":40.424722,"lon":-87.848889,"yearBuilt":1838,"adt":400,"lowestRating":5,"conditionCategory":"fair","structurallyDeficient":false,"materialName":"Wood or Timber","designTypeName":"Truss - Thru","lengthFt":11.0},{"id":"PA-000000000027322","state":"PA","stateName":"Pennsylvania","countyFips":"091","facilityCarried":"LIMEKILN PIKE","featuresIntersected":"LITTLE NESHAMINY CREEK","location":"EUREKA     3145K02","lat":40.6775,"lon":-75.981667,"yearBuilt":1838,"adt":8253,"lowestRating":7,"conditionCategory":"good","structurallyDeficient":false,"materialName":"Masonry","designTypeName":"Arch - Deck","lengthFt":4.3},{"id":"VT-101102001211021","state":"VT","stateName":"Vermont","countyFips":"021","facilityCarried":"C2004","featuresIntersected":"OTTER CREEK","location":"0.25 MI TO JCT W C3 TH40","lat":44.4075,"lon":-74.266389,"yearBuilt":1838,"adt":600,"lowestRating":7,"conditionCategory":"good","structurallyDeficient":false,"materialName":"Wood or Timber","designTypeName":"Truss - Thru","lengthFt":12.1},{"id":"DE-1009 221","state":"DE","stateName":"Delaware","countyFips":"003","facilityCarried":"SMITH BRIDGE RD","featuresIntersected":"BRANDYWINE CREEK","location":"N. OF BRANDYWINE CREEK SP","lat":40.273333,"lon":-76.810278,"yearBuilt":1839,"adt":3224,"lowestRating":6,"conditionCategory":"fair","structurallyDeficient":false,"materialName":"Steel Continuous","designTypeName":"Stringer/Multi-beam or Girder","lengthFt":14.3},{"id":"MD-200000W-2292010","state":"MD","stateName":"Maryland","countyFips":"043","facilityCarried":"LEITERS MILL ROAD","featuresIntersected":"ANTIETAM CREEK","location":"0.2 MI N OF MD RTE 60","lat":40.99,"lon":-78.520556,"yearBuilt":1839,"adt":1470,"lowestRating":7,"conditionCategory":"good","structurallyDeficient":false,"materialName":"Masonry","designTypeName":"Arch - Deck","lengthFt":5.6},{"id":"MD-200000W-4021010","state":"MD","stateName":"Maryland","countyFips":"043","facilityCarried":"GARIS SHOP ROAD","featuresIntersected":"ANTIETAM CREEK","location":"0.64 M SW OF ALT US RT 40","lat":40.074444,"lon":-78.406944,"yearBuilt":1839,"adt":1698,"lowestRating":7,"conditionCategory":"good","structurallyDeficient":false,"materialName":"Masonry","designTypeName":"Arch - Deck","lengthFt":13.2},{"id":"PA-000000000016958","state":"PA","stateName":"Pennsylvania","countyFips":"051","facilityCarried":"SR 4003","featuresIntersected":"DUNLAP CREEK","location":"BROWNSVILLE BOROUGH","lat":40.502778,"lon":-80.3475,"yearBuilt":1839,"adt":6197,"lowestRating":4,"conditionCategory":"poor","structurallyDeficient":true,"materialName":"Aluminum/Wrought Iron/Cast Iron","designTypeName":"Arch - Deck","lengthFt":8.4},{"id":"PA-000000000028855","state":"PA","stateName":"Pennsylvania","countyFips":"095","facilityCarried":"GLAZE ROAD","featuresIntersected":"HOKENDAUQUA CREEK","location":"0.1 M. EAST OF SR 4007","lat":41.013056,"lon":-75.583056,"yearBuilt":1839,"adt":75,"lowestRating":7,"conditionCategory":"good","structurallyDeficient":false,"materialName":"Masonry","designTypeName":"Arch - Deck","lengthFt":7.9},{"id":"VA-000000000020519","state":"VA","stateName":"Virginia","countyFips":"680","facilityCarried":"Ninth Street","featuresIntersected":"Kanawha","location":"0003JEFF ST  0001DEAD END","lat":39.007778,"lon":-79.803056,"yearBuilt":1839,"adt":1300,"lowestRating":6,"conditionCategory":"fair","structurallyDeficient":false,"materialName":"Masonry","designTypeName":"Arch - Deck","lengthFt":4.8},{"id":"IN-0800119","state":"IN","stateName":"Indiana","countyFips":"015","facilityCarried":"TOWPATH Rd","featuresIntersected":"BURNETTS Creek","location":"00.29 E of CR 300 W","lat":40.944722,"lon":-86.825278,"yearBuilt":1840,"adt":288,"lowestRating":5,"conditionCategory":"fair","structurallyDeficient":false,"materialName":"Masonry","designTypeName":"Culvert","lengthFt":4.1},{"id":"MD-100000110008010","state":"MD","stateName":"Maryland","countyFips":"023","facilityCarried":"MD 733A","featuresIntersected":"SAVAGE RIVER","location":".01 MILE  WEST OF US 40AL","lat":41.233611,"lon":-80.439722,"yearBuilt":1840,"adt":4,"lowestRating":6,"conditionCategory":"fair","structurallyDeficient":false,"materialName":"Masonry","designTypeName":"Arch - Deck","lengthFt":2.5},{"id":"MD-200000W-4012010","state":"MD","stateName":"Maryland","countyFips":"043","facilityCarried":"POFFENBERGER ROAD","featuresIntersected":"ANTIETAM CREEK","location":"0.54 MI W OF ALT US RT 40","lat":40.755833,"lon":-78.711944,"yearBuilt":1840,"adt":1698,"lowestRating":7,"conditionCategory":"good","structurallyDeficient":false,"materialName":"Masonry","designTypeName":"Arch - Deck","lengthFt":12.0},{"id":"NH-026301570008700","state":"NH","stateName":"New Hampshire","countyFips":"013","facilityCarried":"NEW MARKET ROAD","featuresIntersected":"WARNER RIVER","location":"0.17 MI FROM NH RTE 103","lat":43.765,"lon":-72.463611,"yearBuilt":1840,"adt":420,"lowestRating":5,"conditionCategory":"fair","structurallyDeficient":false,"materialName":"Wood or Timber","designTypeName":"Truss - Thru","lengthFt":7.6},{"id":"NJ-100WE74","state":"NJ","stateName":"New Jersey","countyFips":"019","facilityCarried":"WOODSVILLE ROAD","featuresIntersected":"PETERS BROOK","location":"100 YARDS SW OF NJ 31","lat":41.295,"lon":-74.991944,"yearBuilt":1840,"adt":1262,"lowestRating":4,"conditionCategory":"poor","structurallyDeficient":true,"materialName":"Masonry","designTypeName":"Arch - Deck","lengthFt":4.0},{"id":"NJ-1400976","state":"NJ","stateName":"New Jersey","countyFips":"027","facilityCarried":"E.MAIN ST(CR 644)","featuresIntersected":"ROCKAWAY RIVER","location":"0.16 MI E. OF CR 513 JCT","lat":42.546944,"lon":-75.641944,"yearBuilt":1840,"adt":7737,"lowestRating":4,"conditionCategory":"poor","structurallyDeficient":true,"materialName":"Masonry","designTypeName":"Arch - Deck","lengthFt":9.3},{"id":"OH-5635357","state":"OH","stateName":"Ohio","countyFips":"111","facilityCarried":"TR 691","featuresIntersected":"JIMS RUN","location":"0.09 MI N OF JCT SR 7","lat":39.91,"lon":-82.2,"yearBuilt":1840,"adt":155,"lowestRating":6,"conditionCategory":"fair","structurallyDeficient":false,"materialName":"Masonry","designTypeName":"Arch - Deck","lengthFt":3.0},{"id":"PA-000000000016287","state":"PA","stateName":"Pennsylvania","countyFips":"049","facilityCarried":"SR 3003 SHERMAN BR","featuresIntersected":"OVER CONNEAUT CK W BR","location":"CONNEAUT TOWNSHIP","lat":42.106667,"lon":-81.649722,"yearBuilt":1840,"adt":201,"lowestRating":4,"conditionCategory":"poor","structurallyDeficient":true,"materialName":"Steel","designTypeName":"Stringer/Multi-beam or Girder","lengthFt":7.4},{"id":"VT-100202003002021","state":"VT","stateName":"Vermont","countyFips":"003","facilityCarried":"C3026","featuresIntersected":"WALLOOMSAC RIVER","location":"0.3 MI S JCT 67A & TH26","lat":43.84,"lon":-74.088056,"yearBuilt":1840,"adt":1500,"lowestRating":5,"conditionCategory":"fair","structurallyDeficient":false,"materialName":"Wood or Timber","designTypeName":"Truss - Thru","lengthFt":8.6},{"id":"VT-100202003202021","state":"VT","stateName":"Vermont","countyFips":"003","facilityCarried":"C3008","featuresIntersected":"WALLOOMSAC RIVER","location":"@ JCT OF TH8 & TH19","lat":44.148333,"lon":-73.712222,"yearBuilt":1840,"adt":1000,"lowestRating":6,"conditionCategory":"fair","structurallyDeficient":false,"materialName":"Wood or Timber","designTypeName":"Truss - Thru","lengthFt":12.1},{"id":"VT-101116003311161","state":"VT","stateName":"Vermont","countyFips":"021","facilityCarried":"C3023","featuresIntersected":"OTTER CREEK","location":"0.4 MI TO JCT W CL2 TH1","lat":44.647222,"lon":-73.9725,"yearBuilt":1840,"adt":700,"lowestRating":6,"conditionCategory":"fair","structurallyDeficient":false,"materialName":"Steel","designTypeName":"Stringer/Multi-beam or Girder","lengthFt":11.1},{"id":"VT-101420006614201","state":"VT","stateName":"Vermont","countyFips":"027","facilityCarried":"C3020","featuresIntersected":"BLACK RIVER","location":"0.04 MI TO JCT W VT131","lat":44.899722,"lon":-73.058611,"yearBuilt":1840,"adt":10,"lowestRating":7,"conditionCategory":"good","structurallyDeficient":false,"materialName":"Wood or Timber","designTypeName":"Truss - Thru","lengthFt":13.0},{"id":"CT-01338","state":"CT","stateName":"Connecticut","countyFips":"005","facilityCarried":"ROUTE 128","featuresIntersected":"HOUSATONIC RIVER","location":".05MI E OF US ROUTE 7 JCT","lat":42.355556,"lon":-74.7275,"yearBuilt":1841,"adt":1500,"lowestRating":5,"conditionCategory":"fair","structurallyDeficient":false,"materialName":"Steel Continuous","designTypeName":"Orthotropic","lengthFt":17.3},{"id":"MD-200000W-4011010","state":"MD","stateName":"Maryland","countyFips":"043","facilityCarried":"POFFENBERGER ROAD","featuresIntersected":"ANTIETAM CREEK","location":"0.57 MI W OF ALT US RT 40","lat":40.761111,"lon":-78.741667,"yearBuilt":1841,"adt":1698,"lowestRating":7,"conditionCategory":"good","structurallyDeficient":false,"materialName":"Masonry","designTypeName":"Arch - Deck","lengthFt":2.0},{"id":"NJ-100P169","state":"NJ","stateName":"New Jersey","countyFips":"019","facilityCarried":"RACE / NJ 12/CR610","featuresIntersected":"NISHISAKAWICK CREEK","location":"INT. BRIDGE ST & RACE ST","lat":41.548056,"lon":-76.05,"yearBuilt":1841,"adt":5779,"lowestRating":5,"conditionCategory":"fair","structurallyDeficient":false,"materialName":"Steel","designTypeName":"Stringer/Multi-beam or Girder","lengthFt":7.5},{"id":"PA-000000000002581","state":"PA","stateName":"Pennsylvania","countyFips":"003","facilityCarried":"BEAVER RD","featuresIntersected":"LITTLE SEWICKLEY CREEK","location":"427001BEAV&L SEWICK RD","lat":41.405278,"lon":-81.849722,"yearBuilt":1841,"adt":3571,"lowestRating":5,"conditionCategory":"fair","structurallyDeficient":false,"materialName":"Concrete","designTypeName":"Arch - Deck","lengthFt":3.3},{"id":"PA-000000000004983","state":"PA","stateName":"Pennsylvania","countyFips":"011","facilityCarried":"SR 1017(LR 06172)","featuresIntersected":"ONTELAUNEE CREEK","location":"VILLAGE OF TREXLER","lat":40.7975,"lon":-76.391389,"yearBuilt":1841,"adt":254,"lowestRating":6,"conditionCategory":"fair","structurallyDeficient":false,"materialName":"Masonry","designTypeName":"Arch - Deck","lengthFt":8.1},{"id":"PA-000000000023435","state":"PA","stateName":"Pennsylvania","countyFips":"077","facilityCarried":"WEHRS COVERED","featuresIntersected":"JORDAN CREEK","location":"WEHRS BRIDGE","lat":41.809167,"lon":-75.862222,"yearBuilt":1841,"adt":100,"lowestRating":5,"conditionCategory":"fair","structurallyDeficient":false,"materialName":"Wood or Timber","designTypeName":"Truss - Thru","lengthFt":12.7},{"id":"PA-000000000027588","state":"PA","stateName":"Pennsylvania","countyFips":"091","facilityCarried":"MORRIS ROAD","featuresIntersected":"WISSAHICKON CREEK","location":"FORT WASHING  3257F8","lat":40.738889,"lon":-75.229167,"yearBuilt":1841,"adt":8825,"lowestRating":5,"conditionCategory":"fair","structurallyDeficient":false,"materialName":"Masonry","designTypeName":"Arch - Deck","lengthFt":9.4},{"id":"PA-000000000027682","state":"PA","stateName":"Pennsylvania","countyFips":"091","facilityCarried":"LIMEKILN PIKE","featuresIntersected":"ROCK CREEK   3370E08","location":"1MI. N CHELTENHAM","lat":41.128333,"lon":-76.188889,"yearBuilt":1841,"adt":10020,"lowestRating":6,"conditionCategory":"fair","structurallyDeficient":false,"materialName":"Masonry","designTypeName":"Arch - Deck","lengthFt":2.2},{"id":"PA-000000000027958","state":"PA","stateName":"Pennsylvania","countyFips":"091","facilityCarried":"Old Sumneytown Pk","featuresIntersected":"E BRANCH PERKIOMEN CREEK","location":".2 Mi W PA-63     3030-C2","lat":40.609444,"lon":-75.930278,"yearBuilt":1841,"adt":2130,"lowestRating":5,"conditionCategory":"fair","structurallyDeficient":false,"materialName":"Masonry","designTypeName":"Arch - Deck","lengthFt":13.4},{"id":"TN-190E2240001","state":"TN","stateName":"Tennessee","countyFips":"037","facilityCarried":"NFA E489","featuresIntersected":"MANSKER CREEK","location":"IN GOODLETTSVILLE","lat":36.805,"lon":-86.743333,"yearBuilt":1841,"adt":30,"lowestRating":6,"conditionCategory":"fair","structurallyDeficient":false,"materialName":"Masonry","designTypeName":"Arch - Deck","lengthFt":9.0},{"id":"VT-101118000411181","state":"VT","stateName":"Vermont","countyFips":"021","facilityCarried":"C3006","featuresIntersected":"OTTER CREEK","location":"@ T/L W PITTSFORD","lat":45.003056,"lon":-73.453611,"yearBuilt":1841,"adt":550,"lowestRating":6,"conditionCategory":"fair","structurallyDeficient":false,"materialName":"Wood or Timber","designTypeName":"Truss - Thru","lengthFt":11.7},{"id":"CT-04453","state":"CT","stateName":"Connecticut","countyFips":"005","facilityCarried":"BULLS BRIDGE ROAD","featuresIntersected":"HOUSATONIC RIVER","location":"NEAR N.U. CANAL","lat":42.570833,"lon":-74.424167,"yearBuilt":1842,"adt":400,"lowestRating":5,"conditionCategory":"fair","structurallyDeficient":false,"materialName":"Steel","designTypeName":"Girder and Floorbeam","lengthFt":10.9},{"id":"NY-000000003359920","state":"NY","stateName":"New York","countyFips":"019","facilityCarried":"ROUTE 22","featuresIntersected":"AUSABLE RIVER","location":"0.3 Miles South of Juncti","lat":45.027222,"lon":-74.8975,"yearBuilt":1842,"adt":null,"lowestRating":5,"conditionCategory":"fair","structurallyDeficient":false,"materialName":"Masonry","designTypeName":"Arch - Deck","lengthFt":10.9},{"id":"OH-3501566","state":"OH","stateName":"Ohio","countyFips":"069","facilityCarried":"COUNTY ROAD 424","featuresIntersected":"NORTH TURKEYFOOT CREEK","location":"0.7 MI. SW OF TR 6C","lat":42.826944,"lon":-84.948889,"yearBuilt":1842,"adt":3596,"lowestRating":7,"conditionCategory":"good","structurallyDeficient":false,"materialName":"Steel","designTypeName":"Culvert","lengthFt":4.0},{"id":"OH-3501590","state":"OH","stateName":"Ohio","countyFips":"069","facilityCarried":"COUNTY ROAD 424","featuresIntersected":"DRY CREEK","location":"0.1 MI. WEST OF TR 6C","lat":41.46,"lon":-85.583889,"yearBuilt":1842,"adt":3596,"lowestRating":5,"conditionCategory":"fair","structurallyDeficient":false,"materialName":"Masonry","designTypeName":"Culvert","lengthFt":2.3},{"id":"OH-3501620","state":"OH","stateName":"Ohio","countyFips":"069","facilityCarried":"COUNTY ROAD 424","featuresIntersected":"BAD CREEK","location":"50 E OF W SPUR OF CR 4","lat":42.106944,"lon":-85.268889,"yearBuilt":1842,"adt":3596,"lowestRating":5,"conditionCategory":"fair","structurallyDeficient":false,"materialName":"Masonry","designTypeName":"Culvert","lengthFt":6.0},{"id":"PR-001401","state":"PR","stateName":"Puerto Rico","countyFips":"023","facilityCarried":"PR 103","featuresIntersected":"VIEJO RIVER","location":"2 KM SOUTH OF HORMIGUEROS","lat":18.868056,"lon":-67.417778,"yearBuilt":1842,"adt":6200,"lowestRating":4,"conditionCategory":"poor","structurallyDeficient":true,"materialName":"Concrete","designTypeName":"Culvert","lengthFt":3.2},{"id":"PA-000000000027925","state":"PA","stateName":"Pennsylvania","countyFips":"091","facilityCarried":"SWAMP PIKE","featuresIntersected":"MINISTER CREEK","location":"0.2 M E SR663 ADC 3027-G3","lat":41.699722,"lon":-77.0275,"yearBuilt":1844,"adt":14811,"lowestRating":4,"conditionCategory":"poor","structurallyDeficient":true,"materialName":"Masonry","designTypeName":"Arch - Deck","lengthFt":4.1},{"id":"VT-100808004908081","state":"VT","stateName":"Vermont","countyFips":"015","facilityCarried":"C3052","featuresIntersected":"GOLD BROOK","location":"0.01 MI TO JCT W CL2 TH3","lat":45.141389,"lon":-73.984722,"yearBuilt":1844,"adt":200,"lowestRating":6,"conditionCategory":"fair","structurallyDeficient":false,"materialName":"Wood or Timber","designTypeName":"Truss - Thru","lengthFt":5.0},{"id":"MA-H030022R5MUNNBI","state":"MA","stateName":"Massachusetts","countyFips":"009","facilityCarried":"HWY   WINTHROP ST","featuresIntersected":"WATER IPSWICH RIVER","location":"@ IPWSICH TL  =  I-01-006","lat":43.527778,"lon":-71.609167,"yearBuilt":1845,"adt":650,"lowestRating":4,"conditionCategory":"poor","structurallyDeficient":true,"materialName":"Wood or Timber","designTypeName":"Stringer/Multi-beam or Girder","lengthFt":6.3},{"id":"MA-P100220E2DOT634","state":"MA","stateName":"Massachusetts","countyFips":"003","facilityCarried":"HWY   DALTON AVE","featuresIntersected":"RR    HRR","location":"700 W OF CRANE AV RR .92","lat":44.065278,"lon":-73.945,"yearBuilt":1845,"adt":26400,"lowestRating":5,"conditionCategory":"fair","structurallyDeficient":false,"materialName":"Steel","designTypeName":"Stringer/Multi-beam or Girder","lengthFt":6.1},{"id":"NH-019201160014200","state":"NH","stateName":"New Hampshire","countyFips":"019","facilityCarried":"CORBIN BRIDGE ROAD","featuresIntersected":"CROYDON BRANCH SUGAR R","location":".69 MI JCT NH 10","lat":44.156944,"lon":-73.384167,"yearBuilt":1845,"adt":529,"lowestRating":5,"conditionCategory":"fair","structurallyDeficient":false,"materialName":"Wood or Timber","designTypeName":"Truss - Thru","lengthFt":10.4},{"id":"PA-000000000007484","state":"PA","stateName":"Pennsylvania","countyFips":"017","facilityCarried":"RED LION ROAD","featuresIntersected":"POQUESSING CREEK","location":"200 FT N OF PA13 3373-D10","lat":41.602778,"lon":-76.397778,"yearBuilt":1845,"adt":100,"lowestRating":4,"conditionCategory":"poor","structurallyDeficient":true,"materialName":"Masonry","designTypeName":"Arch - Deck","lengthFt":5.8},{"id":"DE-1177 274","state":"DE","stateName":"Delaware","countyFips":"003","facilityCarried":"BRACKENVILLE RD","featuresIntersected":"MILL CREEK","location":"SOUTH OF HOCKESSIN","lat":40.6325,"lon":-76.355,"yearBuilt":1846,"adt":6278,"lowestRating":7,"conditionCategory":"good","structurallyDeficient":false,"materialName":"Concrete","designTypeName":"Slab","lengthFt":2.1},{"id":"PA-000000000021396","state":"PA","stateName":"Pennsylvania","countyFips":"071","facilityCarried":"SR1013 CiderMillRd","featuresIntersected":"CONESTOGA RIVER","location":"1MI NOF FAIRMONT","lat":40.845,"lon":-76.342778,"yearBuilt":1846,"adt":994,"lowestRating":5,"conditionCategory":"fair","structurallyDeficient":false,"materialName":"Steel","designTypeName":"Stringer/Multi-beam or Girder","lengthFt":9.0},{"id":"CT-03682","state":"CT","stateName":"Connecticut","countyFips":"001","facilityCarried":"SR 790 (SOUTH STAT","featuresIntersected":"RIPPOWAM RIVER","location":"NEAR EXIT 7 I-95 NB","lat":42.296111,"lon":-74.730556,"yearBuilt":1847,"adt":9600,"lowestRating":6,"conditionCategory":"fair","structurallyDeficient":false,"materialName":"Masonry","designTypeName":"Arch - Deck","lengthFt":11.8},{"id":"MA-D1000333NMUNNBI","state":"MA","stateName":"Massachusetts","countyFips":"021","facilityCarried":"HWY   CENTRE ST","featuresIntersected":"WATER CHARLES RIVER","location":"DOVER-NEEDHAM TOWN LINE","lat":43.153889,"lon":-71.743611,"yearBuilt":1847,"adt":11896,"lowestRating":5,"conditionCategory":"fair","structurallyDeficient":false,"materialName":"Masonry","designTypeName":"Arch - Deck","lengthFt":6.8},{"id":"MA-G12023141DOT634","state":"MA","stateName":"Massachusetts","countyFips":"011","facilityCarried":"ST  2 A/MAIN ST","featuresIntersected":"RR    GWRR","location":"100 W JCT CHAPMAN ST.","lat":43.0375,"lon":-72.873333,"yearBuilt":1847,"adt":29483,"lowestRating":4,"conditionCategory":"poor","structurallyDeficient":true,"materialName":"Masonry","designTypeName":"Arch - Deck","lengthFt":2.5},{"id":"PA-000000000010636","state":"PA","stateName":"Pennsylvania","countyFips":"029","facilityCarried":"MAIN STREET","featuresIntersected":"FRENCH CREEK","location":"PHOENIXVILLE BORO  15E05","lat":40.387222,"lon":-77.145278,"yearBuilt":1847,"adt":6616,"lowestRating":7,"conditionCategory":"good","structurallyDeficient":false,"materialName":"Prestressed Concrete","designTypeName":"Box Beam - Multiple","lengthFt":12.1},{"id":"PA-000000000012864","state":"PA","stateName":"Pennsylvania","countyFips":"037","facilityCarried":"CTY BR 56","featuresIntersected":"FISHING CREEK","location":"0.2 MI. NNE OF RUPERT","lat":42.430833,"lon":-77.055556,"yearBuilt":1847,"adt":375,"lowestRating":7,"conditionCategory":"good","structurallyDeficient":false,"materialName":"Steel Continuous","designTypeName":"Stringer/Multi-beam or Girder","lengthFt":17.0},{"id":"PA-000000000021971","state":"PA","stateName":"Pennsylvania","countyFips":"071","facilityCarried":"ACADEMY RD","featuresIntersected":"W BR OCTORARO CRK","location":"1 MI EAST OF SR 2009","lat":40.62,"lon":-76.75,"yearBuilt":1847,"adt":340,"lowestRating":5,"conditionCategory":"fair","structurallyDeficient":false,"materialName":"Wood or Timber","designTypeName":"Truss - Thru","lengthFt":11.0},{"id":"IN-5100029","state":"IN","stateName":"Indiana","countyFips":"101","facilityCarried":"BRICKYARD ROAD","featuresIntersected":"BOGGS CREEK","location":"0.04 N OF US 50","lat":38.858889,"lon":-86.92,"yearBuilt":1848,"adt":430,"lowestRating":5,"conditionCategory":"fair","structurallyDeficient":false,"materialName":"Steel","designTypeName":"Truss - Deck","lengthFt":15.0},{"id":"MA-L150222BUMUNNBI","state":"MA","stateName":"Massachusetts","countyFips":"017","facilityCarried":"HWY   SCHOOL ST","featuresIntersected":"WATER NORTHERN CANAL","location":"JUST S OF MERRIMACK RIV","lat":44.236944,"lon":-72.656389,"yearBuilt":1848,"adt":11897,"lowestRating":6,"conditionCategory":"fair","structurallyDeficient":false,"materialName":"Masonry","designTypeName":"Arch - Deck","lengthFt":15.8},{"id":"MA-L1505287QMUNNBI","state":"MA","stateName":"Massachusetts","countyFips":"017","facilityCarried":"HWY   SUFFOLK ST","featuresIntersected":"WATER NORTHERN CANAL","location":"FRENCH ST EXT","lat":44.194444,"lon":-72.902778,"yearBuilt":1848,"adt":3000,"lowestRating":4,"conditionCategory":"poor","structurallyDeficient":true,"materialName":"Steel","designTypeName":"Stringer/Multi-beam or Girder","lengthFt":10.5},{"id":"NY-4870001P0000000","state":"NY","stateName":"New York","countyFips":"103","facilityCarried":"ACCESS ROAD","featuresIntersected":"DELAWARE RIVER","location":"0.1 MILES FROM PA ROUTE 5","lat":42.98,"lon":-75.23,"yearBuilt":1848,"adt":170,"lowestRating":6,"conditionCategory":"fair","structurallyDeficient":false,"materialName":"Aluminum/Wrought Iron/Cast Iron","designTypeName":"Suspension","lengthFt":53.5},{"id":"PA-4870001P0000000","state":"PA","stateName":"Pennsylvania","countyFips":"103","facilityCarried":"ACCESS ROAD","featuresIntersected":"DELAWARE RIVER","location":"0.1 MILES FROM PA ROUTE 5","lat":42.98,"lon":-75.23,"yearBuilt":1848,"adt":170,"lowestRating":6,"conditionCategory":"fair","structurallyDeficient":false,"materialName":"Aluminum/Wrought Iron/Cast Iron","designTypeName":"Suspension","lengthFt":53.5},{"id":"MA-B160274F9DOTNBI","state":"MA","stateName":"Massachusetts","countyFips":"025","facilityCarried":"HWY   NEPNST V PKY","featuresIntersected":"WATER NEPONSET RIVER","location":".16 KM E OF TRUMAN HWY","lat":42.354444,"lon":-71.725,"yearBuilt":1849,"adt":23300,"lowestRating":5,"conditionCategory":"fair","structurallyDeficient":false,"materialName":"Masonry","designTypeName":"Arch - Deck","lengthFt":6.9},{"id":"NH-001801630005300","state":"NH","stateName":"New Hampshire","countyFips":"009","facilityCarried":"PORTER ROAD","featuresIntersected":"WILD AMMONOOSUC RIVER","location":"340 FEET FR NH 112","lat":44.180833,"lon":-72.039444,"yearBuilt":1849,"adt":618,"lowestRating":5,"conditionCategory":"fair","structurallyDeficient":false,"materialName":"Wood or Timber","designTypeName":"Truss - Thru","lengthFt":16.0},{"id":"NJ-1000111","state":"NJ","stateName":"New Jersey","countyFips":"019","facilityCarried":"PINE HILL ROAD","featuresIntersected":"TRIB.WICKECHEOKE CREEK","location":"200 FT. N. OF CR 604","lat":41.575,"lon":-76.438056,"yearBuilt":1849,"adt":148,"lowestRating":6,"conditionCategory":"fair","structurallyDeficient":false,"materialName":"Masonry","designTypeName":"Arch - Deck","lengthFt":2.3},{"id":"PA-000000000022108","state":"PA","stateName":"Pennsylvania","countyFips":"071","facilityCarried":"LOG CABIN RD","featuresIntersected":"COCALICO CREEK","location":"1/2 MI NORTH OF SR 272","lat":41.479722,"lon":-77.68,"yearBuilt":1849,"adt":310,"lowestRating":5,"conditionCategory":"fair","structurallyDeficient":false,"materialName":"Wood or Timber","designTypeName":"Truss - Thru","lengthFt":7.5},{"id":"PA-000000000053290","state":"PA","stateName":"Pennsylvania","countyFips":"055","facilityCarried":"Weaver Road  T-341","featuresIntersected":"Conococheague Creek","location":"4.5 MI SW of Greencastle","lat":41.239722,"lon":-78.669722,"yearBuilt":1849,"adt":5,"lowestRating":7,"conditionCategory":"good","structurallyDeficient":false,"materialName":"Steel Continuous","designTypeName":"Stringer/Multi-beam or Girder","lengthFt":20.8},{"id":"VT-100404002804041","state":"VT","stateName":"Vermont","countyFips":"007","facilityCarried":"C3039","featuresIntersected":"LEWIS CREEK","location":"0.01 MI TO JCT W C3 TH28","lat":44.851389,"lon":-73.167778,"yearBuilt":1849,"adt":250,"lowestRating":7,"conditionCategory":"good","structurallyDeficient":false,"materialName":"Wood or Timber","designTypeName":"Arch - Thru","lengthFt":7.2},{"id":"VT-100404002904041","state":"VT","stateName":"Vermont","countyFips":"007","facilityCarried":"C3036","featuresIntersected":"LEWIS CREEK","location":"0.01 MI TO JCT W CL2 TH1","lat":45.231389,"lon":-73.231389,"yearBuilt":1849,"adt":750,"lowestRating":7,"conditionCategory":"good","structurallyDeficient":false,"materialName":"Steel","designTypeName":"Stringer/Multi-beam or Girder","lengthFt":8.8},{"id":"VT-101116003111161","state":"VT","stateName":"Vermont","countyFips":"021","facilityCarried":"C3013","featuresIntersected":"FURNACE BROOK","location":"0.75 MI TO JCT W C3 TH14","lat":44.386111,"lon":-74.208611,"yearBuilt":1849,"adt":450,"lowestRating":6,"conditionCategory":"fair","structurallyDeficient":false,"materialName":"Wood or Timber","designTypeName":"Truss - Thru","lengthFt":6.7},{"id":"WV-00000000035A090","state":"WV","stateName":"West Virginia","countyFips":"069","facilityCarried":"WV Route 251","featuresIntersected":"Ohio River","location":"0.22 Mi. West Jct WV 2 SB","lat":40.421944,"lon":-81.723056,"yearBuilt":1849,"adt":5234,"lowestRating":4,"conditionCategory":"poor","structurallyDeficient":true,"materialName":"Steel","designTypeName":"Suspension","lengthFt":130.7},{"id":"CT-00317","state":"CT","stateName":"Connecticut","countyFips":"001","facilityCarried":"U.S. ROUTE 1","featuresIntersected":"FIVE MILE RIVER","location":"200 FT NORTH OF DARIEN TL","lat":41.947222,"lon":-73.8025,"yearBuilt":1850,"adt":21900,"lowestRating":5,"conditionCategory":"fair","structurallyDeficient":false,"materialName":"Concrete","designTypeName":"Arch - Deck","lengthFt":3.3},{"id":"CT-04700","state":"CT","stateName":"Connecticut","countyFips":"015","facilityCarried":"PEEP TOAD ROAD","featuresIntersected":"WHETSTONE BROOK","location":"2000 FT S OF ROUTE 101","lat":42.419722,"lon":-72.66,"yearBuilt":1850,"adt":110,"lowestRating":5,"conditionCategory":"fair","structurallyDeficient":false,"materialName":"Masonry","designTypeName":"Arch - Deck","lengthFt":2.3},{"id":"CT-04754","state":"CT","stateName":"Connecticut","countyFips":"015","facilityCarried":"PACKERVILLE ROAD","featuresIntersected":"MILL BROOK","location":"1.5 MI SOUTH OF ROUTE 14A","lat":41.713611,"lon":-73.435833,"yearBuilt":1850,"adt":994,"lowestRating":8,"conditionCategory":"good","structurallyDeficient":false,"materialName":"Prestressed Concrete","designTypeName":"Box Beam - Multiple","lengthFt":6.2},{"id":"DE-1118 258","state":"DE","stateName":"Delaware","countyFips":"003","facilityCarried":"BARLEY MILL RD.","featuresIntersected":"RED CLAY CREEK","location":"ASHLAND","lat":41.274167,"lon":-76.435556,"yearBuilt":1850,"adt":2776,"lowestRating":7,"conditionCategory":"good","structurallyDeficient":false,"materialName":"Steel","designTypeName":"Stringer/Multi-beam or Girder","lengthFt":5.2},{"id":"KY-057B00013N","state":"KY","stateName":"Kentucky","countyFips":"113","facilityCarried":"KY-1268","featuresIntersected":"JESSAMINE CREEK","location":"1.7 MI E OF JCT KY 29","lat":38.722222,"lon":-85.827778,"yearBuilt":1850,"adt":957,"lowestRating":5,"conditionCategory":"fair","structurallyDeficient":false,"materialName":"Masonry","designTypeName":"Culvert","lengthFt":5.8},{"id":"MD-200000W-5931010","state":"MD","stateName":"Maryland","countyFips":"043","facilityCarried":"DOGSTREET ROAD","featuresIntersected":"LITTLE ANTIETAM CREEK","location":"1.89 MI W OF MD RTE 67","lat":40.481111,"lon":-78.158333,"yearBuilt":1850,"adt":1560,"lowestRating":5,"conditionCategory":"fair","structurallyDeficient":false,"materialName":"Masonry","designTypeName":"Arch - Deck","lengthFt":6.5},{"id":"MA-A030023KMMUNNBI","state":"MA","stateName":"Massachusetts","countyFips":"005","facilityCarried":"HWY   MAIN ST","featuresIntersected":"WATER ACUSHNET RIVER","location":"ON MAIN ST AT NEW BEDFORD","lat":43.183889,"lon":-71.145278,"yearBuilt":1850,"adt":16100,"lowestRating":6,"conditionCategory":"fair","structurallyDeficient":false,"materialName":"Masonry","designTypeName":"Arch - Deck","lengthFt":4.1},{"id":"MA-A070052Y7DOTNBI","state":"MA","stateName":"Massachusetts","countyFips":"009","facilityCarried":"ST150 MAIN ST","featuresIntersected":"WATER POWWOW RIVER","location":"IN CENTER OF TOWN","lat":43.610556,"lon":-72.318333,"yearBuilt":1850,"adt":12700,"lowestRating":5,"conditionCategory":"fair","structurallyDeficient":false,"materialName":"Masonry","designTypeName":"Arch - Deck","lengthFt":2.5},{"id":"MA-A070102Y9DOTNBI","state":"MA","stateName":"Massachusetts","countyFips":"009","facilityCarried":"HWY   MAIN ST","featuresIntersected":"WATER MERRIMACK RIVER","location":"AT MERRIMACK RIVER","lat":43.0375,"lon":-71.643056,"yearBuilt":1850,"adt":16700,"lowestRating":6,"conditionCategory":"fair","structurallyDeficient":false,"materialName":"Steel","designTypeName":"Movable - Swing","lengthFt":42.7},{"id":"MA-A070112QYMUNNBI","state":"MA","stateName":"Massachusetts","countyFips":"009","facilityCarried":"HWY   POND ST","featuresIntersected":"WATER POWWOW RIVER","location":"1.2 MI N OF I-495","lat":43.608333,"lon":-70.941944,"yearBuilt":1850,"adt":3500,"lowestRating":5,"conditionCategory":"fair","structurallyDeficient":false,"materialName":"Masonry","designTypeName":"Arch - Deck","lengthFt":2.9},{"id":"MA-A090032QKMUNNBI","state":"MA","stateName":"Massachusetts","countyFips":"009","facilityCarried":"HWY   CENTRAL ST","featuresIntersected":"WATER SHAWSHEEN RIVER","location":"AT SHAWSHEEN RIVER","lat":44.056944,"lon":-71.236111,"yearBuilt":1850,"adt":13319,"lowestRating":6,"conditionCategory":"fair","structurallyDeficient":false,"materialName":"Steel","designTypeName":"Stringer/Multi-beam or Girder","lengthFt":3.7},{"id":"MA-A15009BPPMUNNBI","state":"MA","stateName":"Massachusetts","countyFips":"027","facilityCarried":"ST 32 CHESNT HL AV","featuresIntersected":"WATER MILLERS RIVER","location":"0.2 M N OF RTE. 2A","lat":43.943333,"lon":-72.595278,"yearBuilt":1850,"adt":8663,"lowestRating":5,"conditionCategory":"fair","structurallyDeficient":false,"materialName":"Steel","designTypeName":"Truss - Thru","lengthFt":11.1},{"id":"MA-A160153L0MUNNBI","state":"MA","stateName":"Massachusetts","countyFips":"005","facilityCarried":"HWY   BRIDGE ST","featuresIntersected":"WATER TEN MILE RIVER","location":"100 FT W OF KNIGHT ST","lat":42.416944,"lon":-71.605278,"yearBuilt":1850,"adt":1928,"lowestRating":6,"conditionCategory":"fair","structurallyDeficient":false,"materialName":"Masonry","designTypeName":"Arch - Deck","lengthFt":3.1},{"id":"MA-A160749FAMUNNBI","state":"MA","stateName":"Massachusetts","countyFips":"005","facilityCarried":"HWY   PITAS AVE","featuresIntersected":"WATER SEVEN MILE RIVER","location":".3 MI E OF NEWPRT AV 1 A","lat":42.928333,"lon":-71.547222,"yearBuilt":1850,"adt":500,"lowestRating":5,"conditionCategory":"fair","structurallyDeficient":false,"materialName":"Wood or Timber","designTypeName":"Stringer/Multi-beam or Girder","lengthFt":2.9},{"id":"MA-B120062BBMUNNBI","state":"MA","stateName":"Massachusetts","countyFips":"017","facilityCarried":"HWY   FAULKNER ST","featuresIntersected":"WATER CONCORD RIVER","location":"1.2 KM E OF RTE 3A","lat":43.433889,"lon":-71.358889,"yearBuilt":1850,"adt":6871,"lowestRating":5,"conditionCategory":"fair","structurallyDeficient":false,"materialName":"Concrete","designTypeName":"Arch - Deck","lengthFt":10.3},{"id":"MA-B1603238AMUNNBI","state":"MA","stateName":"Massachusetts","countyFips":"025","facilityCarried":"HWY   CONGRESS ST","featuresIntersected":"WATER FORT POINT CHANNEL","location":"OVER FT POINT CHANNEL","lat":42.545278,"lon":-71.183056,"yearBuilt":1850,"adt":17100,"lowestRating":4,"conditionCategory":"poor","structurallyDeficient":true,"materialName":"Steel","designTypeName":"Truss - Thru","lengthFt":54.7},{"id":"MA-B1638238TMUNNBI","state":"MA","stateName":"Massachusetts","countyFips":"025","facilityCarried":"HWY   DALTON ST","featuresIntersected":"COMB  I 90&CAMBRIA&CSX","location":"AT HYNES CONVNTN CENTR","lat":43.755278,"lon":-71.295833,"yearBuilt":1850,"adt":17844,"lowestRating":4,"conditionCategory":"poor","structurallyDeficient":true,"materialName":"Steel","designTypeName":"Stringer/Multi-beam or Girder","lengthFt":20.4},{"id":"MA-B2106836VDOT634","state":"MA","stateName":"Massachusetts","countyFips":"021","facilityCarried":"HWY   JW MAHAR HWY","featuresIntersected":"RR    BCRR SPUR ABAN","location":".32 KM S OF PEARL ST.","lat":43.629444,"lon":-72.625,"yearBuilt":1850,"adt":23405,"lowestRating":6,"conditionCategory":"fair","structurallyDeficient":false,"materialName":"Prestressed Concrete","designTypeName":"Slab","lengthFt":3.4},{"id":"MA-B2300442LMUNNBI","state":"MA","stateName":"Massachusetts","countyFips":"023","facilityCarried":"HWY   TITICUT ST","featuresIntersected":"WATER TAUNTON RIVER","location":".1 MI NORTH OF PLYMOUTH S","lat":41.996944,"lon":-71.606111,"yearBuilt":1850,"adt":571,"lowestRating":6,"conditionCategory":"fair","structurallyDeficient":false,"materialName":"Steel","designTypeName":"Stringer/Multi-beam or Girder","lengthFt":9.3},{"id":"MA-B25013431MUNNBI","state":"MA","stateName":"Massachusetts","countyFips":"023","facilityCarried":"ST123 BELMONT ST","featuresIntersected":"WATER SALISBURY BROOK","location":"W OF WARR AVE JCT","lat":43.4,"lon":-71.663889,"yearBuilt":1850,"adt":18879,"lowestRating":6,"conditionCategory":"fair","structurallyDeficient":false,"materialName":"Concrete","designTypeName":"Slab","lengthFt":2.7},{"id":"MA-B2505842UMUNNBI","state":"MA","stateName":"Massachusetts","countyFips":"023","facilityCarried":"HWY   BELMONT AVE","featuresIntersected":"WATER SALISBURY BROOK","location":".1 MI SOUTH OF RTE 27","lat":42.421111,"lon":-71.068611,"yearBuilt":1850,"adt":2357,"lowestRating":6,"conditionCategory":"fair","structurallyDeficient":false,"materialName":"Concrete","designTypeName":"Slab","lengthFt":2.2},{"id":"MA-B270024UKMBTNBI","state":"MA","stateName":"Massachusetts","countyFips":"021","facilityCarried":"HWY   DEAN RD","featuresIntersected":"TR    GREEN LINE D","location":"OVER GREEN LINE","lat":42.773333,"lon":-71.998333,"yearBuilt":1850,"adt":14900,"lowestRating":7,"conditionCategory":"good","structurallyDeficient":false,"materialName":"Prestressed Concrete","designTypeName":"Box Beam - Single/Spread","lengthFt":6.7},{"id":"MA-C0201433FMUNNBI","state":"MA","stateName":"Massachusetts","countyFips":"021","facilityCarried":"HWY   NEPONSET ST","featuresIntersected":"WATER E BR NEPONSET RIV","location":"W. OF R.R. VIADUCT","lat":43.019722,"lon":-71.614167,"yearBuilt":1850,"adt":17586,"lowestRating":5,"conditionCategory":"fair","structurallyDeficient":false,"materialName":"Masonry","designTypeName":"Arch - Deck","lengthFt":2.0},{"id":"MA-C0800281MMUNNBI","state":"MA","stateName":"Massachusetts","countyFips":"017","facilityCarried":"HWY   MIDDLESEX ST","featuresIntersected":"WATER STONY BROOK","location":"@ STONY BROOK","lat":43.05,"lon":-72.419444,"yearBuilt":1850,"adt":2208,"lowestRating":5,"conditionCategory":"fair","structurallyDeficient":false,"materialName":"Masonry","designTypeName":"Arch - Deck","lengthFt":2.7},{"id":"MA-C080052BCMUNNBI","state":"MA","stateName":"Massachusetts","countyFips":"017","facilityCarried":"HWY   SCHOOL ST","featuresIntersected":"WATER STONY BROOK","location":"1.0 KM SE OF MAIN ST","lat":42.736667,"lon":-71.615278,"yearBuilt":1850,"adt":3750,"lowestRating":5,"conditionCategory":"fair","structurallyDeficient":false,"materialName":"Masonry","designTypeName":"Arch - Deck","lengthFt":4.0},{"id":"MA-C1700544CMUNNBI","state":"MA","stateName":"Massachusetts","countyFips":"021","facilityCarried":"HWY   MORD LINC RD","featuresIntersected":"WATER BOUND BROOK","location":"SCITUATE/COHASSET LINE","lat":42.868056,"lon":-71.280833,"yearBuilt":1850,"adt":388,"lowestRating":6,"conditionCategory":"fair","structurallyDeficient":false,"materialName":"Masonry","designTypeName":"Slab","lengthFt":2.6},{"id":"MA-D040033NUDOTNBI","state":"MA","stateName":"Massachusetts","countyFips":"005","facilityCarried":"US  6 STATE RD","featuresIntersected":"WATER WESTPORT RIVER","location":".5 MI. WEST OF REED RD","lat":42.170278,"lon":-72.398056,"yearBuilt":1850,"adt":10390,"lowestRating":5,"conditionCategory":"fair","structurallyDeficient":false,"materialName":"Concrete","designTypeName":"Culvert","lengthFt":2.2},{"id":"MA-D040043NVDOTNBI","state":"MA","stateName":"Massachusetts","countyFips":"005","facilityCarried":"US  6 STATE RD","featuresIntersected":"WATER WESTPORT RIV SPL","location":".5 MI. WEST OF REED RD","lat":42.179722,"lon":-72.423056,"yearBuilt":1850,"adt":10390,"lowestRating":5,"conditionCategory":"fair","structurallyDeficient":false,"materialName":"Concrete","designTypeName":"Culvert","lengthFt":2.3},{"id":"MA-D080083LAMUNNBI","state":"MA","stateName":"Massachusetts","countyFips":"005","facilityCarried":"HWY   CENTER ST","featuresIntersected":"WATER SEGREGANSET RIVER","location":"1 MI.WEST OF ST.138","lat":42.503056,"lon":-72.077778,"yearBuilt":1850,"adt":2071,"lowestRating":5,"conditionCategory":"fair","structurallyDeficient":false,"materialName":"Concrete","designTypeName":"Tee Beam","lengthFt":3.0},{"id":"MA-D090191FAMUNNBI","state":"MA","stateName":"Massachusetts","countyFips":"027","facilityCarried":"HWY   POTTER RD","featuresIntersected":"WATER MUMFORD RIVER","location":".2 MI. E. OF MANCHAUG ST.","lat":43.723333,"lon":-72.971944,"yearBuilt":1850,"adt":25,"lowestRating":5,"conditionCategory":"fair","structurallyDeficient":false,"materialName":"Wood or Timber","designTypeName":"Stringer/Multi-beam or Girder","lengthFt":2.7},{"id":"MA-D100084D9DOTNBI","state":"MA","stateName":"Massachusetts","countyFips":"021","facilityCarried":"HWY   ELM BANK RD","featuresIntersected":"WATER CHARLES RIVER INLT","location":"IN DOVER","lat":43.329167,"lon":-71.801389,"yearBuilt":1850,"adt":646,"lowestRating":6,"conditionCategory":"fair","structurallyDeficient":false,"materialName":"Concrete","designTypeName":"Arch - Deck","lengthFt":4.5},{"id":"MA-D110032BHMUNNBI","state":"MA","stateName":"Massachusetts","countyFips":"017","facilityCarried":"HWY   LAKEVIEW AVE","featuresIntersected":"WATER BEAVER BROOK","location":".40 KM E OF MAMMOTH RD","lat":44.288611,"lon":-72.959167,"yearBuilt":1850,"adt":9250,"lowestRating":5,"conditionCategory":"fair","structurallyDeficient":false,"materialName":"Masonry","designTypeName":"Arch - Deck","lengthFt":5.0},{"id":"MA-E01010BVTMUNNBI","state":"MA","stateName":"Massachusetts","countyFips":"023","facilityCarried":"HWY   POND STREET","featuresIntersected":"WATER SATUCKET RIVER","location":"1 MI. EAST OF ST 106","lat":42.915556,"lon":-71.656111,"yearBuilt":1850,"adt":2974,"lowestRating":4,"conditionCategory":"poor","structurallyDeficient":true,"materialName":"Steel","designTypeName":"Culvert","lengthFt":2.2},{"id":"MA-F02114C0XMUNNBI","state":"MA","stateName":"Massachusetts","countyFips":"005","facilityCarried":"HWY   JEFFERSON ST","featuresIntersected":"WATER SUCKER BROOK","location":"0.2 MILES SE OF ST 24","lat":42.233333,"lon":-72.452778,"yearBuilt":1850,"adt":390,"lowestRating":4,"conditionCategory":"poor","structurallyDeficient":true,"materialName":"Steel","designTypeName":"Stringer/Multi-beam or Girder","lengthFt":2.3},{"id":"MA-F080177W3DOTNBI","state":"MA","stateName":"Massachusetts","countyFips":"021","facilityCarried":"HWY   W CENTRAL ST","featuresIntersected":"WATER MINE BROOK","location":"@ 860 W CENTRAL ST","lat":42.820556,"lon":-73.041944,"yearBuilt":1850,"adt":5714,"lowestRating":6,"conditionCategory":"fair","structurallyDeficient":false,"materialName":"Concrete","designTypeName":"Slab","lengthFt":2.3},{"id":"MA-G0500530MDOTNBI","state":"MA","stateName":"Massachusetts","countyFips":"009","facilityCarried":"ST127 WASHNGTON ST","featuresIntersected":"WATER HODGKINS COVE","location":"5.9 KM N WASHINGTON CIRCL","lat":42.833333,"lon":-72.302778,"yearBuilt":1850,"adt":13600,"lowestRating":4,"conditionCategory":"poor","structurallyDeficient":true,"materialName":"Concrete","designTypeName":"Slab","lengthFt":2.9},{"id":"MA-G05015326DOT634","state":"MA","stateName":"Massachusetts","countyFips":"009","facilityCarried":"HWY   CENTNNIAL AV","featuresIntersected":"RR    MBTA","location":".5 MI N ST127","lat":42.73,"lon":-71.269167,"yearBuilt":1850,"adt":3800,"lowestRating":5,"conditionCategory":"fair","structurallyDeficient":false,"materialName":"Wood or Timber","designTypeName":"Stringer/Multi-beam or Girder","lengthFt":4.4},{"id":"MA-G080151YEDOTNBI","state":"MA","stateName":"Massachusetts","countyFips":"027","facilityCarried":"ST140 N MAIN ST","featuresIntersected":"WATER QUINSIGAMOND RIVER","location":"0.1 MI N OF ST-122","lat":43.627778,"lon":-72.468333,"yearBuilt":1850,"adt":14301,"lowestRating":5,"conditionCategory":"fair","structurallyDeficient":false,"materialName":"Aluminum/Wrought Iron/Cast Iron","designTypeName":"Arch - Deck","lengthFt":4.2},{"id":"MA-G12021142DOT634","state":"MA","stateName":"Massachusetts","countyFips":"011","facilityCarried":"HWY   ALLEN ST","featuresIntersected":"RR    GWRR","location":"OVER RR","lat":43.943611,"lon":-73.138056,"yearBuilt":1850,"adt":7900,"lowestRating":6,"conditionCategory":"fair","structurallyDeficient":false,"materialName":"Concrete","designTypeName":"Slab","lengthFt":3.2},{"id":"MA-H0700149KDOTNBI","state":"MA","stateName":"Massachusetts","countyFips":"023","facilityCarried":"ST 27 MAIN ST","featuresIntersected":"WATER POOR MEADOW BROOK","location":"0.25 M E OF E BRIDGWTR TL","lat":42.957222,"lon":-72.362778,"yearBuilt":1850,"adt":14095,"lowestRating":5,"conditionCategory":"fair","structurallyDeficient":false,"materialName":"Masonry","designTypeName":"Arch - Deck","lengthFt":2.6},{"id":"MA-H12025310DOTNBI","state":"MA","stateName":"Massachusetts","countyFips":"009","facilityCarried":"ST125 BRIDGE ST","featuresIntersected":"RR    BMRR (ABANDONED)","location":".16 KM S MERRIMAC RIVER","lat":43.370278,"lon":-71.998611,"yearBuilt":1850,"adt":26000,"lowestRating":3,"conditionCategory":"poor","structurallyDeficient":true,"materialName":"Prestressed Concrete","designTypeName":"Box Beam - Multiple","lengthFt":3.2},{"id":"MA-H210120LUMUNNBI","state":"MA","stateName":"Massachusetts","countyFips":"013","facilityCarried":"HWY   SARGEANT ST","featuresIntersected":"WATER SECOND LEVEL CANAL","location":"AT INT OF RACE/SARGEANT","lat":43.690278,"lon":-73.636389,"yearBuilt":1850,"adt":3879,"lowestRating":5,"conditionCategory":"fair","structurallyDeficient":false,"materialName":"Steel","designTypeName":"Stringer/Multi-beam or Girder","lengthFt":10.7},{"id":"MA-H210130LVMUNNBI","state":"MA","stateName":"Massachusetts","countyFips":"013","facilityCarried":"HWY   CABOT ST","featuresIntersected":"WATER SECOND LEVEL CANAL","location":"AT INT OF RACE/CABOT ST","lat":42.260833,"lon":-73.415278,"yearBuilt":1850,"adt":16422,"lowestRating":5,"conditionCategory":"fair","structurallyDeficient":false,"materialName":"Steel","designTypeName":"Stringer/Multi-beam or Girder","lengthFt":11.7},{"id":"MA-H210190M0MUNNBI","state":"MA","stateName":"Massachusetts","countyFips":"013","facilityCarried":"HWY   DWIGHT ST","featuresIntersected":"WATER FIRST LEVEL CANAL","location":"JUST NW OF 2ND CANAL","lat":42.786389,"lon":-73.130833,"yearBuilt":1850,"adt":11250,"lowestRating":6,"conditionCategory":"fair","structurallyDeficient":false,"materialName":"Steel Continuous","designTypeName":"Stringer/Multi-beam or Girder","lengthFt":13.3},{"id":"MA-H21066AHPMUNNBI","state":"MA","stateName":"Massachusetts","countyFips":"013","facilityCarried":"HWY   RACE ST","featuresIntersected":"WATER THIRD LEVEL CANAL","location":"400 NE OF SOUTH STREET","lat":43.329167,"lon":-73.965833,"yearBuilt":1850,"adt":905,"lowestRating":6,"conditionCategory":"fair","structurallyDeficient":false,"materialName":"Masonry","designTypeName":"Arch - Deck","lengthFt":3.2},{"id":"MA-H21067AHKMUNNBI","state":"MA","stateName":"Massachusetts","countyFips":"013","facilityCarried":"HWY   JACKSON ST","featuresIntersected":"WATER THIRD LVL CNL SPWY","location":"AT JCT. OF MAIN STREET","lat":43.421944,"lon":-73.768611,"yearBuilt":1850,"adt":6466,"lowestRating":6,"conditionCategory":"fair","structurallyDeficient":false,"materialName":"Masonry","designTypeName":"Arch - Deck","lengthFt":3.2},{"id":"MA-K010054BTDOT634","state":"MA","stateName":"Massachusetts","countyFips":"023","facilityCarried":"HWY   HOWLANDS LN","featuresIntersected":"RR    MBTA","location":"MP 34/972 MBCR","lat":42.298056,"lon":-70.8875,"yearBuilt":1850,"adt":1500,"lowestRating":8,"conditionCategory":"good","structurallyDeficient":false,"materialName":"Wood or Timber","designTypeName":"Slab","lengthFt":3.2},{"id":"MA-L040122R9MUNNBI","state":"MA","stateName":"Massachusetts","countyFips":"009","facilityCarried":"HWY   SHORT ST","featuresIntersected":"WATER SPICKET RIVER","location":".16 KM. W. OF RT. 110","lat":44.054444,"lon":-72.235,"yearBuilt":1850,"adt":5255,"lowestRating":4,"conditionCategory":"poor","structurallyDeficient":true,"materialName":"Steel","designTypeName":"Stringer/Multi-beam or Girder","lengthFt":6.9},{"id":"MA-L150122N7DOT634","state":"MA","stateName":"Massachusetts","countyFips":"017","facilityCarried":"HWY   WILDER ST","featuresIntersected":"RR    BMRR PAN AM","location":"0.40 KM SE WALKER ST","lat":43.350833,"lon":-72.941389,"yearBuilt":1850,"adt":14200,"lowestRating":6,"conditionCategory":"fair","structurallyDeficient":false,"materialName":"Prestressed Concrete","designTypeName":"Slab","lengthFt":4.1},{"id":"MA-L150282BLMUNNBI","state":"MA","stateName":"Massachusetts","countyFips":"017","facilityCarried":"HWY   CABOT ST","featuresIntersected":"WATER NORTHERN CANAL","location":"N. OF FRENCH ST. EXT.","lat":44.276667,"lon":-71.418889,"yearBuilt":1850,"adt":8800,"lowestRating":5,"conditionCategory":"fair","structurallyDeficient":false,"materialName":"Steel","designTypeName":"Stringer/Multi-beam or Girder","lengthFt":10.8},{"id":"MA-L150292D2MUNNBI","state":"MA","stateName":"Massachusetts","countyFips":"017","facilityCarried":"HWY   JEFFERSON ST","featuresIntersected":"WATER WESTERN CANAL","location":"0.96 KM. SW. OF RT. 38","lat":43.842222,"lon":-71.375556,"yearBuilt":1850,"adt":650,"lowestRating":7,"conditionCategory":"good","structurallyDeficient":false,"materialName":"Prestressed Concrete","designTypeName":"Box Beam - Multiple","lengthFt":5.4},{"id":"MA-L150312BQMUNNBI","state":"MA","stateName":"Massachusetts","countyFips":"017","facilityCarried":"HWY   LAWRENCE ST","featuresIntersected":"WATER CONCORD RIVER","location":"JUST W OF CEMETERY","lat":43.727778,"lon":-72.752778,"yearBuilt":1850,"adt":9600,"lowestRating":5,"conditionCategory":"fair","structurallyDeficient":false,"materialName":"Concrete","designTypeName":"Stringer/Multi-beam or Girder","lengthFt":20.4},{"id":"MA-M01024C1QMUNNBI","state":"MA","stateName":"Massachusetts","countyFips":"017","facilityCarried":"HWY   LYNN STREET","featuresIntersected":"WATER PINES RIVER","location":"0.05M  N  OF  HADLEY  ST","lat":43.195278,"lon":-71.704167,"yearBuilt":1850,"adt":5360,"lowestRating":6,"conditionCategory":"fair","structurallyDeficient":false,"materialName":"Concrete","designTypeName":"Culvert","lengthFt":2.9},{"id":"MA-M100097PRMUNNBI","state":"MA","stateName":"Massachusetts","countyFips":"017","facilityCarried":"ST117 GREAT RD","featuresIntersected":"WATER MILL CANAL","location":"INTER OF WINTER& RT117","lat":43.518333,"lon":-72.906111,"yearBuilt":1850,"adt":13011,"lowestRating":6,"conditionCategory":"fair","structurallyDeficient":false,"materialName":"Masonry","designTypeName":"Arch - Deck","lengthFt":3.3},{"id":"MA-M120084DVDOTNBI","state":"MA","stateName":"Massachusetts","countyFips":"017","facilityCarried":"ST 28 FELLSWAY","featuresIntersected":"RR    BMRR (ABANDONED)","location":"AT RAILROAD","lat":43.816944,"lon":-71.196667,"yearBuilt":1850,"adt":28190,"lowestRating":5,"conditionCategory":"fair","structurallyDeficient":false,"materialName":"Steel","designTypeName":"Stringer/Multi-beam or Girder","lengthFt":3.5},{"id":"MA-M170012YLDOTNBI","state":"MA","stateName":"Massachusetts","countyFips":"009","facilityCarried":"ST 28 BROADWAY","featuresIntersected":"WATER SPICKET RIVER","location":".9 MI S ST213","lat":43.209722,"lon":-72.6875,"yearBuilt":1850,"adt":11300,"lowestRating":5,"conditionCategory":"fair","structurallyDeficient":false,"materialName":"Masonry","designTypeName":"Arch - Deck","lengthFt":2.8},{"id":"MA-M180154BYDOT634","state":"MA","stateName":"Massachusetts","countyFips":"023","facilityCarried":"ST 28 W GROVE ST","featuresIntersected":"RR    MBTA/CSX","location":"TAUNTON TRACKS MP#34.894","lat":42.318056,"lon":-71.425556,"yearBuilt":1850,"adt":17000,"lowestRating":6,"conditionCategory":"fair","structurallyDeficient":false,"materialName":"Steel","designTypeName":"Stringer/Multi-beam or Girder","lengthFt":9.9},{"id":"MA-M180164C0DOT634","state":"MA","stateName":"Massachusetts","countyFips":"023","facilityCarried":"ST 28 W GROVE ST","featuresIntersected":"RR    MBTA/MACRR","location":"RAILROAD MP 34/894","lat":42.285556,"lon":-71.323333,"yearBuilt":1850,"adt":17000,"lowestRating":5,"conditionCategory":"fair","structurallyDeficient":false,"materialName":"Steel","designTypeName":"Stringer/Multi-beam or Girder","lengthFt":5.2},{"id":"MA-M180204BUDOT634","state":"MA","stateName":"Massachusetts","countyFips":"023","facilityCarried":"HWY   WOOD ST","featuresIntersected":"RR    MBTA","location":".5 M S OF ST 28","lat":42.581389,"lon":-71.606667,"yearBuilt":1850,"adt":3100,"lowestRating":5,"conditionCategory":"fair","structurallyDeficient":false,"materialName":"Prestressed Concrete","designTypeName":"Slab","lengthFt":4.0},{"id":"MA-M2701315VMUNNBI","state":"MA","stateName":"Massachusetts","countyFips":"013","facilityCarried":"HWY   BLISS ST","featuresIntersected":"WATER CHICOPEE BROOK","location":"JUST SW OF RTE 32","lat":42.674722,"lon":-73.8075,"yearBuilt":1850,"adt":4784,"lowestRating":5,"conditionCategory":"fair","structurallyDeficient":false,"materialName":"Concrete","designTypeName":"Tee Beam","lengthFt":3.5},{"id":"MA-M270261AHDOT634","state":"MA","stateName":"Massachusetts","countyFips":"013","facilityCarried":"HWY   STAFFORD HLW","featuresIntersected":"RR    NECRR","location":".2 MI E OF ST 32","lat":43.382222,"lon":-72.794167,"yearBuilt":1850,"adt":776,"lowestRating":3,"conditionCategory":"poor","structurallyDeficient":true,"materialName":"Wood or Timber","designTypeName":"Stringer/Multi-beam or Girder","lengthFt":2.5},{"id":"MA-N04010376DOT634","state":"MA","stateName":"Massachusetts","countyFips":"021","facilityCarried":"HWY   GREENDALE AV","featuresIntersected":"RR    MBTA","location":"NEEDHAM LINE MP 10.39","lat":43.309722,"lon":-71.625278,"yearBuilt":1850,"adt":8405,"lowestRating":5,"conditionCategory":"fair","structurallyDeficient":false,"materialName":"Concrete","designTypeName":"Arch - Deck","lengthFt":3.2},{"id":"MA-N120424U4MBTNBI","state":"MA","stateName":"Massachusetts","countyFips":"017","facilityCarried":"ST 16 WASHNGTON ST","featuresIntersected":"TR    GREEN LINE D","location":"OVER GREEN LINE","lat":42.368333,"lon":-72.395,"yearBuilt":1850,"adt":50300,"lowestRating":6,"conditionCategory":"fair","structurallyDeficient":false,"materialName":"Steel","designTypeName":"Stringer/Multi-beam or Girder","lengthFt":3.8},{"id":"MA-N160043JUMUNNBI","state":"MA","stateName":"Massachusetts","countyFips":"005","facilityCarried":"HWY   MENDON RD","featuresIntersected":"WATER ABBOTT RUN RIVER","location":"AT JUNCT. DEPOT STREET","lat":43.108889,"lon":-71.988889,"yearBuilt":1850,"adt":7000,"lowestRating":4,"conditionCategory":"poor","structurallyDeficient":true,"materialName":"Steel","designTypeName":"Stringer/Multi-beam or Girder","lengthFt":4.7},{"id":"MA-N1601596NDOTNBI","state":"MA","stateName":"Massachusetts","countyFips":"005","facilityCarried":"COMB  US 1 & ELM S","featuresIntersected":"WATER TEN MILE RIVER","location":"INT.US1&ELM","lat":43.411111,"lon":-72.616667,"yearBuilt":1850,"adt":24560,"lowestRating":5,"conditionCategory":"fair","structurallyDeficient":false,"materialName":"Concrete","designTypeName":"Slab","lengthFt":5.4},{"id":"MA-N190240MEMUNNBI","state":"MA","stateName":"Massachusetts","countyFips":"015","facilityCarried":"HWY   PINE ST","featuresIntersected":"WATER MILL RIVER","location":"300 E INT FLORENCE RD","lat":43.713889,"lon":-73.894444,"yearBuilt":1850,"adt":14741,"lowestRating":5,"conditionCategory":"fair","structurallyDeficient":false,"materialName":"Steel","designTypeName":"Stringer/Multi-beam or Girder","lengthFt":9.7},{"id":"MA-N190260MQMUNNBI","state":"MA","stateName":"Massachusetts","countyFips":"015","facilityCarried":"HWY   MAIN ST LEED","featuresIntersected":"WATER SLUICEWAY","location":"JCT ARCH ST","lat":43.744444,"lon":-72.772222,"yearBuilt":1850,"adt":1500,"lowestRating":5,"conditionCategory":"fair","structurallyDeficient":false,"materialName":"Steel","designTypeName":"Stringer/Multi-beam or Girder","lengthFt":3.1},{"id":"MA-N190460MKMUNNBI","state":"MA","stateName":"Massachusetts","countyFips":"015","facilityCarried":"HWY   MAIN ST LEED","featuresIntersected":"WATER S CHANNEL MILL RIV","location":"200 N OF ARCH ST","lat":43.876111,"lon":-72.745556,"yearBuilt":1850,"adt":2008,"lowestRating":4,"conditionCategory":"poor","structurallyDeficient":true,"materialName":"Masonry","designTypeName":"Arch - Deck","lengthFt":6.2},{"id":"MA-N190460MRMUNNBI","state":"MA","stateName":"Massachusetts","countyFips":"015","facilityCarried":"HWY   MAIN ST LEED","featuresIntersected":"WATER N CHANNEL MILL RIV","location":"200 N OF ARCH ST","lat":43.896111,"lon":-72.754444,"yearBuilt":1850,"adt":2008,"lowestRating":3,"conditionCategory":"poor","structurallyDeficient":true,"materialName":"Masonry","designTypeName":"Arch - Deck","lengthFt":2.6},{"id":"MA-N200051GVMUNNBI","state":"MA","stateName":"Massachusetts","countyFips":"027","facilityCarried":"HWY   DAVIS ST","featuresIntersected":"WATER ASSABET RIVER","location":"0.1M W OF RT135","lat":43.343333,"lon":-72.069444,"yearBuilt":1850,"adt":6600,"lowestRating":5,"conditionCategory":"fair","structurallyDeficient":false,"materialName":"Prestressed Concrete","designTypeName":"Slab","lengthFt":3.4},{"id":"MA-R040013N6DOTNBI","state":"MA","stateName":"Massachusetts","countyFips":"005","facilityCarried":"US 44 WINTHROP ST","featuresIntersected":"WATER PALMER RIVER","location":"1.7 MI NE SEEKONK T.L.","lat":42.607778,"lon":-71.374167,"yearBuilt":1850,"adt":13010,"lowestRating":3,"conditionCategory":"poor","structurallyDeficient":true,"materialName":"Masonry","designTypeName":"Arch - Deck","lengthFt":2.8},{"id":"MA-S0200532WDOT634","state":"MA","stateName":"Massachusetts","countyFips":"009","facilityCarried":"ST286 COLLINS RD","featuresIntersected":"RR    BMRR","location":"AT NEW HAMPSHIRE STATE LI","lat":43.218889,"lon":-72.219722,"yearBuilt":1850,"adt":11000,"lowestRating":6,"conditionCategory":"fair","structurallyDeficient":false,"materialName":"Steel","designTypeName":"Stringer/Multi-beam or Girder","lengthFt":4.3},{"id":"MA-S080023JYMUNNBI","state":"MA","stateName":"Massachusetts","countyFips":"005","facilityCarried":"HWY   POND ST","featuresIntersected":"WATER TEN MILE RIVER","location":"JUST WEST OF ST152","lat":43.159444,"lon":-72.23,"yearBuilt":1850,"adt":6853,"lowestRating":5,"conditionCategory":"fair","structurallyDeficient":false,"materialName":"Concrete","designTypeName":"Tee Beam","lengthFt":3.6},{"id":"MA-T0100940VDOT634","state":"MA","stateName":"Massachusetts","countyFips":"005","facilityCarried":"ST140 SUMMER ST","featuresIntersected":"RR    MACRR","location":".4 MI SE OF DEAN ST US 44","lat":43.327222,"lon":-71.193889,"yearBuilt":1850,"adt":15776,"lowestRating":7,"conditionCategory":"good","structurallyDeficient":false,"materialName":"Prestressed Concrete","designTypeName":"Slab","lengthFt":3.0},{"id":"MA-T010133N7DOTNBI","state":"MA","stateName":"Massachusetts","countyFips":"005","facilityCarried":"US 44 WINTHROP ST","featuresIntersected":"WATER MILL RIVER","location":".1 MI W OF TAUNTON GREEN","lat":41.995,"lon":-72.186389,"yearBuilt":1850,"adt":16500,"lowestRating":7,"conditionCategory":"good","structurallyDeficient":false,"materialName":"Concrete","designTypeName":"Tee Beam","lengthFt":4.7},{"id":"MA-T010143K3MUNNBI","state":"MA","stateName":"Massachusetts","countyFips":"005","facilityCarried":"HWY   COHANNET ST","featuresIntersected":"WATER MILL RIVER","location":"AT GAZZETTE BUILDING","lat":42.041389,"lon":-72.238333,"yearBuilt":1850,"adt":5357,"lowestRating":5,"conditionCategory":"fair","structurallyDeficient":false,"materialName":"Steel","designTypeName":"Stringer/Multi-beam or Girder","lengthFt":4.9},{"id":"MA-T010173K5MUNNBI","state":"MA","stateName":"Massachusetts","countyFips":"005","facilityCarried":"HWY   DANFORTH ST","featuresIntersected":"WATER MILL RIVER","location":".75 MI NE OF RTE 140","lat":41.928889,"lon":-71.178333,"yearBuilt":1850,"adt":3466,"lowestRating":5,"conditionCategory":"fair","structurallyDeficient":false,"materialName":"Prestressed Concrete","designTypeName":"Slab","lengthFt":4.4},{"id":"MA-T010183K6MUNNBI","state":"MA","stateName":"Massachusetts","countyFips":"005","facilityCarried":"HWY   W BRITANNIA","featuresIntersected":"WATER MILL RIVER","location":"@ REED AND BARTON","lat":42.135,"lon":-71.196111,"yearBuilt":1850,"adt":4958,"lowestRating":7,"conditionCategory":"good","structurallyDeficient":false,"materialName":"Prestressed Concrete","designTypeName":"Box Beam - Single/Spread","lengthFt":5.6},{"id":"MA-T060032THDOTNBI","state":"MA","stateName":"Massachusetts","countyFips":"009","facilityCarried":"US  1 NEWBRPRT TPK","featuresIntersected":"WATER IPSWICH RIVER","location":".8 MI S ST97","lat":43.481944,"lon":-72.373611,"yearBuilt":1850,"adt":16700,"lowestRating":5,"conditionCategory":"fair","structurallyDeficient":false,"materialName":"Masonry","designTypeName":"Arch - Deck","lengthFt":3.8},{"id":"MA-T07006269MUNNBI","state":"MA","stateName":"Massachusetts","countyFips":"017","facilityCarried":"HWY   CANAL ST","featuresIntersected":"WATER SQUANNACOOK RIVER","location":".1 MI. N. OF RT. 119","lat":43.8925,"lon":-72.434444,"yearBuilt":1850,"adt":4350,"lowestRating":5,"conditionCategory":"fair","structurallyDeficient":false,"materialName":"Masonry","designTypeName":"Arch - Deck","lengthFt":8.1},{"id":"MA-W040012C8MUNNBI","state":"MA","stateName":"Massachusetts","countyFips":"017","facilityCarried":"HWY   FARWELL ST","featuresIntersected":"WATER CHARLES RIVER","location":"AT CHARLES RIVER","lat":42.408333,"lon":-71.3625,"yearBuilt":1850,"adt":20252,"lowestRating":5,"conditionCategory":"fair","structurallyDeficient":false,"materialName":"Steel","designTypeName":"Truss - Deck","lengthFt":11.0},{"id":"MA-W040032C9MUNNBI","state":"MA","stateName":"Massachusetts","countyFips":"017","facilityCarried":"HWY   ELM ST","featuresIntersected":"WATER CHARLES RIVER","location":"400 FT SO INT ELM & RIVER","lat":42.991667,"lon":-72.8,"yearBuilt":1850,"adt":8600,"lowestRating":5,"conditionCategory":"fair","structurallyDeficient":false,"materialName":"Concrete Continuous","designTypeName":"Tee Beam","lengthFt":23.6},