[{"id":"NY-4870001P0000000","state":"NY","stateName":"New York","countyFips":"103","facilityCarried":"ACCESS ROAD","featuresIntersected":"DELAWARE RIVER","location":"0.1 MILES FROM PA ROUTE 5","lat":42.98,"lon":-75.23,"lowestRating":6,"yearBuilt":1848,"adt":170,"conditionCategory":"fair","structurallyDeficient":false,"materialName":"Aluminum/Wrought Iron/Cast Iron","designTypeName":"Suspension","lengthFt":53.5,"maxSpanFt":14.1},{"id":"PA-4870001P0000000","state":"PA","stateName":"Pennsylvania","countyFips":"103","facilityCarried":"ACCESS ROAD","featuresIntersected":"DELAWARE RIVER","location":"0.1 MILES FROM PA ROUTE 5","lat":42.98,"lon":-75.23,"lowestRating":6,"yearBuilt":1848,"adt":170,"conditionCategory":"fair","structurallyDeficient":false,"materialName":"Aluminum/Wrought Iron/Cast Iron","designTypeName":"Suspension","lengthFt":53.5,"maxSpanFt":14.1},{"id":"WV-00000000035A090","state":"WV","stateName":"West Virginia","countyFips":"069","facilityCarried":"WV Route 251","featuresIntersected":"Ohio River","location":"0.22 Mi. West Jct WV 2 SB","lat":40.421944,"lon":-81.723056,"lowestRating":4,"yearBuilt":1849,"adt":5234,"conditionCategory":"poor","structurallyDeficient":true,"materialName":"Steel","designTypeName":"Suspension","lengthFt":130.7,"maxSpanFt":100.9},{"id":"MA-B1603238AMUNNBI","state":"MA","stateName":"Massachusetts","countyFips":"025","facilityCarried":"HWY   CONGRESS ST","featuresIntersected":"WATER FORT POINT CHANNEL","location":"OVER FT POINT CHANNEL","lat":42.545278,"lon":-71.183056,"lowestRating":4,"yearBuilt":1850,"adt":17100,"conditionCategory":"poor","structurallyDeficient":true,"materialName":"Steel","designTypeName":"Truss - Thru","lengthFt":54.7,"maxSpanFt":9.4},{"id":"KY-059B00048N","state":"KY","stateName":"Kentucky","countyFips":"117","facilityCarried":"KY 17","featuresIntersected":"OHIO RIVER","location":"SUSPENSION BR OVR OHIO RV","lat":40.027778,"lon":-85.5,"lowestRating":4,"yearBuilt":1867,"adt":9054,"conditionCategory":"poor","structurallyDeficient":true,"materialName":"Steel","designTypeName":"Suspension","lengthFt":216.2,"maxSpanFt":105.7},{"id":"OH-3101584","state":"OH","stateName":"Ohio","countyFips":"061","facilityCarried":"CR-600 ROEBLING","featuresIntersected":"US27 & OHIO RIVER","location":"0.53 mi. E. of I71/I75","lat":40.133889,"lon":-85.511944,"lowestRating":5,"yearBuilt":1867,"adt":9054,"conditionCategory":"fair","structurallyDeficient":false,"materialName":"Steel","designTypeName":"Suspension","lengthFt":216.2,"maxSpanFt":105.7},{"id":"IL-082992900000000","state":"IL","stateName":"Illinois","countyFips":"163","facilityCarried":"FAU 9187A & MET LI","featuresIntersected":"MISS RIV/RR/MSS6000","location":"E ST LOUIS","lat":39.841389,"lon":-91.368333,"lowestRating":5,"yearBuilt":1874,"adt":6550,"conditionCategory":"fair","structurallyDeficient":false,"materialName":"Steel","designTypeName":"Other","lengthFt":400.7,"maxSpanFt":52},{"id":"MO-12992","state":"MO","stateName":"Missouri","countyFips":"510","facilityCarried":"EADS BRIDGE","featuresIntersected":"MISSISSIPPI  RVR  METROL","location":"S 2571 T 45 N R 7 E","lat":39.872222,"lon":-91.718889,"lowestRating":5,"yearBuilt":1874,"adt":2000,"conditionCategory":"fair","structurallyDeficient":false,"materialName":"Steel","designTypeName":"Arch - Deck","lengthFt":400.7,"maxSpanFt":55.2},{"id":"IA-000000000239640","state":"IA","stateName":"Iowa","countyFips":"125","facilityCarried":"LOCAL","featuresIntersected":"BR DES MOINES RIVER","location":"075181007","lat":41.337222,"lon":-94.081667,"lowestRating":3,"yearBuilt":1878,"adt":21,"conditionCategory":"poor","structurallyDeficient":true,"materialName":"Steel","designTypeName":"Truss - Thru","lengthFt":60,"maxSpanFt":14.9},{"id":"MA-H12020311DOTNBI","state":"MA","stateName":"Massachusetts","countyFips":"009","facilityCarried":"HWY   EAST MAIN ST","featuresIntersected":"WATER MERRIMACK RIVER","location":"AT WEST NEWBURY MERRIMAC","lat":43.8725,"lon":-72.627778,"lowestRating":5,"yearBuilt":1883,"adt":8534,"conditionCategory":"fair","structurallyDeficient":false,"materialName":"Steel","designTypeName":"Movable - Swing","lengthFt":81.2,"maxSpanFt":19.2},{"id":"MA-L150202C0MUNNBI","state":"MA","stateName":"Massachusetts","countyFips":"017","facilityCarried":"HWY   AIKEN ST","featuresIntersected":"WATER MERRIMACK RIVER","location":"AT MERRIMACK RIVER","lat":43.122778,"lon":-72.839722,"lowestRating":5,"yearBuilt":1883,"adt":26000,"conditionCategory":"fair","structurallyDeficient":false,"materialName":"Aluminum/Wrought Iron/Cast Iron","designTypeName":"Truss - Thru","lengthFt":78,"maxSpanFt":15.5},{"id":"NY-000000002240019","state":"NY","stateName":"New York","countyFips":"061","facilityCarried":"BROOKLYN BRIDGE","featuresIntersected":"I278  FDR Drive  FDR Dri","location":"BROOKLYN BR OVER EAST RVR","lat":41.509722,"lon":-75.600556,"lowestRating":4,"yearBuilt":1883,"adt":110939,"conditionCategory":"poor","structurallyDeficient":true,"materialName":"Steel","designTypeName":"Suspension","lengthFt":598.9,"maxSpanFt":159.6},{"id":"PA-000000000001742","state":"PA","stateName":"Pennsylvania","countyFips":"003","facilityCarried":"Smithfield Street","featuresIntersected":"MONONGAHELA RIVER CSX RR","location":"Smithfield Street Bridge","lat":40.575278,"lon":-80.213056,"lowestRating":5,"yearBuilt":1883,"adt":6901,"conditionCategory":"fair","structurallyDeficient":false,"materialName":"Steel","designTypeName":"Truss - Thru","lengthFt":118.2,"maxSpanFt":36},{"id":"NJ-3300060","state":"NJ","stateName":"New Jersey","countyFips":"021","facilityCarried":"NJ 29 to PA 32","featuresIntersected":"DELAWARE RIVER","location":"NJ 29 @ MP 4.34","lat":40.521111,"lon":-75.933889,"lowestRating":6,"yearBuilt":1884,"adt":16500,"conditionCategory":"fair","structurallyDeficient":false,"materialName":"Aluminum/Wrought Iron/Cast Iron","designTypeName":"Truss - Thru","lengthFt":127.7,"maxSpanFt":18},{"id":"PA-000000000007689","state":"PA","stateName":"Pennsylvania","countyFips":"017","facilityCarried":"CONNECT PA32&NJ29","featuresIntersected":"DELAWARE RIVER","location":"MORRISVILLE BORO.  39D04","lat":40.521111,"lon":-75.934167,"lowestRating":6,"yearBuilt":1884,"adt":13200,"conditionCategory":"fair","structurallyDeficient":false,"materialName":"Aluminum/Wrought Iron/Cast Iron","designTypeName":"Truss - Thru","lengthFt":127.7,"maxSpanFt":18},{"id":"MI-000000000005192","state":"MI","stateName":"Michigan","countyFips":"081","facilityCarried":"SIXTH STREET","featuresIntersected":"GRAND RIVER","location":"GRAND RAPIDS","lat":43.962222,"lon":-86.331111,"lowestRating":5,"yearBuilt":1886,"adt":4550,"conditionCategory":"fair","structurallyDeficient":false,"materialName":"Steel","designTypeName":"Truss - Thru","lengthFt":54.5,"maxSpanFt":15.1},{"id":"OH-6031308","state":"OH","stateName":"Ohio","countyFips":"119","facilityCarried":"North Street","featuresIntersected":"Muskingum River","location":"0.03  W of SR 60 Gaysport","lat":40.193889,"lon":-82.891111,"lowestRating":9,"yearBuilt":1886,"adt":1236,"conditionCategory":"good","structurallyDeficient":false,"materialName":"Steel","designTypeName":"Stringer/Multi-beam or Girder","lengthFt":68.6,"maxSpanFt":14},{"id":"MA-L04003317DOTNBI","state":"MA","stateName":"Massachusetts","countyFips":"009","facilityCarried":"HWY   UNION ST","featuresIntersected":"WATER MERRIMACK RIVER","location":"AT MERRIMAC RIVER","lat":43.124444,"lon":-71.486389,"lowestRating":5,"yearBuilt":1888,"adt":24050,"conditionCategory":"fair","structurallyDeficient":false,"materialName":"Aluminum/Wrought Iron/Cast Iron","designTypeName":"Truss - Thru","lengthFt":61,"maxSpanFt":13.1},{"id":"NY-000000002066919","state":"NY","stateName":"New York","countyFips":"005","facilityCarried":"181ST STREET","featuresIntersected":"Highbridge Park  907P X4","location":"HRD HARLEM R 87I &METRO N","lat":42.152778,"lon":-74.975,"lowestRating":5,"yearBuilt":1888,"adt":45759,"conditionCategory":"fair","structurallyDeficient":false,"materialName":"Steel","designTypeName":"Arch - Deck","lengthFt":168.5,"maxSpanFt":55},{"id":"MA-B160124EYDOTNBI","state":"MA","stateName":"Massachusetts","countyFips":"025","facilityCarried":"ST  2 A/MASS AVE","featuresIntersected":"COMB  STRW DR & CHAS RIV","location":".8 MI E OF BU BRIDGE","lat":42.788889,"lon":-71.869722,"lowestRating":5,"yearBuilt":1891,"adt":38638,"conditionCategory":"fair","structurallyDeficient":false,"materialName":"Steel Continuous","designTypeName":"Stringer/Multi-beam or Girder","lengthFt":217.1,"maxSpanFt":10.5},{"id":"MA-C1301213RDOT634","state":"MA","stateName":"Massachusetts","countyFips":"013","facilityCarried":"ST116 ST141/CABOT","featuresIntersected":"COMB  CONN RIV & PVRR","location":"AT CHICOPEE-HOLYOKE T.L.","lat":43.355833,"lon":-72.729722,"lowestRating":5,"yearBuilt":1891,"adt":18700,"conditionCategory":"fair","structurallyDeficient":false,"materialName":"Steel","designTypeName":"Truss - Thru","lengthFt":80,"maxSpanFt":17},{"id":"MA-B1603438BMUNNBI","state":"MA","stateName":"Massachusetts","countyFips":"025","facilityCarried":"HWY   SUMMER ST","featuresIntersected":"WATER RESERVE CHANNEL","location":"1. 6 KM SE OF FT PT CHAN","lat":43.247778,"lon":-71.328889,"lowestRating":6,"yearBuilt":1892,"adt":29200,"conditionCategory":"fair","structurallyDeficient":false,"materialName":"Prestressed Concrete Continuous","designTypeName":"Box Beam - Multiple","lengthFt":93.2,"maxSpanFt":5.5},{"id":"PA-000000000017042","state":"PA","stateName":"Pennsylvania","countyFips":"051","facilityCarried":"SR 4038","featuresIntersected":"YOUGHIOGHENY RIVER/TRAIL","location":"LAYTON BRIDGE","lat":40.724722,"lon":-80.998889,"lowestRating":3,"yearBuilt":1892,"adt":997,"conditionCategory":"poor","structurallyDeficient":true,"materialName":"Steel","designTypeName":"Truss - Thru","lengthFt":91.1,"maxSpanFt":18.1},{"id":"PA-000000000038921","state":"PA","stateName":"Pennsylvania","countyFips":"101","facilityCarried":"WALNUT STREET","featuresIntersected":"SCHUYLKILL 24TH RR 32 31","location":"CENTER CITY PHILA. 3590A8","lat":40.104167,"lon":-76.679444,"lowestRating":6,"yearBuilt":1892,"adt":14793,"conditionCategory":"fair","structurallyDeficient":false,"materialName":"Steel","designTypeName":"Frame","lengthFt":240.8,"maxSpanFt":16.4},{"id":"MA-B161263FHDOTNBI","state":"MA","stateName":"Massachusetts","countyFips":"025","facilityCarried":"HWY   W FOURTH ST","featuresIntersected":"COMB  FNDRY ST&MBTA&AMTK","location":"1.6 KM SE OF JCT I93&90","lat":43.235833,"lon":-72.050833,"lowestRating":5,"yearBuilt":1893,"adt":21630,"conditionCategory":"fair","structurallyDeficient":false,"materialName":"Steel Continuous","designTypeName":"Stringer/Multi-beam or Girder","lengthFt":52.3,"maxSpanFt":8.6},{"id":"NY-000000002211250","state":"NY","stateName":"New York","countyFips":"055","facilityCarried":"COURT STREET","featuresIntersected":"GENESEE RIVER  OLD SUBWA","location":"CITY OF ROCHESTER","lat":43.504444,"lon":-78.451667,"lowestRating":5,"yearBuilt":1893,"adt":4936,"conditionCategory":"fair","structurallyDeficient":false,"materialName":"Masonry","designTypeName":"Arch - Deck","lengthFt":51.6,"maxSpanFt":5.2},{"id":"MD-200000BC1208010","state":"MD","stateName":"Maryland","countyFips":"510","facilityCarried":"NORTH AVENUE","featuresIntersected":"JONES FALLS  FALLS RD RR","location":"NORTH AVE OVER CSX","lat":40.382222,"lon":-77.171111,"lowestRating":5,"yearBuilt":1895,"adt":20361,"conditionCategory":"fair","structurallyDeficient":false,"materialName":"Masonry","designTypeName":"Arch - Deck","lengthFt":88.8,"maxSpanFt":13},{"id":"NJ-1217150","state":"NJ","stateName":"New Jersey","countyFips":"023","facilityCarried":"NJ 27","featuresIntersected":"RARITAN RIVER","location":"Boat Lanch @ 2nd Av -Park","lat":41.886111,"lon":-74.981111,"lowestRating":5,"yearBuilt":1895,"adt":23717,"conditionCategory":"fair","structurallyDeficient":false,"materialName":"Masonry","designTypeName":"Arch - Deck","lengthFt":59.5,"maxSpanFt":8.5},{"id":"NY-000000001240090","state":"NY","stateName":"New York","countyFips":"061","facilityCarried":"RTE 907","featuresIntersected":"87I 87IX1M11022  RTE I87","location":"OVER HARLEM RV NR HIGH BR","lat":41.958056,"lon":-74.068056,"lowestRating":7,"yearBuilt":1895,"adt":82471,"conditionCategory":"good","structurallyDeficient":false,"materialName":"Steel","designTypeName":"Movable - Swing","lengthFt":327.5,"maxSpanFt":22},{"id":"PA-000000000039140","state":"PA","stateName":"Pennsylvania","countyFips":"101","facilityCarried":"Falls Bridge","featuresIntersected":"Schuylkill River","location":"Falls Bridge   3479-J9","lat":40.845,"lon":-76.586944,"lowestRating":4,"yearBuilt":1895,"adt":18650,"conditionCategory":"poor","structurallyDeficient":true,"materialName":"Steel","designTypeName":"Truss - Thru","lengthFt":56.6,"maxSpanFt":19.2},{"id":"RI-000000000009590","state":"RI","stateName":"Rhode Island","countyFips":"007","facilityCarried":"RI 122 COURT ST","featuresIntersected":"BLACKSTONE RIVER","location":"200 FT NW JCT RI126x104","lat":42.249722,"lon":-72.675833,"lowestRating":7,"yearBuilt":1895,"adt":10965,"conditionCategory":"good","structurallyDeficient":false,"materialName":"Steel","designTypeName":"Stringer/Multi-beam or Girder","lengthFt":51.6,"maxSpanFt":16.3},{"id":"IL-000000000819903","state":"IL","stateName":"Illinois","countyFips":"161","facilityCarried":"FT ARMSTRNG AV  RR","featuresIntersected":"US67 MISSRVR L&D15 CPRR","location":"ROCK ISLAND ARSENAL","lat":41.793889,"lon":-90.621944,"lowestRating":5,"yearBuilt":1896,"adt":18000,"conditionCategory":"fair","structurallyDeficient":false,"materialName":"Steel","designTypeName":"Movable - Swing","lengthFt":185.1,"maxSpanFt":25.8},{"id":"NJ-3300280","state":"NJ","stateName":"New Jersey","countyFips":"041","facilityCarried":"Northampton Street","featuresIntersected":"DELAWARE RIVER","location":"0.5 miles south of US 22","lat":41.496944,"lon":-75.621111,"lowestRating":5,"yearBuilt":1896,"adt":18700,"conditionCategory":"fair","structurallyDeficient":false,"materialName":"Steel","designTypeName":"Truss - Thru","lengthFt":55.6,"maxSpanFt":30},{"id":"PA-000000000002439","state":"PA","stateName":"Pennsylvania","countyFips":"003","facilityCarried":"PANTHER HOLLOW TR","featuresIntersected":"PANTH HOLLOW UNKNOWN STR","location":"085 Panther Hollow Rd Brg","lat":40.763333,"lon":-81.271944,"lowestRating":5,"yearBuilt":1896,"adt":13500,"conditionCategory":"fair","structurallyDeficient":false,"materialName":"Steel","designTypeName":"Truss - Deck","lengthFt":64,"maxSpanFt":36},{"id":"PA-000000000028914","state":"PA","stateName":"Pennsylvania","countyFips":"095","facilityCarried":"Northampton Street","featuresIntersected":"DELAWARE RIVER","location":"CITY OF EASTON","lat":41.4975,"lon":-75.620833,"lowestRating":5,"yearBuilt":1896,"adt":18700,"conditionCategory":"fair","structurallyDeficient":false,"materialName":"Steel","designTypeName":"Truss - Thru","lengthFt":55.6,"maxSpanFt":30},{"id":"NY-000000002241110","state":"NY","stateName":"New York","countyFips":"005","facilityCarried":"MELROSE AVENUE","featuresIntersected":"Parking Lot  CSX TRANS/P","location":"IN MELROSE","lat":41.749167,"lon":-75.189167,"lowestRating":7,"yearBuilt":1897,"adt":11162,"conditionCategory":"good","structurallyDeficient":false,"materialName":"Steel","designTypeName":"Stringer/Multi-beam or Girder","lengthFt":55.7,"maxSpanFt":7.7},{"id":"NY-000000002246660","state":"NY","stateName":"New York","countyFips":"061","facilityCarried":"RIVERSIDE DRIVE","featuresIntersected":"W125 ST  12TH AVENUE  St","location":"OVER ST CLAIR PL-TO 134ST","lat":40.948611,"lon":-74.988056,"lowestRating":6,"yearBuilt":1897,"adt":12338,"conditionCategory":"fair","structurallyDeficient":false,"materialName":"Steel","designTypeName":"Girder and Floorbeam","lengthFt":180.9,"maxSpanFt":12.9},{"id":"NY-000000005039547","state":"NY","stateName":"New York","countyFips":"063","facilityCarried":"RTE 955","featuresIntersected":"NIAGARA RIVER  VIA/AMTRA","location":"JCT RT 182 + NIAGARA R.","lat":44.030833,"lon":-79.816111,"lowestRating":6,"yearBuilt":1897,"adt":1240,"conditionCategory":"fair","structurallyDeficient":false,"materialName":"Steel","designTypeName":"Arch - Deck","lengthFt":79,"maxSpanFt":55},{"id":"PA-000000000039231","state":"PA","stateName":"Pennsylvania","countyFips":"101","facilityCarried":"STRAWBERRY MANSION","featuresIntersected":"SKL RIV KELLY W RIV STDR","location":"STRAWBERRY MANSION 3589J1","lat":41.185,"lon":-76.2375,"lowestRating":5,"yearBuilt":1897,"adt":12580,"conditionCategory":"fair","structurallyDeficient":false,"materialName":"Steel Continuous","designTypeName":"Arch - Deck","lengthFt":124.2,"maxSpanFt":20},{"id":"TN-47L37750001","state":"TN","stateName":"Tennessee","countyFips":"093","facilityCarried":"FAU 3775","featuresIntersected":"TENNESSEE RIVER & 2 RTS.","location":"IN KNOXVILLE","lat":36.628333,"lon":-85.261944,"lowestRating":5,"yearBuilt":1897,"adt":6215,"conditionCategory":"fair","structurallyDeficient":false,"materialName":"Steel Continuous","designTypeName":"Truss - Deck","lengthFt":151.2,"maxSpanFt":25.2},{"id":"MA-B16031389MUNNBI","state":"MA","stateName":"Massachusetts","countyFips":"025","facilityCarried":"HWY   SUMMER ST","featuresIntersected":"WATER FORT POINT CHANNEL","location":"OVER FT POINT CHANNEL","lat":42.451111,"lon":-71.254722,"lowestRating":5,"yearBuilt":1899,"adt":28300,"conditionCategory":"fair","structurallyDeficient":false,"materialName":"Steel Continuous","designTypeName":"Stringer/Multi-beam or Girder","lengthFt":50.2,"maxSpanFt":9},{"id":"DE-1585 049","state":"DE","stateName":"Delaware","countyFips":"003","facilityCarried":"AUGUSTINE CUTOFF","featuresIntersected":"BRANDYWINE CREEK","location":"WILMINGTON","lat":40.841944,"lon":-76.253333,"lowestRating":6,"yearBuilt":1900,"adt":9627,"conditionCategory":"fair","structurallyDeficient":false,"materialName":"Steel Continuous","designTypeName":"Truss - Deck","lengthFt":82.6,"maxSpanFt":16.4},{"id":"HI-003900301600001","state":"HI","stateName":"Hawaii","countyFips":"003","facilityCarried":"Kamokila Blvd","featuresIntersected":"_","location":"Kapolei","lat":22.233333,"lon":-158.361111,"lowestRating":7,"yearBuilt":1900,"adt":2000,"conditionCategory":"good","structurallyDeficient":false,"materialName":"Concrete","designTypeName":"Culvert","lengthFt":94.8,"maxSpanFt":1.6},{"id":"MO-36401","state":"MO","stateName":"Missouri","countyFips":"077","facilityCarried":"ALLEY","featuresIntersected":"WILSON CR","location":"S 21 T 29 N R 22 W","lat":37.681389,"lon":-93.548889,"lowestRating":6,"yearBuilt":1900,"adt":10,"conditionCategory":"fair","structurallyDeficient":false,"materialName":"Concrete","designTypeName":"Culvert","lengthFt":72.7,"maxSpanFt":1.6},{"id":"NH-004201350005200","state":"NH","stateName":"New Hampshire","countyFips":"019","facilityCarried":"NH 11","featuresIntersected":"CONNECTICUT RIVER","location":"NH VT STATE LINE","lat":44.261389,"lon":-73.466667,"lowestRating":5,"yearBuilt":1900,"adt":7028,"conditionCategory":"fair","structurallyDeficient":false,"materialName":"Steel","designTypeName":"Truss - Thru","lengthFt":50,"maxSpanFt":16.5},{"id":"NJ-4100001","state":"NJ","stateName":"New Jersey","countyFips":"037","facilityCarried":"COUNTY ROAD 560","featuresIntersected":"DELAWARE RIVER","location":"LOC. RT 560 AT DELA. RIV.","lat":41.55,"lon":-76.2,"lowestRating":5,"yearBuilt":1900,"adt":4629,"conditionCategory":"fair","structurallyDeficient":false,"materialName":"Steel","designTypeName":"Truss - Thru","lengthFt":54.7,"maxSpanFt":18.2},{"id":"OH-5602866","state":"OH","stateName":"Ohio","countyFips":"111","facilityCarried":"SR 536","featuresIntersected":"K WAR VETS MRTNSV OHIO R","location":"JCT OF SR 7 & SR 536","lat":40.583056,"lon":-82.446111,"lowestRating":5,"yearBuilt":1900,"adt":7847,"conditionCategory":"fair","structurallyDeficient":false,"materialName":"Steel","designTypeName":"Other","lengthFt":210,"maxSpanFt":71.5},{"id":"PA-000000000030074","state":"PA","stateName":"Pennsylvania","countyFips":"037","facilityCarried":"COUNTY ROAD 560","featuresIntersected":"DELAWARE RIVER","location":"LOC. RT 560 AT DELA. RIV.","lat":41.55,"lon":-76.2,"lowestRating":5,"yearBuilt":1900,"adt":4629,"conditionCategory":"fair","structurallyDeficient":false,"materialName":"Steel","designTypeName":"Truss - Thru","lengthFt":54.7,"maxSpanFt":18.2},{"id":"PA-000000000036288","state":"PA","stateName":"Pennsylvania","countyFips":"129","facilityCarried":"SR 0981","featuresIntersected":"YOUGHIOGHENY RIV/BIKE TR","location":"ROSTRAVER & S. HUNTINGDON","lat":40.850833,"lon":-80.860278,"lowestRating":6,"yearBuilt":1900,"adt":2376,"conditionCategory":"fair","structurallyDeficient":false,"materialName":"Steel Continuous","designTypeName":"Stringer/Multi-beam or Girder","lengthFt":72,"maxSpanFt":23.8},{"id":"TX-230420AA0294001","state":"TX","stateName":"Texas","countyFips":"083","facilityCarried":"CR 220","featuresIntersected":"COLORADO RIVER","location":"3.60 MI SW OF US 283","lat":32.7225,"lon":-99.972778,"lowestRating":4,"yearBuilt":1900,"adt":100,"conditionCategory":"poor","structurallyDeficient":true,"materialName":"Steel","designTypeName":"Truss - Thru","lengthFt":69.8,"maxSpanFt":17},{"id":"VT-101418B08314181","state":"VT","stateName":"Vermont","countyFips":"027","facilityCarried":"NH 11","featuresIntersected":"CONNECTICUT RIVER","location":"NH VT STATE LINE","lat":44.290556,"lon":-73.470833,"lowestRating":5,"yearBuilt":1900,"adt":6958,"conditionCategory":"fair","structurallyDeficient":false,"materialName":"Steel","designTypeName":"Truss - Thru","lengthFt":50,"maxSpanFt":16.5},{"id":"MA-F010023PGDOTNBI","state":"MA","stateName":"Massachusetts","countyFips":"005","facilityCarried":"US  6 (EAST BRG)","featuresIntersected":"WATER ACUSHNET RIVER","location":"AT NEW BEDFORD CITY LINE","lat":42.459167,"lon":-71.908333,"lowestRating":5,"yearBuilt":1901,"adt":32200,"conditionCategory":"fair","structurallyDeficient":false,"materialName":"Steel","designTypeName":"Girder and Floorbeam","lengthFt":67.6,"maxSpanFt":7.5},{"id":"MA-F010023PJDOTNBI","state":"MA","stateName":"Massachusetts","countyFips":"005","facilityCarried":"US  6 (WEST BRG)","featuresIntersected":"COMB  ACUS RIV/LOC ST/RR","location":".7 MI W OF NBED C.L.","lat":42.114167,"lon":-71.318056,"lowestRating":5,"yearBuilt":1901,"adt":32200,"conditionCategory":"fair","structurallyDeficient":false,"materialName":"Steel","designTypeName":"Girder and Floorbeam","lengthFt":58.5,"maxSpanFt":7.3},{"id":"TX-091610B00331001","state":"TX","stateName":"Texas","countyFips":"309","facilityCarried":"WASHINGTON AVE","featuresIntersected":"BRAZOS RI         #1 WAC","location":"0.05 MI NE OF UNIV PARK","lat":32.656389,"lon":-98.325,"lowestRating":5,"yearBuilt":1901,"adt":3552,"conditionCategory":"fair","structurallyDeficient":false,"materialName":"Steel","designTypeName":"Truss - Thru","lengthFt":56.4,"maxSpanFt":45},{"id":"CA-29 0013L","state":"CA","stateName":"California","countyFips":"077","facilityCarried":"STATE ROUTE 99 SB","featuresIntersected":"STANISLAUS RIVER","location":"10-SJ-099-0.00","lat":39.050556,"lon":-122.060278,"lowestRating":7,"yearBuilt":1903,"adt":53500,"conditionCategory":"good","structurallyDeficient":false,"materialName":"Steel","designTypeName":"Stringer/Multi-beam or Girder","lengthFt":122,"maxSpanFt":10.1},{"id":"NY-000000002240039","state":"NY","stateName":"New York","countyFips":"061","facilityCarried":"Williamsburg Bridg","featuresIntersected":"FDR DRIVE  BARUCH DRIVE","location":"WILLIAMSBURG BR EAST RVR","lat":42.178333,"lon":-74.955556,"lowestRating":5,"yearBuilt":1903,"adt":81526,"conditionCategory":"fair","structurallyDeficient":false,"materialName":"Steel","designTypeName":"Suspension","lengthFt":667,"maxSpanFt":160},{"id":"NJ-3300100","state":"NJ","stateName":"New Jersey","countyFips":"021","facilityCarried":"Pennington Road","featuresIntersected":"Delaware River","location":"Pennington Road","lat":41.475,"lon":-75.026944,"lowestRating":5,"yearBuilt":1904,"adt":7521,"conditionCategory":"fair","structurallyDeficient":false,"materialName":"Steel","designTypeName":"Truss - Thru","lengthFt":87.7,"maxSpanFt":14.3},{"id":"NJ-3300120","state":"NJ","stateName":"New Jersey","countyFips":"019","facilityCarried":"Bridge St","featuresIntersected":"Delaware River","location":"Bridge St","lat":41.840833,"lon":-76.480833,"lowestRating":6,"yearBuilt":1904,"adt":14115,"conditionCategory":"fair","structurallyDeficient":false,"materialName":"Steel","designTypeName":"Truss - Thru","lengthFt":105.6,"maxSpanFt":17.1},{"id":"NJ-3300260","state":"NJ","stateName":"New Jersey","countyFips":"041","facilityCarried":"CR 627","featuresIntersected":"DELAWARE River","location":"CR 627","lat":41.676944,"lon":-75.923056,"lowestRating":5,"yearBuilt":1904,"adt":3300,"conditionCategory":"fair","structurallyDeficient":false,"materialName":"Steel","designTypeName":"Suspension","lengthFt":58.2,"maxSpanFt":20},{"id":"NJ-3300320","state":"NJ","stateName":"New Jersey","countyFips":"041","facilityCarried":"CR620S","featuresIntersected":"DELAWARE River","location":"BELVIDERE NJ","lat":42.035,"lon":-75.206111,"lowestRating":6,"yearBuilt":1904,"adt":5000,"conditionCategory":"fair","structurallyDeficient":false,"materialName":"Steel","designTypeName":"Truss - Thru","lengthFt":65.2,"maxSpanFt":17},{"id":"NY-000000002240120","state":"NY","stateName":"New York","countyFips":"061","facilityCarried":"WEST 207TH STREET","featuresIntersected":"HARLEM RIVER","location":"OVER HARLEM RV NR FORDHAM","lat":42.1,"lon":-75.324167,"lowestRating":7,"yearBuilt":1904,"adt":21664,"conditionCategory":"good","structurallyDeficient":false,"materialName":"Steel","designTypeName":"Movable - Swing","lengthFt":54.8,"maxSpanFt":13.5},{"id":"NY-000000002262070","state":"NY","stateName":"New York","countyFips":"119","facilityCarried":"BET. NY 129 & ARCA","featuresIntersected":"NEW CROTON RESERVOIR","location":"4.6 MI NE CROTON ON HUDS.","lat":41.252778,"lon":-74.044167,"lowestRating":4,"yearBuilt":1904,"adt":null,"conditionCategory":"poor","structurallyDeficient":true,"materialName":"Steel","designTypeName":"Truss - Thru","lengthFt":53.5,"maxSpanFt":39.6},{"id":"PA-000000000007648","state":"PA","stateName":"Pennsylvania","countyFips":"017","facilityCarried":"SR 2070","featuresIntersected":"DELAWARE River","location":"WASHINGTON CROSSING PA","lat":41.474722,"lon":-75.0275,"lowestRating":5,"yearBuilt":1904,"adt":5600,"conditionCategory":"fair","structurallyDeficient":false,"materialName":"Steel","designTypeName":"Truss - Thru","lengthFt":87.7,"maxSpanFt":14.3},{"id":"PA-000000000007690","state":"PA","stateName":"Pennsylvania","countyFips":"017","facilityCarried":"PA 179 (SR 0179)","featuresIntersected":"DELAWARE RIVER","location":"NEW HOPE BOROUGH   25H02","lat":41.840833,"lon":-76.480833,"lowestRating":6,"yearBuilt":1904,"adt":10300,"conditionCategory":"fair","structurallyDeficient":false,"materialName":"Steel","designTypeName":"Truss - Thru","lengthFt":105.6,"maxSpanFt":17.1},{"id":"PA-000000000007695","state":"PA","stateName":"Pennsylvania","countyFips":"017","facilityCarried":"SR 1016","featuresIntersected":"DELAWARE River","location":"RIEGELSVILLE PA    01J12","lat":41.677222,"lon":-75.923611,"lowestRating":5,"yearBuilt":1904,"adt":3300,"conditionCategory":"fair","structurallyDeficient":false,"materialName":"Steel","designTypeName":"Suspension","lengthFt":58.2,"maxSpanFt":20},{"id":"PA-000000000028847","state":"PA","stateName":"Pennsylvania","countyFips":"095","facilityCarried":"CONN SR1004&CR620S","featuresIntersected":"DELAWARE River","location":"RIVERTON PA-BELVIDERE NJ","lat":42.035556,"lon":-75.206389,"lowestRating":6,"yearBuilt":1904,"adt":4500,"conditionCategory":"fair","structurallyDeficient":false,"materialName":"Steel","designTypeName":"Truss - Thru","lengthFt":65.2,"maxSpanFt":17},{"id":"PA-000000000040785","state":"PA","stateName":"Pennsylvania","countyFips":"003","facilityCarried":"HOT METAL STREET","featuresIntersected":"MON RIVER & PRIVATE RR","location":"145 Hot Metal Bridge","lat":41.612778,"lon":-80.974167,"lowestRating":5,"yearBuilt":1904,"adt":17500,"conditionCategory":"fair","structurallyDeficient":false,"materialName":"Steel","designTypeName":"Truss - Thru","lengthFt":111.7,"maxSpanFt":32.1},{"id":"WV-00000000005A006","state":"WV","stateName":"West Virginia","countyFips":"009","facilityCarried":"WV ROUTE 2 SPUR","featuresIntersected":"Ohio River  OH-7  R.R.","location":"0.34 Mi West Jct. WV 2","lat":41.175,"lon":-81.535,"lowestRating":2,"yearBuilt":1904,"adt":11500,"conditionCategory":"poor","structurallyDeficient":true,"materialName":"Steel","designTypeName":"Suspension","lengthFt":179.4,"maxSpanFt":70},{"id":"IN-8600029","state":"IN","stateName":"Indiana","countyFips":"171","facilityCarried":"CR 100E","featuresIntersected":"WABASH RIVER","location":"01.00 S of Grant St","lat":40.714167,"lon":-88.915,"lowestRating":5,"yearBuilt":1905,"adt":230,"conditionCategory":"fair","structurallyDeficient":false,"materialName":"Steel","designTypeName":"Truss - Thru","lengthFt":81,"maxSpanFt":16},{"id":"MA-B160094F0DOTNBI","state":"MA","stateName":"Massachusetts","countyFips":"025","facilityCarried":"ST  3 CAMBRIDGE ST","featuresIntersected":"COMB  ST3/ST28 & CHARLES","location":".2 MI W OF BLOSSOM ST","lat":43.5025,"lon":-71.946944,"lowestRating":5,"yearBuilt":1905,"adt":29100,"conditionCategory":"fair","structurallyDeficient":false,"materialName":"Steel","designTypeName":"Arch - Deck","lengthFt":213.5,"maxSpanFt":24.3},{"id":"MA-F0201440ADOT634","state":"MA","stateName":"Massachusetts","countyFips":"005","facilityCarried":"HWY   ST138 W FREX","featuresIntersected":"COMB  MACRR/QUECHAN RIVE","location":"ST138 DAVOL/RR QUECHAN R","lat":41.993056,"lon":-72.218889,"lowestRating":7,"yearBuilt":1905,"adt":18429,"conditionCategory":"good","structurallyDeficient":false,"materialName":"Steel","designTypeName":"Stringer/Multi-beam or Girder","lengthFt":63.5,"maxSpanFt":14},{"id":"MN-L6116","state":"MN","stateName":"Minnesota","countyFips":"137","facilityCarried":"MSAS 140","featuresIntersected":"SHIP CANAL","location":"0.6 MI SE OF SUPERIOR ST","lat":47.998611,"lon":-93.040556,"lowestRating":5,"yearBuilt":1905,"adt":6143,"conditionCategory":"fair","structurallyDeficient":false,"materialName":"Steel","designTypeName":"Movable - Lift","lengthFt":50.2,"maxSpanFt":38.6},{"id":"OH-4100964","state":"OH","stateName":"Ohio","countyFips":"081","facilityCarried":"MARKET ST-WVA2SPUR","featuresIntersected":"SR-7  RR & OHIO RIVER","location":".7 MI N OF CONRAIL RR","lat":41.271111,"lon":-81.848889,"lowestRating":3,"yearBuilt":1905,"adt":6845,"conditionCategory":"poor","structurallyDeficient":true,"materialName":"Steel","designTypeName":"Suspension","lengthFt":179.4,"maxSpanFt":70},{"id":"PA-000000000022248","state":"PA","stateName":"Pennsylvania","countyFips":"073","facilityCarried":"EASTBROOK ROAD","featuresIntersected":"BEAVER RIVER","location":"1/2 MI.N.E.OF SR 0018","lat":41.649167,"lon":-80.781944,"lowestRating":6,"yearBuilt":1905,"adt":2800,"conditionCategory":"fair","structurallyDeficient":false,"materialName":"Prestressed Concrete","designTypeName":"Stringer/Multi-beam or Girder","lengthFt":85,"maxSpanFt":10.8},{"id":"WV-00000000015A801","state":"WV","stateName":"West Virginia","countyFips":"029","facilityCarried":"GOLDING STREET EXT","featuresIntersected":"Ohio River","location":"0.01 mi. North jct WV 2","lat":40.905,"lon":-81.236944,"lowestRating":5,"yearBuilt":1905,"adt":7500,"conditionCategory":"fair","structurallyDeficient":false,"materialName":"Steel Continuous","designTypeName":"Suspension","lengthFt":159,"maxSpanFt":74.2},{"id":"CT-00980A","state":"CT","stateName":"Connecticut","countyFips":"003","facilityCarried":"INTERSTATE-84","featuresIntersected":"CONNECTICUT RIVER","location":"1 MI EAST OF I-91","lat":42.051111,"lon":-74.202222,"lowestRating":5,"yearBuilt":1906,"adt":144200,"conditionCategory":"fair","structurallyDeficient":false,"materialName":"Masonry","designTypeName":"Arch - Deck","lengthFt":107.5,"maxSpanFt":11.9},{"id":"IA-000000000001300","state":"IA","stateName":"Iowa","countyFips":"113","facilityCarried":"2ND AVE SW (WB)","featuresIntersected":"CEDAR RIVER","location":"083072807","lat":42.978611,"lon":-91.9725,"lowestRating":5,"yearBuilt":1906,"adt":1629,"conditionCategory":"fair","structurallyDeficient":false,"materialName":"Concrete Continuous","designTypeName":"Arch - Deck","lengthFt":67,"maxSpanFt":8.3},{"id":"IL-000000000819904","state":"IL","stateName":"Illinois","countyFips":"161","facilityCarried":"ARSENAL RD","featuresIntersected":"SYLVAN SLOUGH","location":"VIADUCT RI ARSENAL","lat":42.705,"lon":-92.103056,"lowestRating":5,"yearBuilt":1906,"adt":8900,"conditionCategory":"fair","structurallyDeficient":false,"materialName":"Steel","designTypeName":"Girder and Floorbeam","lengthFt":60.3,"maxSpanFt":8.4},{"id":"IL-051600800000000","state":"IL","stateName":"Illinois","countyFips":"101","facilityCarried":"St. F Muni 7250","featuresIntersected":"WABASH RIVER","location":"ST. FRANCISVILLE","lat":38.838611,"lon":-87.997222,"lowestRating":3,"yearBuilt":1906,"adt":500,"conditionCategory":"poor","structurallyDeficient":true,"materialName":"Wood or Timber","designTypeName":"Stringer/Multi-beam or Girder","lengthFt":105.4,"maxSpanFt":1.7},{"id":"IL-051600900000000","state":"IL","stateName":"Illinois","countyFips":"101","facilityCarried":"TR 257","featuresIntersected":"WABASH RIVER","location":"ST. FRANCISVILLE","lat":39.105278,"lon":-88.714444,"lowestRating":4,"yearBuilt":1906,"adt":500,"conditionCategory":"poor","structurallyDeficient":true,"materialName":"Steel","designTypeName":"Truss - Thru","lengthFt":144.1,"maxSpanFt":15.7},{"id":"IN-060474","state":"IN","stateName":"Indiana","countyFips":"083","facilityCarried":"TR 257","featuresIntersected":"WABASH RIVER","location":"01.10 NW CR 220 N","lat":39.105,"lon":-88.713889,"lowestRating":4,"yearBuilt":1906,"adt":750,"conditionCategory":"poor","structurallyDeficient":true,"materialName":"Steel","designTypeName":"Truss - Thru","lengthFt":144.1,"maxSpanFt":15.7},{"id":"MA-H1200630XDOTNBI","state":"MA","stateName":"Massachusetts","countyFips":"009","facilityCarried":"HWY   UPR CNTY BRI","featuresIntersected":"WATER MERRIMACK RIVER","location":"AT WSHGTN &RIVER STS","lat":43.152778,"lon":-71.444444,"lowestRating":7,"yearBuilt":1906,"adt":10665,"conditionCategory":"good","structurallyDeficient":false,"materialName":"Steel Continuous","designTypeName":"Box Beam - Single/Spread","lengthFt":85.8,"maxSpanFt":15.6},{"id":"NY-000000002240200","state":"NY","stateName":"New York","countyFips":"005","facilityCarried":"SHORE ROAD","featuresIntersected":"HUTCHINSON RIVER","location":"OVER HUTCHINSON RIVER","lat":42.162222,"lon":-75.301944,"lowestRating":4,"yearBuilt":1906,"adt":15262,"conditionCategory":"poor","structurallyDeficient":true,"materialName":"Steel","designTypeName":"Movable - Bascule","lengthFt":84.3,"maxSpanFt":12.5},{"id":"OK-000700000000000","state":"OK","stateName":"Oklahoma","countyFips":"125","facilityCarried":"D3342 (6374C)","featuresIntersected":"S. CANADIAN RIVER","location":"3.S 1.W OF  WANETTE","lat":35.0875,"lon":-97.142222,"lowestRating":4,"yearBuilt":1906,"adt":250,"conditionCategory":"poor","structurallyDeficient":true,"materialName":"Steel","designTypeName":"Truss - Thru","lengthFt":79.5,"maxSpanFt":26},{"id":"PA-000000000036452","state":"PA","stateName":"Pennsylvania","countyFips":"129","facilityCarried":"SR 1060","featuresIntersected":"KISKIMINETAS & NS R/R","location":"SALINA BRIDGE","lat":41.321667,"lon":-80.575278,"lowestRating":3,"yearBuilt":1906,"adt":398,"conditionCategory":"poor","structurallyDeficient":true,"materialName":"Steel","designTypeName":"Truss - Thru","lengthFt":66.9,"maxSpanFt":22},{"id":"TN-33L35660001","state":"TN","stateName":"Tennessee","countyFips":"065","facilityCarried":"FAU 3566","featuresIntersected":"INACTIVE NS RR SPUR","location":"IN DOWNTOWN CHATTANOOGA","lat":35.651667,"lon":-86.773333,"lowestRating":4,"yearBuilt":1906,"adt":2659,"conditionCategory":"poor","structurallyDeficient":true,"materialName":"Steel","designTypeName":"Girder and Floorbeam","lengthFt":97.7,"maxSpanFt":9.8},{"id":"DC-0029","state":"DC","stateName":"District of Columbia","countyFips":"001","facilityCarried":"CONNECTICUT AVENUE","featuresIntersected":"ROCK CREEK & POTOMAC PKW","location":"OVER ROCK CREEK  N.W.","lat":39.416667,"lon":-77.082778,"lowestRating":6,"yearBuilt":1907,"adt":28000,"conditionCategory":"fair","structurallyDeficient":false,"materialName":"Concrete Continuous","designTypeName":"Arch - Deck","lengthFt":110.5,"maxSpanFt":17.8},{"id":"DC-0529","state":"DC","stateName":"District of Columbia","countyFips":"001","facilityCarried":"H STREET","featuresIntersected":"WASHINGTON TERMINAL YARD","location":"H STREET OVER RAILROAD","lat":38.921667,"lon":-77.293611,"lowestRating":4,"yearBuilt":1907,"adt":14300,"conditionCategory":"poor","structurallyDeficient":true,"materialName":"Steel","designTypeName":"Girder and Floorbeam","lengthFt":144.2,"maxSpanFt":14.2},{"id":"KS-999907001050311","state":"KS","stateName":"Kansas","countyFips":"209","facilityCarried":"I-70 EB HIGHWAY","featuresIntersected":"KANSAS RIVER 3 RR 5 ST","location":"0.34 MILES W MO ST LINE","lat":40.405556,"lon":-96.1,"lowestRating":4,"yearBuilt":1907,"adt":20800,"conditionCategory":"poor","structurallyDeficient":true,"materialName":"Steel","designTypeName":"Truss - Deck","lengthFt":375,"maxSpanFt":30},{"id":"MA-B11005308DOTNBI","state":"MA","stateName":"Massachusetts","countyFips":"009","facilityCarried":"HWY   KERNWOOD AVE","featuresIntersected":"WATER DANVERS RIVER","location":"AT DANVERS RIVER","lat":43.503611,"lon":-72.384722,"lowestRating":3,"yearBuilt":1907,"adt":4714,"conditionCategory":"poor","structurallyDeficient":true,"materialName":"Wood or Timber","designTypeName":"Stringer/Multi-beam or Girder","lengthFt":75.5,"maxSpanFt":1.5},{"id":"ME-0484","state":"ME","stateName":"Maine","countyFips":"021","facilityCarried":"TRESTLE ROAD","featuresIntersected":"PISCATAQUIS RIVER","location":"0.4 MI S MILO/HOWLAND RD","lat":45.325,"lon":-69.928056,"lowestRating":4,"yearBuilt":1907,"adt":103,"conditionCategory":"poor","structurallyDeficient":true,"materialName":"Steel","designTypeName":"Truss - Deck","lengthFt":60.7,"maxSpanFt":15.3},{"id":"MT-L09062002+06001","state":"MT","stateName":"Montana","countyFips":"017","facilityCarried":"TUSLER RD","featuresIntersected":"YELLOWSTONE RIVER    094","location":"9M NE MILES CITY","lat":48.0425,"lon":-107.098056,"lowestRating":5,"yearBuilt":1907,"adt":102,"conditionCategory":"fair","structurallyDeficient":false,"materialName":"Steel","designTypeName":"Truss - Thru","lengthFt":106.4,"maxSpanFt":26.6},{"id":"MT-L40042002+06001","state":"MT","stateName":"Montana","countyFips":"079","facilityCarried":"MILWAUKEE RD","featuresIntersected":"YELLOWSTONE RIVER    030","location":"4M SW TERRY","lat":48.022222,"lon":-106.6,"lowestRating":3,"yearBuilt":1907,"adt":54,"conditionCategory":"poor","structurallyDeficient":true,"materialName":"Steel","designTypeName":"Truss - Thru","lengthFt":107.8,"maxSpanFt":26.9},{"id":"NY-000000002240079","state":"NY","stateName":"New York","countyFips":"061","facilityCarried":"MADISON AVENUE","featuresIntersected":"RTE 907P  HARLEM RIVER","location":"OVER HARLEM RV IN HARLEM","lat":42.210556,"lon":-73.984444,"lowestRating":6,"yearBuilt":1907,"adt":39068,"conditionCategory":"fair","structurallyDeficient":false,"materialName":"Steel","designTypeName":"Movable - Swing","lengthFt":117.2,"maxSpanFt":15.4},{"id":"PA-000000000039074","state":"PA","stateName":"Pennsylvania","countyFips":"101","facilityCarried":"WALNUT LANE","featuresIntersected":"WISSAHICKON CREEK","location":"CHESTNUT HILL    3479 H05","lat":41.594722,"lon":-76.793056,"lowestRating":6,"yearBuilt":1907,"adt":16571,"conditionCategory":"fair","structurallyDeficient":false,"materialName":"Concrete","designTypeName":"Arch - Deck","lengthFt":56.5,"maxSpanFt":23.2},{"id":"PA-CEPLRPPA8110704","state":"PA","stateName":"Pennsylvania","countyFips":"063","facilityCarried":"MAINT/ACCESS ROAD","featuresIntersected":"Conemaugh River","location":"0.35 MI. DS FROM DAM","lat":41.615,"lon":-79.470556,"lowestRating":4,"yearBuilt":1907,"adt":30,"conditionCategory":"poor","structurallyDeficient":true,"materialName":"Masonry","designTypeName":"Arch - Deck","lengthFt":53,"maxSpanFt":8},{"id":"TN-470A1350001","state":"TN","stateName":"Tennessee","countyFips":"093","facilityCarried":"FAU 5673","featuresIntersected":"W CLINCH AVE/WORLD FAIR","location":"AT THE WORLD PARK SITE","lat":37.168611,"lon":-84.596944,"lowestRating":5,"yearBuilt":1907,"adt":3063,"conditionCategory":"fair","structurallyDeficient":false,"materialName":"Concrete","designTypeName":"Tee Beam","lengthFt":75.7,"maxSpanFt":5},{"id":"MN-5756","state":"MN","stateName":"Minnesota","countyFips":"053","facilityCarried":"M 1612","featuresIntersected":"MINNEHAHA CREEK","location":"0.1 MI E OF JCT MHAHA A","lat":46.147222,"lon":-93.8925,"lowestRating":5,"yearBuilt":1908,"adt":200,"conditionCategory":"fair","structurallyDeficient":false,"materialName":"Steel","designTypeName":"Arch - Deck","lengthFt":62.4,"maxSpanFt":28.8},{"id":"NY-000000002247300","state":"NY","stateName":"New York","countyFips":"081","facilityCarried":"THOMSON AVENUE","featuresIntersected":"AMTRAK  YARD  LONG ISLAN","location":"IN LONG ISLAND CITY","lat":41.991944,"lon":-74.66,"lowestRating":6,"yearBuilt":1908,"adt":32619,"conditionCategory":"fair","structurallyDeficient":false,"materialName":"Steel Continuous","designTypeName":"Stringer/Multi-beam or Girder","lengthFt":77.1,"maxSpanFt":7.2},{"id":"CA-53C0545","state":"CA","stateName":"California","countyFips":"037","facilityCarried":"NORTH BROADWAY","featuresIntersected":"LA RIV BNSF UPRR METRO","location":"0.3 MI WEST INTERSTATE 5","lat":34.568056,"lon":-119.265,"lowestRating":5,"yearBuilt":1909,"adt":23648,"conditionCategory":"fair","structurallyDeficient":false,"materialName":"Concrete Continuous","designTypeName":"Arch - Deck","lengthFt":86.1,"maxSpanFt":13.1},{"id":"IA-000000000077850","state":"IA","stateName":"Iowa","countyFips":"015","facilityCarried":"FM","featuresIntersected":"DES MOINES RIVER","location":"084272705","lat":43.316667,"lon":-94.359722,"lowestRating":0,"yearBuilt":1909,"adt":80,"conditionCategory":"poor","structurallyDeficient":true,"materialName":"Steel","designTypeName":"Truss - Thru","lengthFt":70.3,"maxSpanFt":20},{"id":"ID-000000000030920","state":"ID","stateName":"Idaho","countyFips":"079","facilityCarried":"STC 5711;MOON PASS","featuresIntersected":"SQUAW CREEK","location":"3.5 N. 1.6 E. AVERY","lat":47.458333,"lon":-116.297222,"lowestRating":5,"yearBuilt":1909,"adt":360,"conditionCategory":"fair","structurallyDeficient":false,"materialName":"Steel","designTypeName":"Stringer/Multi-beam or Girder","lengthFt":51.7,"maxSpanFt":9},{"id":"MD-100000210001010","state":"MD","stateName":"Maryland","countyFips":"043","facilityCarried":"US 11","featuresIntersected":"POTOMAC RIVER  CSX TRANS","location":"ON WEST VIRGINIA ST LINE","lat":41.224167,"lon":-78.779444,"lowestRating":5,"yearBuilt":1909,"adt":6761,"conditionCategory":"fair","structurallyDeficient":false,"materialName":"Steel","designTypeName":"Stringer/Multi-beam or Girder","lengthFt":170.1,"maxSpanFt":10},{"id":"NY-000000002066720","state":"NY","stateName":"New York","countyFips":"005","facilityCarried":"174TH STREET","featuresIntersected":"RTE I895  BRONX RIVER  A","location":"JCT I95 & I278","lat":41.04,"lon":-75.408611,"lowestRating":4,"yearBuilt":1909,"adt":11653,"conditionCategory":"poor","structurallyDeficient":true,"materialName":"Steel","designTypeName":"Truss - Thru","lengthFt":74.1,"maxSpanFt":19},{"id":"NY-000000002240027","state":"NY","stateName":"New York","countyFips":"061","facilityCarried":"RTE 27","featuresIntersected":"278IX  FDR DRIVE  CHERRY","location":"RTE 27 OVER EAST RIVER","lat":41.658889,"lon":-74.844167,"lowestRating":5,"yearBuilt":1909,"adt":null,"conditionCategory":"fair","structurallyDeficient":false,"materialName":"Steel","designTypeName":"Suspension","lengthFt":581.5,"maxSpanFt":147},{"id":"NY-000000002240028","state":"NY","stateName":"New York","countyFips":"061","facilityCarried":"RTE 27","featuresIntersected":"278IX  FDR DRIVE  CHERRY","location":"RTE 27 OVER EAST RIVER","lat":41.667778,"lon":-74.863333,"lowestRating":5,"yearBuilt":1909,"adt":43477,"conditionCategory":"fair","structurallyDeficient":false,"materialName":"Steel","designTypeName":"Suspension","lengthFt":611.9,"maxSpanFt":147},{"id":"NY-000000002240047","state":"NY","stateName":"New York","countyFips":"061","facilityCarried":"RTE 25","featuresIntersected":"21ST STREET  22ND STREET","location":"QUEENSBORO BR OVR EAST RV","lat":41.657222,"lon":-74.89,"lowestRating":6,"yearBuilt":1909,"adt":108144,"conditionCategory":"fair","structurallyDeficient":false,"materialName":"Steel","designTypeName":"Truss - Thru","lengthFt":675,"maxSpanFt":63},{"id":"NY-000000002240048","state":"NY","stateName":"New York","countyFips":"061","facilityCarried":"RTE 25","featuresIntersected":"25 25 04011004","location":"QUEENSBORO BR OVER EAST R","lat":41.376667,"lon":-74.285833,"lowestRating":6,"yearBuilt":1909,"adt":86098,"conditionCategory":"fair","structurallyDeficient":false,"materialName":"Steel","designTypeName":"Truss - Thru","lengthFt":537.1,"maxSpanFt":63},{"id":"NY-000000004000950","state":"NY","stateName":"New York","countyFips":"091","facilityCarried":"RTE 4","featuresIntersected":"HUDSON RIVER & CANAL","location":"0.15 MI W of JCT RTE 4 AN","lat":43.278056,"lon":-74.266667,"lowestRating":4,"yearBuilt":1909,"adt":12161,"conditionCategory":"poor","structurallyDeficient":true,"materialName":"Steel","designTypeName":"Truss - Thru","lengthFt":74.3,"maxSpanFt":20},{"id":"PA-000000000014532","state":"PA","stateName":"Pennsylvania","countyFips":"043","facilityCarried":"MULBERRY ST","featuresIntersected":"SR 0230 AMTRAK  NSRC","location":"MULBERRY STREET","lat":41.318056,"lon":-77.878056,"lowestRating":5,"yearBuilt":1909,"adt":9447,"conditionCategory":"fair","structurallyDeficient":false,"materialName":"Concrete","designTypeName":"Arch - Deck","lengthFt":160.1,"maxSpanFt":10.1},{"id":"TX-142270B00425007","state":"TX","stateName":"Texas","countyFips":"453","facilityCarried":"S CONGRESS AVE","featuresIntersected":"LADY BIRD LAKE","location":"0.1 MI S OF CESAR CHAVEZ","lat":31.240833,"lon":-98.976389,"lowestRating":6,"yearBuilt":1909,"adt":34580,"conditionCategory":"fair","structurallyDeficient":false,"materialName":"Prestressed Concrete","designTypeName":"Box Beam - Multiple","lengthFt":95.4,"maxSpanFt":11.9},{"id":"WV-00000000002A182","state":"WV","stateName":"West Virginia","countyFips":"003","facilityCarried":"US 11","featuresIntersected":"Potomac River  CSX","location":"On WV/MD state Line","lat":39.603056,"lon":-79.201944,"lowestRating":5,"yearBuilt":1909,"adt":6761,"conditionCategory":"fair","structurallyDeficient":false,"materialName":"Steel","designTypeName":"Stringer/Multi-beam or Girder","lengthFt":170.1,"maxSpanFt":11.8},{"id":"AK-0206","state":"AK","stateName":"Alaska","countyFips":"063","facilityCarried":"COPPER RIVER HWY","featuresIntersected":"MILLION DOLLAR BRIDGE","location":"MILE POINT 48.8","lat":61.3075,"lon":-145.986667,"lowestRating":4,"yearBuilt":1910,"adt":65,"conditionCategory":"poor","structurallyDeficient":true,"materialName":"Steel","designTypeName":"Truss - Thru","lengthFt":156.7,"maxSpanFt":45},{"id":"AK-0397","state":"AK","stateName":"Alaska","countyFips":"066","facilityCarried":"EDGERTON/MCCARTHY","featuresIntersected":"KUSKULANA RIVER","location":"MILE POINT 50.6","lat":62.038889,"lon":-145.555556,"lowestRating":6,"yearBuilt":1910,"adt":70,"conditionCategory":"fair","structurallyDeficient":false,"materialName":"Steel","designTypeName":"Truss - Deck","lengthFt":77.5,"maxSpanFt":23},{"id":"AL-021483","state":"AL","stateName":"Alabama","countyFips":"113","facilityCarried":"DILLINGHAM STREET","featuresIntersected":"CHATTAHOOCHEE RIVER","location":"GA-ALA ST LN-W COLUMBUS","lat":33.798889,"lon":-86.428056,"lowestRating":6,"yearBuilt":1910,"adt":4140,"conditionCategory":"fair","structurallyDeficient":false,"materialName":"Concrete","designTypeName":"Arch - Deck","lengthFt":70,"maxSpanFt":14},{"id":"GA-000000021501270","state":"GA","stateName":"Georgia","countyFips":"215","facilityCarried":"DILLINGHAM STREET","featuresIntersected":"CHATTAHOOCHEE RIVER","location":"GA-ALA ST LN-W COLUMBUS","lat":33.798889,"lon":-86.428056,"lowestRating":6,"yearBuilt":1910,"adt":4140,"conditionCategory":"fair","structurallyDeficient":false,"materialName":"Concrete","designTypeName":"Arch - Deck","lengthFt":70,"maxSpanFt":14},{"id":"IL-060600200000000","state":"IL","stateName":"Illinois","countyFips":"119","facilityCarried":"SALISBURY ST/FAU91","featuresIntersected":"MISS RIVER","location":"VENICE","lat":40.160556,"lon":-91.756667,"lowestRating":5,"yearBuilt":1910,"adt":14300,"conditionCategory":"fair","structurallyDeficient":false,"materialName":"Steel","designTypeName":"Truss - Thru","lengthFt":573.3,"maxSpanFt":52.3},{"id":"MN-6544","state":"MN","stateName":"Minnesota","countyFips":"137","facilityCarried":"MN 39","featuresIntersected":"ST LOUIS RIVER","location":"0.9 MI E OF JCT TH 23","lat":47.323333,"lon":-92.366111,"lowestRating":5,"yearBuilt":1910,"adt":3474,"conditionCategory":"fair","structurallyDeficient":false,"materialName":"Steel","designTypeName":"Movable - Swing","lengthFt":188.9,"maxSpanFt":15},{"id":"MO-32776","state":"MO","stateName":"Missouri","countyFips":"510","facilityCarried":"SALISBURY ST","featuresIntersected":"MISSISSIPPI RVR","location":"S 1005 T 45 N R 7 E","lat":40.1325,"lon":-90.468611,"lowestRating":5,"yearBuilt":1910,"adt":10000,"conditionCategory":"fair","structurallyDeficient":false,"materialName":"Steel Continuous","designTypeName":"Truss - Thru","lengthFt":573.3,"maxSpanFt":51.7},{"id":"NY-000000001016560","state":"NY","stateName":"New York","countyFips":"119","facilityCarried":"RTE 22","featuresIntersected":"RYE LAKE OUTLET","location":"3.7 MI N JCT SH 22 & I287","lat":41.866667,"lon":-75.201667,"lowestRating":6,"yearBuilt":1910,"adt":12022,"conditionCategory":"fair","structurallyDeficient":false,"materialName":"Concrete","designTypeName":"Arch - Deck","lengthFt":92.6,"maxSpanFt":13},{"id":"NY-000000002247310","state":"NY","stateName":"New York","countyFips":"081","facilityCarried":"RTE 25","featuresIntersected":"Metro Transit Aut  LIRR-","location":"AT SUNNYSIDE YARD","lat":42.233889,"lon":-74.27,"lowestRating":8,"yearBuilt":1910,"adt":37781,"conditionCategory":"good","structurallyDeficient":false,"materialName":"Steel","designTypeName":"Stringer/Multi-beam or Girder","lengthFt":103.6,"maxSpanFt":8.4},{"id":"NY-000000002247320","state":"NY","stateName":"New York","countyFips":"081","facilityCarried":"HONEYWELL STREET","featuresIntersected":"SUNNYSIDE YARD","location":"IN SUNNYSIDE","lat":42.298889,"lon":-75.286389,"lowestRating":8,"yearBuilt":1910,"adt":1,"conditionCategory":"good","structurallyDeficient":false,"materialName":"Steel","designTypeName":"Stringer/Multi-beam or Girder","lengthFt":157.2,"maxSpanFt":9.6},{"id":"NY-000000002247330","state":"NY","stateName":"New York","countyFips":"081","facilityCarried":"39TH STREET","featuresIntersected":"AMTRAK/LIRR COACH YARD","location":"IN SUNNYSIDE","lat":40.874722,"lon":-74.719722,"lowestRating":8,"yearBuilt":1910,"adt":13815,"conditionCategory":"good","structurallyDeficient":false,"materialName":"Steel Continuous","designTypeName":"Stringer/Multi-beam or Girder","lengthFt":74.5,"maxSpanFt":9},{"id":"NY-000000004310090","state":"NY","stateName":"New York","countyFips":"057","facilityCarried":"COUNTY ROAD 27","featuresIntersected":"Maintenance Access  Acce","location":"S TRIBES HILL/N.FT HUNTER","lat":44.019444,"lon":-74.748889,"lowestRating":5,"yearBuilt":1910,"adt":2218,"conditionCategory":"fair","structurallyDeficient":false,"materialName":"Steel","designTypeName":"Truss - Thru","lengthFt":69,"maxSpanFt":24.6},{"id":"OR-02757 000000000","state":"OR","stateName":"Oregon","countyFips":"051","facilityCarried":"HAWTHORNE AVE","featuresIntersected":"WILLAMETTE RIVER","location":"WILLAMETTE RIVER MP 13.2","lat":46.821111,"lon":-123.095,"lowestRating":5,"yearBuilt":1910,"adt":32243,"conditionCategory":"fair","structurallyDeficient":false,"materialName":"Steel","designTypeName":"Movable - Lift","lengthFt":138.3,"maxSpanFt":25.1},{"id":"OR-06683 01WX00036","state":"OR","stateName":"Oregon","countyFips":"051","facilityCarried":"HWY 1W  (STEEL BR)","featuresIntersected":"WILLAMETTE RIVER","location":"0.4 MI NE PORTLAND CC","lat":46.612222,"lon":-122.906667,"lowestRating":4,"yearBuilt":1910,"adt":10362,"conditionCategory":"poor","structurallyDeficient":true,"materialName":"Steel","designTypeName":"Truss - Thru","lengthFt":78.5,"maxSpanFt":28.8},{"id":"PA-000000000014743","state":"PA","stateName":"Pennsylvania","countyFips":"043","facilityCarried":"MULBERRY ST RAMP","featuresIntersected":"S 10TH ST PAXTON CREEK","location":"PXTN C/S 10TH/MUL RMP/HBG","lat":41.393333,"lon":-77.587222,"lowestRating":6,"yearBuilt":1910,"adt":2000,"conditionCategory":"fair","structurallyDeficient":false,"materialName":"Concrete","designTypeName":"Arch - Deck","lengthFt":58.4,"maxSpanFt":9.4},{"id":"WA-085050000000000","state":"WA","stateName":"Washington","countyFips":"033","facilityCarried":"4TH AVE S","featuresIntersected":"RAILROAD STATION","location":"4th Ave S & Jackson St","lat":49,"lon":-123.566667,"lowestRating":5,"yearBuilt":1910,"adt":13500,"conditionCategory":"fair","structurallyDeficient":false,"materialName":"Concrete Continuous","designTypeName":"Slab","lengthFt":117.8,"maxSpanFt":3.1},{"id":"WA-085053000000000","state":"WA","stateName":"Washington","countyFips":"033","facilityCarried":"5TH AVE S","featuresIntersected":"ST TUNNEL","location":"5th Ave S SO S Jackson St","lat":49.027778,"lon":-123.427778,"lowestRating":6,"yearBuilt":1910,"adt":8000,"conditionCategory":"fair","structurallyDeficient":false,"materialName":"Concrete","designTypeName":"Slab","lengthFt":94,"maxSpanFt":3},{"id":"WA-088301000000000","state":"WA","stateName":"Washington","countyFips":"033","facilityCarried":"4TH AVE S","featuresIntersected":"PARKING GARAGE","location":"4th Ave S & Jackson St","lat":48.975,"lon":-123.538889,"lowestRating":3,"yearBuilt":1910,"adt":27000,"conditionCategory":"poor","structurallyDeficient":true,"materialName":"Concrete","designTypeName":"Tee Beam","lengthFt":117.8,"maxSpanFt":3.5},{"id":"WI-B16075500000000","state":"WI","stateName":"Wisconsin","countyFips":"031","facilityCarried":"STH 105-UNION ST","featuresIntersected":"ST LOUIS RIVER","location":"AT MINNESOTA STATE LINE","lat":47.288333,"lon":-92.978056,"lowestRating":5,"yearBuilt":1910,"adt":2205,"conditionCategory":"fair","structurallyDeficient":false,"materialName":"Steel","designTypeName":"Stringer/Multi-beam or Girder","lengthFt":190.5,"maxSpanFt":15},{"id":"CA-04 0134","state":"CA","stateName":"California","countyFips":"023","facilityCarried":"STATE ROUTE 211","featuresIntersected":"EEL RIVER","location":"01-HUM-211-78.10","lat":41.587222,"lon":-124.741667,"lowestRating":3,"yearBuilt":1911,"adt":5300,"conditionCategory":"poor","structurallyDeficient":true,"materialName":"Concrete Continuous","designTypeName":"Arch - Deck","lengthFt":240.8,"maxSpanFt":19.5},{"id":"CA-22C0153","state":"CA","stateName":"California","countyFips":"113","facilityCarried":"\"I\" STREET","featuresIntersected":"SACRAMENTO UP BNSF AMTRA","location":"AT SACRAMENTO CO. LINE","lat":38.918333,"lon":-122.316111,"lowestRating":5,"yearBuilt":1911,"adt":4938,"conditionCategory":"fair","structurallyDeficient":false,"materialName":"Steel","designTypeName":"Movable - Swing","lengthFt":85.4,"maxSpanFt":39},{"id":"IA-000000000003700","state":"IA","stateName":"Iowa","countyFips":"153","facilityCarried":"WALNUT ST","featuresIntersected":"DES MOINES RIVER","location":"078240400","lat":41.973889,"lon":-93.777778,"lowestRating":3,"yearBuilt":1911,"adt":3844,"conditionCategory":"poor","structurallyDeficient":true,"materialName":"Concrete Continuous","designTypeName":"Arch - Deck","lengthFt":50.3,"maxSpanFt":7.5},{"id":"NY-000000002247640","state":"NY","stateName":"New York","countyFips":"081","facilityCarried":"39TH STREET S","featuresIntersected":"AMTRAK & LIRRYARD","location":"IN SUNNYSIDE","lat":42.295278,"lon":-74.765833,"lowestRating":7,"yearBuilt":1911,"adt":13815,"conditionCategory":"good","structurallyDeficient":false,"materialName":"Steel Continuous","designTypeName":"Stringer/Multi-beam or Girder","lengthFt":52.7,"maxSpanFt":7.9},{"id":"TX-180570000911079","state":"TX","stateName":"Texas","countyFips":"113","facilityCarried":"Houston St.","featuresIntersected":"IH 30 & Trinity River","location":"1.8 Mi W of IH 45","lat":33.079167,"lon":-97.693333,"lowestRating":5,"yearBuilt":1911,"adt":3050,"conditionCategory":"fair","structurallyDeficient":false,"materialName":"Steel","designTypeName":"Stringer/Multi-beam or Girder","lengthFt":477.4,"maxSpanFt":10.3},{"id":"WA-0005452A0000000","state":"WA","stateName":"Washington","countyFips":"053","facilityCarried":"E 11TH ST","featuresIntersected":"CITY WATERWAY    CS2749","location":"E 11TH ST JCT I-705","lat":47.645556,"lon":-124.0575,"lowestRating":6,"yearBuilt":1911,"adt":3100,"conditionCategory":"fair","structurallyDeficient":false,"materialName":"Steel","designTypeName":"Movable - Lift","lengthFt":174.8,"maxSpanFt":22.1},{"id":"WA-0006069A0000000","state":"WA","stateName":"Washington","countyFips":"053","facilityCarried":"STATE ROUTE 509","featuresIntersected":"PUYALLUP WATERWAY RR","location":"2.5 N JCT I-5","lat":48.305556,"lon":-122.722222,"lowestRating":3,"yearBuilt":1911,"adt":2400,"conditionCategory":"poor","structurallyDeficient":true,"materialName":"Steel","designTypeName":"Truss - Thru","lengthFt":57.2,"maxSpanFt":16.1},{"id":"WA-085295000000000","state":"WA","stateName":"Washington","countyFips":"063","facilityCarried":"MONROE STREET","featuresIntersected":"SPOKANE RIVER","location":"00.60 N OF I-90","lat":48.73,"lon":-118.4075,"lowestRating":8,"yearBuilt":1911,"adt":18453,"conditionCategory":"good","structurallyDeficient":false,"materialName":"Concrete Continuous","designTypeName":"Arch - Deck","lengthFt":89.3,"maxSpanFt":28.1},{"id":"AZ-08157","state":"AZ","stateName":"Arizona","countyFips":"017","facilityCarried":"Obed Rd","featuresIntersected":"Little Colorado River","location":"1.33 mi S Jct Old US 66","lat":35.65,"lon":-111.04,"lowestRating":7,"yearBuilt":1912,"adt":160,"conditionCategory":"good","structurallyDeficient":false,"materialName":"Steel","designTypeName":"Truss - Thru","lengthFt":50.1,"maxSpanFt":8.7},{"id":"FL-900020","state":"FL","stateName":"Florida","countyFips":"087","facilityCarried":"PIGEON KEY ACCESS","featuresIntersected":"KNIGHT CHANNEL","location":"MARATHON KEY (MM 47)","lat":25.284444,"lon":-81.698889,"lowestRating":4,"yearBuilt":1912,"adt":null,"conditionCategory":"poor","structurallyDeficient":true,"materialName":"Steel","designTypeName":"Girder and Floorbeam","lengthFt":1048,"maxSpanFt":8},{"id":"IA-000000000001280","state":"IA","stateName":"Iowa","countyFips":"113","facilityCarried":"3RD AVE SE (EB)","featuresIntersected":"CEDAR RIVER","location":"083072805","lat":42.801389,"lon":-92.099167,"lowestRating":4,"yearBuilt":1912,"adt":1610,"conditionCategory":"poor","structurallyDeficient":true,"materialName":"Concrete Continuous","designTypeName":"Arch - Deck","lengthFt":66,"maxSpanFt":10.6},{"id":"IN-029150","state":"IN","stateName":"Indiana","countyFips":"157","facilityCarried":"SR 225","featuresIntersected":"WABASH RIVER","location":"00.60 N OLD SR 25","lat":41.729722,"lon":-87.478889,"lowestRating":3,"yearBuilt":1912,"adt":1153,"conditionCategory":"poor","structurallyDeficient":true,"materialName":"Steel","designTypeName":"Truss - Thru","lengthFt":64.2,"maxSpanFt":15.8},{"id":"MN-90249","state":"MN","stateName":"Minnesota","countyFips":"071","facilityCarried":"US 53","featuresIntersected":"RAINY RIVER","location":"0.3 MI N OF JCT TH 11","lat":49.308611,"lon":-93.613056,"lowestRating":4,"yearBuilt":1912,"adt":703,"conditionCategory":"poor","structurallyDeficient":true,"materialName":"Steel","designTypeName":"Truss - Thru","lengthFt":94.1,"maxSpanFt":18.4},{"id":"NE-C007522105","state":"NE","stateName":"Nebraska","countyFips":"149","facilityCarried":"ASPEN AVENUE","featuresIntersected":"NIOBRARA RIVER","location":"6E N7 KEYA PAHA CL","lat":44.35,"lon":-100.95,"lowestRating":4,"yearBuilt":1912,"adt":35,"conditionCategory":"poor","structurallyDeficient":true,"materialName":"Steel","designTypeName":"Truss - Thru","lengthFt":56.9,"maxSpanFt":17.5},{"id":"OR-06757 000000000","state":"OR","stateName":"Oregon","countyFips":"051","facilityCarried":"BROADWAY ST","featuresIntersected":"WILLAMETTE RIVER","location":"WILLAMETTE RIVER MP 11.7","lat":47.005,"lon":-123.468889,"lowestRating":6,"yearBuilt":1912,"adt":30871,"conditionCategory":"fair","structurallyDeficient":false,"materialName":"Steel","designTypeName":"Movable - Bascule","lengthFt":174.2,"maxSpanFt":30.4},{"id":"PA-000000000002419","state":"PA","stateName":"Pennsylvania","countyFips":"003","facilityCarried":"LARIMER AV","featuresIntersected":"WASHINGTON BLVD (RT 8)","location":"047 Larimer Ave over Wash","lat":40.550833,"lon":-80.776944,"lowestRating":4,"yearBuilt":1912,"adt":8000,"conditionCategory":"poor","structurallyDeficient":true,"materialName":"Concrete","designTypeName":"Arch - Deck","lengthFt":54.8,"maxSpanFt":30},{"id":"CA-11C0196","state":"CA","stateName":"California","countyFips":"021","facilityCarried":"ROAD 99W","featuresIntersected":"STONY CREEK","location":"1.3 MI N OF S.H. 32","lat":41.306944,"lon":-123.521667,"lowestRating":4,"yearBuilt":1913,"adt":4157,"conditionCategory":"poor","structurallyDeficient":true,"materialName":"Concrete","designTypeName":"Arch - Deck","lengthFt":118.7,"maxSpanFt":10.7},{"id":"CA-53C0107","state":"CA","stateName":"California","countyFips":"037","facilityCarried":"COLORADO BLVD","featuresIntersected":"ARROYO BLVD / ARROYO S","location":"0.5MI E/O SAN RAFAEL AVE","lat":35.2525,"lon":-118.244167,"lowestRating":7,"yearBuilt":1913,"adt":10600,"conditionCategory":"good","structurallyDeficient":false,"materialName":"Concrete","designTypeName":"Arch - Deck","lengthFt":144.2,"maxSpanFt":22.3},{"id":"CT-01138","state":"CT","stateName":"Connecticut","countyFips":"007","facilityCarried":"ROUTE 82","featuresIntersected":"CONNECTICUT RIVER","location":"0.1 MILE WEST OF RTE. 149","lat":41.618056,"lon":-73.888611,"lowestRating":3,"yearBuilt":1913,"adt":11800,"conditionCategory":"poor","structurallyDeficient":true,"materialName":"Steel","designTypeName":"Movable - Swing","lengthFt":88.5,"maxSpanFt":46.1},{"id":"NY-000000002241890","state":"NY","stateName":"New York","countyFips":"005","facilityCarried":"EAST 241ST STREET","featuresIntersected":"METRO-NORTH-COMMUTER  Br","location":"AT WAKEFIELD","lat":41.524722,"lon":-74.500833,"lowestRating":5,"yearBuilt":1913,"adt":11164,"conditionCategory":"fair","structurallyDeficient":false,"materialName":"Steel","designTypeName":"Stringer/Multi-beam or Girder","lengthFt":99.6,"maxSpanFt":9},{"id":"NY-000000004415090","state":"NY","stateName":"New York","countyFips":"091","facilityCarried":"BR. TO PEEBLES IS","featuresIntersected":"ERIE BARGE CANAL  CANAL","location":"WATERFORD @ E1 & ERIE C","lat":43.045833,"lon":-74.956667,"lowestRating":5,"yearBuilt":1913,"adt":962,"conditionCategory":"fair","structurallyDeficient":false,"materialName":"Steel","designTypeName":"Truss - Thru","lengthFt":67,"maxSpanFt":16.1},{"id":"NY-000000007712790","state":"NY","stateName":"New York","countyFips":"119","facilityCarried":"WESTERLY ROAD","featuresIntersected":"WESTERLY ROAD WAY  MNRR","location":"IN OSSINING","lat":42.364167,"lon":-74.138333,"lowestRating":4,"yearBuilt":1913,"adt":836,"conditionCategory":"poor","structurallyDeficient":true,"materialName":"Steel Continuous","designTypeName":"Stringer/Multi-beam or Girder","lengthFt":51.6,"maxSpanFt":10.8},{"id":"OH-5835712","state":"OH","stateName":"Ohio","countyFips":"115","facilityCarried":"COUNTY ROAD 203","featuresIntersected":"MUSKINGUM RIVER","location":"MCCONNELSVILLE VILLAGE","lat":41.096944,"lon":-82.723056,"lowestRating":3,"yearBuilt":1913,"adt":8919,"conditionCategory":"poor","structurallyDeficient":true,"materialName":"Steel","designTypeName":"Truss - Thru","lengthFt":56.6,"maxSpanFt":20.3},{"id":"OR-02728 210 00013","state":"OR","stateName":"Oregon","countyFips":"003","facilityCarried":"HWY 210  EB","featuresIntersected":"Willamette River","location":"001 E HWY 31 & 210 JCT","lat":46.093056,"lon":-123.903333,"lowestRating":4,"yearBuilt":1913,"adt":9913,"conditionCategory":"poor","structurallyDeficient":true,"materialName":"Steel","designTypeName":"Truss - Thru","lengthFt":71.3,"maxSpanFt":17.3},{"id":"PA-000000000005221","state":"PA","stateName":"Pennsylvania","countyFips":"011","facilityCarried":"US422BUS (LR 149)","featuresIntersected":"SCH.RIVER;STREETS;NOR/FO","location":"PENN ST BRIDGE","lat":40.537778,"lon":-76.225833,"lowestRating":6,"yearBuilt":1913,"adt":23812,"conditionCategory":"fair","structurallyDeficient":false,"materialName":"Concrete","designTypeName":"Arch - Deck","lengthFt":109.1,"maxSpanFt":11},{"id":"PA-000000000023331","state":"PA","stateName":"Pennsylvania","countyFips":"077","facilityCarried":"SR 2055(LR158SP A)","featuresIntersected":"LEHIGH CRK  CITY STREETS","location":"ALBERTUS MEYERS BRIDGE","lat":41.862778,"lon":-75.900556,"lowestRating":6,"yearBuilt":1913,"adt":17492,"conditionCategory":"fair","structurallyDeficient":false,"materialName":"Concrete","designTypeName":"Arch - Deck","lengthFt":179.3,"maxSpanFt":13.5},{"id":"PA-000000000035024","state":"PA","stateName":"Pennsylvania","countyFips":"125","facilityCarried":"SR 2067","featuresIntersected":"NS R/R  MON   CITY ST","location":"OLD BROWNSVILLE BRIDGE","lat":40.579167,"lon":-80.523889,"lowestRating":5,"yearBuilt":1913,"adt":2688,"conditionCategory":"fair","structurallyDeficient":false,"materialName":"Steel","designTypeName":"Truss - Thru","lengthFt":94.5,"maxSpanFt":52},{"id":"VA-000000000021583","state":"VA","stateName":"Virginia","countyFips":"760","facilityCarried":"14TH STREET","featuresIntersected":"JAMES RIVER SOUTH DIV  @","location":".07 FR 2ND & .54 TO 60 EB","lat":38.535833,"lon":-77.5975,"lowestRating":4,"yearBuilt":1913,"adt":17082,"conditionCategory":"poor","structurallyDeficient":true,"materialName":"Concrete","designTypeName":"Arch - Deck","lengthFt":84.1,"maxSpanFt":10.1},{"id":"VA-000000000021584","state":"VA","stateName":"Virginia","countyFips":"760","facilityCarried":"14TH STREET","featuresIntersected":"JAMES RIVER NORTH DIV  @","location":".28 FR 2ND & .33 TO 60 EB","lat":38.85,"lon":-77.48,"lowestRating":4,"yearBuilt":1913,"adt":17082,"conditionCategory":"poor","structurallyDeficient":true,"materialName":"Concrete","designTypeName":"Arch - Deck","lengthFt":53.3,"maxSpanFt":8.9},{"id":"WA-085428000000000","state":"WA","stateName":"Washington","countyFips":"063","facilityCarried":"SUNSET BOULEVARD","featuresIntersected":"LATAH CREEK","location":"1.74 W OF US 2","lat":49.274722,"lon":-118.8875,"lowestRating":4,"yearBuilt":1913,"adt":14995,"conditionCategory":"poor","structurallyDeficient":true,"materialName":"Concrete Continuous","designTypeName":"Arch - Deck","lengthFt":107,"maxSpanFt":15},{"id":"CA-20C0037","state":"CA","stateName":"California","countyFips":"097","facilityCarried":"RIVER RD","featuresIntersected":"RUSSIAN RIVER","location":"5.31 MI INTX WITH SR 116","lat":39.3575,"lon":-124.034444,"lowestRating":4,"yearBuilt":1914,"adt":10000,"conditionCategory":"poor","structurallyDeficient":true,"materialName":"Steel","designTypeName":"Truss - Thru","lengthFt":53.1,"maxSpanFt":20},{"id":"KY-117C00072N","state":"KY","stateName":"Kentucky","countyFips":"233","facilityCarried":"Veterans Walk of H","featuresIntersected":"Tradewater River","location":"0.2 MI S JCT KY2089","lat":38.794444,"lon":-88.461111,"lowestRating":2,"yearBuilt":1914,"adt":22,"conditionCategory":"poor","structurallyDeficient":true,"materialName":"Steel","designTypeName":"Girder and Floorbeam","lengthFt":53,"maxSpanFt":8.8},{"id":"NY-000000002224410","state":"NY","stateName":"New York","countyFips":"111","facilityCarried":"RESERVOIR ROAD","featuresIntersected":"ASHOKAN RESERVOIR","location":"2.3 MI NE JCT NY28A+NY213","lat":42.143611,"lon":-75.037778,"lowestRating":4,"yearBuilt":1914,"adt":1600,"conditionCategory":"poor","structurallyDeficient":true,"materialName":"Concrete Continuous","designTypeName":"Arch - Deck","lengthFt":116.3,"maxSpanFt":7.4},{"id":"NY-000000004036250","state":"NY","stateName":"New York","countyFips":"093","facilityCarried":"RTE 103","featuresIntersected":"ERIE CANAL - LOCK 9  MOH","location":"JCT RTE 103 & ERIE CANAL","lat":43.948056,"lon":-74.974444,"lowestRating":5,"yearBuilt":1914,"adt":2741,"conditionCategory":"fair","structurallyDeficient":false,"materialName":"Steel","designTypeName":"Truss - Thru","lengthFt":81.1,"maxSpanFt":21.7},{"id":"OH-1869817","state":"OH","stateName":"Ohio","countyFips":"035","facilityCarried":"EAST 55TH STREET","featuresIntersected":"NS & GCRTA MAINT YARD","location":"S OF WOODLAND AVE-E 55","lat":42.833056,"lon":-81.798889,"lowestRating":6,"yearBuilt":1914,"adt":9363,"conditionCategory":"fair","structurallyDeficient":false,"materialName":"Steel Continuous","designTypeName":"Stringer/Multi-beam or Girder","lengthFt":58.6,"maxSpanFt":14.5},{"id":"OH-4860004","state":"OH","stateName":"Ohio","countyFips":"095","facilityCarried":"CHERRY STREET","featuresIntersected":"MAUMEE RIVER AND WATER S","location":"E. OF SUMMIT","lat":41.763889,"lon":-84.478889,"lowestRating":6,"yearBuilt":1914,"adt":18850,"conditionCategory":"fair","structurallyDeficient":false,"materialName":"Steel","designTypeName":"Movable - Bascule","lengthFt":123.8,"maxSpanFt":24.4},{"id":"OR-00841 125 02003","state":"OR","stateName":"Oregon","countyFips":"051","facilityCarried":"Hwy 100","featuresIntersected":"Viaduct","location":"0.3 MI E MULTNOMAH FALLS","lat":46.828889,"lon":-123.188056,"lowestRating":5,"yearBuilt":1914,"adt":781,"conditionCategory":"fair","structurallyDeficient":false,"materialName":"Concrete Continuous","designTypeName":"Slab","lengthFt":86.1,"maxSpanFt":1},{"id":"PA-000000000024451","state":"PA","stateName":"Pennsylvania","countyFips":"079","facilityCarried":"BROADWAY STREET","featuresIntersected":"SUSQUEHANNA RIVER","location":"AT US 11/PA29 INTERSECT.","lat":42.697222,"lon":-76.338056,"lowestRating":4,"yearBuilt":1914,"adt":9300,"conditionCategory":"poor","structurallyDeficient":true,"materialName":"Steel","designTypeName":"Truss - Thru","lengthFt":192.2,"maxSpanFt":30},{"id":"PA-000000000024453","state":"PA","stateName":"Pennsylvania","countyFips":"079","facilityCarried":"WATER STREET","featuresIntersected":"SUSQ RIV / LUZ & SUSQ RR","location":"PITTSTON / WEST PITTSTON","lat":42.106667,"lon":-76.745556,"lowestRating":2,"yearBuilt":1914,"adt":8665,"conditionCategory":"poor","structurallyDeficient":true,"materialName":"Steel","designTypeName":"Truss - Thru","lengthFt":101.6,"maxSpanFt":20.2},{"id":"TX-022200001401325","state":"TX","stateName":"Texas","countyFips":"439","facilityCarried":"BU 287P(N MAIN ST)","featuresIntersected":"TRINITY RIVER","location":"0.2 MI N WEATHERFORD ST.","lat":33.613333,"lon":-97.383889,"lowestRating":5,"yearBuilt":1914,"adt":10352,"conditionCategory":"fair","structurallyDeficient":false,"materialName":"Concrete","designTypeName":"Arch - Deck","lengthFt":126.8,"maxSpanFt":22.5},{"id":"TX-121020B41697003","state":"TX","stateName":"Texas","countyFips":"201","facilityCarried":"MAIN ST","featuresIntersected":"BUFFALO & WHITE OAK BYU","location":"0.2 MI S OF IH 10","lat":31.140278,"lon":-96.275833,"lowestRating":6,"yearBuilt":1914,"adt":15160,"conditionCategory":"fair","structurallyDeficient":false,"materialName":"Concrete","designTypeName":"Arch - Deck","lengthFt":127.5,"maxSpanFt":17},{"id":"AL-000090","state":"AL","stateName":"Alabama","countyFips":"073","facilityCarried":"21ST STREET","featuresIntersected":"MORRIS AVE * RR","location":"21ST ST- 1ST S TO 1ST N","lat":34.746389,"lon":-87.046667,"lowestRating":3,"yearBuilt":1915,"adt":13000,"conditionCategory":"poor","structurallyDeficient":true,"materialName":"Concrete","designTypeName":"Tee Beam","lengthFt":96.2,"maxSpanFt":5.2},{"id":"AL-000091","state":"AL","stateName":"Alabama","countyFips":"073","facilityCarried":"22ND STREET","featuresIntersected":"MORRIS AVE * RR","location":"22ND ST- 1ST S TO 1ST N","lat":35.031389,"lon":-87.058889,"lowestRating":3,"yearBuilt":1915,"adt":14000,"conditionCategory":"poor","structurallyDeficient":true,"materialName":"Concrete","designTypeName":"Tee Beam","lengthFt":71.5,"maxSpanFt":5.6},{"id":"CA-08C0057","state":"CA","stateName":"California","countyFips":"103","facilityCarried":"BELLE MILL RD","featuresIntersected":"PAYNES CREEK SLOUGH","location":"ROYAL DRIVE","lat":40.460556,"lon":-123.529167,"lowestRating":4,"yearBuilt":1915,"adt":1373,"conditionCategory":"poor","structurallyDeficient":true,"materialName":"Concrete Continuous","designTypeName":"Girder and Floorbeam","lengthFt":50,"maxSpanFt":5},{"id":"CA-24 0001L","state":"CA","stateName":"California","countyFips":"067","facilityCarried":"ST RTE 160 WB  LRT","featuresIntersected":"AMERICAN RIVER","location":"03-SAC-160-R44.47-SAC","lat":39.841944,"lon":-122.525833,"lowestRating":4,"yearBuilt":1915,"adt":26500,"conditionCategory":"poor","structurallyDeficient":true,"materialName":"Concrete","designTypeName":"Arch - Deck","lengthFt":62,"maxSpanFt":13.3},{"id":"CA-29 0045","state":"CA","stateName":"California","countyFips":"077","facilityCarried":"STATE ROUTE 4","featuresIntersected":"OLD RIVER","location":"10-SJ-004-0.01","lat":38.575278,"lon":-121.864722,"lowestRating":4,"yearBuilt":1915,"adt":8200,"conditionCategory":"poor","structurallyDeficient":true,"materialName":"Steel","designTypeName":"Movable - Swing","lengthFt":52.8,"maxSpanFt":13.2},{"id":"CA-29 0049","state":"CA","stateName":"California","countyFips":"077","facilityCarried":"STATE ROUTE 4","featuresIntersected":"MIDDLE RIVER","location":"10-SJ-004-4.42","lat":38.668611,"lon":-122.153611,"lowestRating":5,"yearBuilt":1915,"adt":7200,"conditionCategory":"fair","structurallyDeficient":false,"materialName":"Steel","designTypeName":"Truss - Thru","lengthFt":54.5,"maxSpanFt":12.9},{"id":"CA-44C0007","state":"CA","stateName":"California","countyFips":"053","facilityCarried":"LOCKWOOD SAN LUCAS","featuresIntersected":"SALINAS RIVER","location":"0.1 MI W OF US 101","lat":37.712778,"lon":-122.303333,"lowestRating":4,"yearBuilt":1915,"adt":530,"conditionCategory":"poor","structurallyDeficient":true,"materialName":"Steel","designTypeName":"Truss - Thru","lengthFt":86,"maxSpanFt":13.1},{"id":"CA-57C0596","state":"CA","stateName":"California","countyFips":"073","facilityCarried":"LAUREL ST","featuresIntersected":"STATE ROUTE 163","location":"0.2 MI E/O 6TH AVE","lat":34.1875,"lon":-117.739167,"lowestRating":7,"yearBuilt":1915,"adt":3539,"conditionCategory":"good","structurallyDeficient":false,"materialName":"Concrete","designTypeName":"Arch - Deck","lengthFt":76.8,"maxSpanFt":6.8},{"id":"IA-000000000003980","state":"IA","stateName":"Iowa","countyFips":"153","facilityCarried":"SW 7TH ST","featuresIntersected":"RACCOON R & TRAIL","location":"000000000","lat":42.225833,"lon":-94.078889,"lowestRating":5,"yearBuilt":1915,"adt":7253,"conditionCategory":"fair","structurallyDeficient":false,"materialName":"Concrete Continuous","designTypeName":"Arch - Deck","lengthFt":79.9,"maxSpanFt":12.2},{"id":"MO-25397","state":"MO","stateName":"Missouri","countyFips":"095","facilityCarried":"12TH ST","featuresIntersected":"HICKORY ST  BEARDSLEY","location":"S 6 T 49 N R 33 W","lat":39.152222,"lon":-96.038611,"lowestRating":6,"yearBuilt":1915,"adt":9496,"conditionCategory":"fair","structurallyDeficient":false,"materialName":"Concrete","designTypeName":"Tee Beam","lengthFt":205.4,"maxSpanFt":14.9},{"id":"NE-C005661710","state":"NE","stateName":"Nebraska","countyFips":"111","facilityCarried":"FAS 1475","featuresIntersected":"NORTH PLATTE RIVER","location":"JCT US30/N25 .6E 3.7N","lat":42.21,"lon":-101.19,"lowestRating":4,"yearBuilt":1915,"adt":180,"conditionCategory":"poor","structurallyDeficient":true,"materialName":"Concrete","designTypeName":"Arch - Deck","lengthFt":79.5,"maxSpanFt":5},{"id":"OH-2500663","state":"OH","stateName":"Ohio","countyFips":"049","facilityCarried":"US 23","featuresIntersected":"OVER CONV CTR CONN & NSR","location":"0.53 MI N OF US40","lat":40.546944,"lon":-84.383889,"lowestRating":7,"yearBuilt":1915,"adt":30128,"conditionCategory":"good","structurallyDeficient":false,"materialName":"Steel Continuous","designTypeName":"Stringer/Multi-beam or Girder","lengthFt":53.6,"maxSpanFt":8.4},{"id":"OH-5050103","state":"OH","stateName":"Ohio","countyFips":"099","facilityCarried":"MAHONING AVE.","featuresIntersected":"MILTON RESERVOIR","location":"0.2MI.W OF S.E. RIVER RD.","lat":42.198889,"lon":-82.243056,"lowestRating":6,"yearBuilt":1915,"adt":3370,"conditionCategory":"fair","structurallyDeficient":false,"materialName":"Steel Continuous","designTypeName":"Stringer/Multi-beam or Girder","lengthFt":83.2,"maxSpanFt":16},{"id":"PA-000000000002457","state":"PA","stateName":"Pennsylvania","countyFips":"003","facilityCarried":"FRAZIER ST","featuresIntersected":"CSX/AV RR  SALINE ST","location":"110 SWINBURNE BRIDGE","lat":41.422222,"lon":-80.008889,"lowestRating":4,"yearBuilt":1915,"adt":6000,"conditionCategory":"poor","structurallyDeficient":true,"materialName":"Steel","designTypeName":"Girder and Floorbeam","lengthFt":59.9,"maxSpanFt":7.5},{"id":"CA-22C0152","state":"CA","stateName":"California","countyFips":"113","facilityCarried":"OLD RIVER ROAD","featuresIntersected":"SACRAMENTO BYPASS (WEIR)","location":"0.8 MI OF I-80 BRIDGE","lat":38.889444,"lon":-122.103056,"lowestRating":6,"yearBuilt":1916,"adt":2889,"conditionCategory":"fair","structurallyDeficient":false,"materialName":"Concrete","designTypeName":"Stringer/Multi-beam or Girder","lengthFt":200.3,"maxSpanFt":5},{"id":"CA-38C0023","state":"CA","stateName":"California","countyFips":"099","facilityCarried":"SEVENTH STREET","featuresIntersected":"TUOLUMNE RIVER","location":"SOUTH TUOLUMNE BLVD","lat":38.538611,"lon":-121.985278,"lowestRating":5,"yearBuilt":1916,"adt":16815,"conditionCategory":"fair","structurallyDeficient":false,"materialName":"Concrete Continuous","designTypeName":"Arch - Deck","lengthFt":117,"maxSpanFt":10.1},{"id":"CA-53C0032","state":"CA","stateName":"California","countyFips":"037","facilityCarried":"VALLEY BLVD","featuresIntersected":"SAN GABRIEL RIV","location":"0.1MI W/O I-605 FWY","lat":34.580556,"lon":-118.560278,"lowestRating":4,"yearBuilt":1916,"adt":60420,"conditionCategory":"poor","structurallyDeficient":true,"materialName":"Steel","designTypeName":"Stringer/Multi-beam or Girder","lengthFt":94.3,"maxSpanFt":8.2},{"id":"MD-200000BC5210010","state":"MD","stateName":"Maryland","countyFips":"510","facilityCarried":"HANOVER STREET","featuresIntersected":"MIDDLE BRANCH","location":"0.5 MI S OF I 95","lat":40.346111,"lon":-78.110556,"lowestRating":4,"yearBuilt":1916,"adt":14220,"conditionCategory":"poor","structurallyDeficient":true,"materialName":"Steel","designTypeName":"Movable - Bascule","lengthFt":202.3,"maxSpanFt":22.9},{"id":"MN-4260","state":"MN","stateName":"Minnesota","countyFips":"169","facilityCarried":"M 154","featuresIntersected":"N CHANNEL MISS RIVER","location":"MUN 154 OVER MISS RIVER","lat":45.0175,"lon":-93.201111,"lowestRating":5,"yearBuilt":1916,"adt":40,"conditionCategory":"fair","structurallyDeficient":false,"materialName":"Concrete Continuous","designTypeName":"Arch - Deck","lengthFt":122,"maxSpanFt":7.2},{"id":"NY-000000002221890","state":"NY","stateName":"New York","countyFips":"089","facilityCarried":"LAFAYETTE SPRG ST","featuresIntersected":"OSWEGATCHIE RIVER","location":"IN OGDENSBURG","lat":45.354167,"lon":-76.587222,"lowestRating":5,"yearBuilt":1916,"adt":3876,"conditionCategory":"fair","structurallyDeficient":false,"materialName":"Concrete Continuous","designTypeName":"Arch - Deck","lengthFt":59.7,"maxSpanFt":13.7},{"id":"NY-000000004001020","state":"NY","stateName":"New York","countyFips":"091","facilityCarried":"RTE 4","featuresIntersected":"HUDSON RIVER and CANAL","location":"0.2 MI N JCT RTES 4 & 32","lat":44.278611,"lon":-74.028056,"lowestRating":4,"yearBuilt":1916,"adt":4252,"conditionCategory":"poor","structurallyDeficient":true,"materialName":"Steel","designTypeName":"Truss - Thru","lengthFt":53,"maxSpanFt":22.5},{"id":"OH-3136337","state":"OH","stateName":"Ohio","countyFips":"061","facilityCarried":"HOPPLE STREET","featuresIntersected":"SPRG GRV&MILL CK(HOPPLE)","location":".4MI W OF I75&HOPPLE OPAS","lat":39.541944,"lon":-85.613056,"lowestRating":5,"yearBuilt":1916,"adt":24189,"conditionCategory":"fair","structurallyDeficient":false,"materialName":"Prestressed Concrete","designTypeName":"Stringer/Multi-beam or Girder","lengthFt":192.6,"maxSpanFt":7.8},{"id":"OR-01377A001 30838","state":"OR","stateName":"Oregon","countyFips":"051","facilityCarried":"Hwy 001 NB","featuresIntersected":"Columbia River","location":"AT INTERSTATE BRIDGE","lat":45.753889,"lon":-123.5275,"lowestRating":4,"yearBuilt":1916,"adt":57550,"conditionCategory":"poor","structurallyDeficient":true,"materialName":"Steel","designTypeName":"Movable - Lift","lengthFt":353.8,"maxSpanFt":27.9},{"id":"OR-04517 01WX00511","state":"OR","stateName":"Oregon","countyFips":"051","facilityCarried":"Hwy 091","featuresIntersected":"Columbia Slough","location":"5.1 MI N OF PORTLAND CC","lat":46.22,"lon":-123.05,"lowestRating":5,"yearBuilt":1916,"adt":13343,"conditionCategory":"fair","structurallyDeficient":false,"materialName":"Steel","designTypeName":"Girder and Floorbeam","lengthFt":68.3,"maxSpanFt":7.8},{"id":"PA-000000000010081","state":"PA","stateName":"Pennsylvania","countyFips":"029","facilityCarried":"BLACK ROCK ROAD","featuresIntersected":"SCHUYLKILL RIVER","location":"BLACK ROCK BRIDGE    8E13","lat":41.038889,"lon":-76.690833,"lowestRating":5,"yearBuilt":1916,"adt":7076,"conditionCategory":"fair","structurallyDeficient":false,"materialName":"Concrete","designTypeName":"Arch - Deck","lengthFt":55.4,"maxSpanFt":11},{"id":"WA-000000PR0000000","state":"WA","stateName":"Washington","countyFips":"011","facilityCarried":"I-5","featuresIntersected":"COLUMBIA RIVER","location":"OREGON LINE","lat":45.753889,"lon":-123.5275,"lowestRating":5,"yearBuilt":1916,"adt":57550,"conditionCategory":"fair","structurallyDeficient":false,"materialName":"Steel","designTypeName":"Movable - Lift","lengthFt":353.8,"maxSpanFt":27.9},{"id":"WV-00000000010A126","state":"WV","stateName":"West Virginia","countyFips":"019","facilityCarried":"CR 25/2 & RJC RR","featuresIntersected":"NEW RIVER","location":"0.10 Miles E. of CR 25","lat":38.556111,"lon":-82.293889,"lowestRating":4,"yearBuilt":1916,"adt":225,"conditionCategory":"poor","structurallyDeficient":true,"materialName":"Steel","designTypeName":"Truss - Thru","lengthFt":82.6,"maxSpanFt":22.6},{"id":"CA-24C0067","state":"CA","stateName":"California","countyFips":"067","facilityCarried":"GREENBACK LANE","featuresIntersected":"AMERICAN RIVER","location":"0.2 MI E FOLSOM-AUBURN RD","lat":40.175556,"lon":-122.027222,"lowestRating":7,"yearBuilt":1917,"adt":25000,"conditionCategory":"good","structurallyDeficient":false,"materialName":"Concrete","designTypeName":"Arch - Deck","lengthFt":51.1,"maxSpanFt":20.8},{"id":"IN-8500640","state":"IN","stateName":"Indiana","countyFips":"169","facilityCarried":"HUNTINGTON ST","featuresIntersected":"WABASH RIVER","location":"00.20 N OF LAFONTAINE","lat":41.822778,"lon":-87.406944,"lowestRating":6,"yearBuilt":1917,"adt":1990,"conditionCategory":"fair","structurallyDeficient":false,"materialName":"Concrete","designTypeName":"Arch - Deck","lengthFt":69.5,"maxSpanFt":10},{"id":"MN-2440","state":"MN","stateName":"Minnesota","countyFips":"053","facilityCarried":"MN 65","featuresIntersected":"MISS RVR; MAIN; W RVR PK","location":"0.3 MI NE OF JCT TH 952A","lat":44.991667,"lon":-94.135833,"lowestRating":6,"yearBuilt":1917,"adt":14500,"conditionCategory":"fair","structurallyDeficient":false,"materialName":"Concrete","designTypeName":"Arch - Deck","lengthFt":188.8,"maxSpanFt":23.7},{"id":"MO-25478","state":"MO","stateName":"Missouri","countyFips":"095","facilityCarried":"GREGORY BLVD","featuresIntersected":"UP RR  BIG BLUE RVR","location":"S 11 T 48 N R 33 W","lat":40.336667,"lon":-95.826667,"lowestRating":4,"yearBuilt":1917,"adt":8358,"conditionCategory":"poor","structurallyDeficient":true,"materialName":"Concrete Continuous","designTypeName":"Arch - Deck","lengthFt":70,"maxSpanFt":14},{"id":"NY-000000002246550","state":"NY","stateName":"New York","countyFips":"061","facilityCarried":"PARK AVE. VIADUCT","featuresIntersected":"42ND STREET  41ST STREET","location":"MIDTOWN MANHATTAN","lat":40.961111,"lon":-75.064722,"lowestRating":4,"yearBuilt":1917,"adt":22713,"conditionCategory":"poor","structurallyDeficient":true,"materialName":"Steel","designTypeName":"Girder and Floorbeam","lengthFt":65.8,"maxSpanFt":22.4},{"id":"NY-000000004434140","state":"NY","stateName":"New York","countyFips":"075","facilityCarried":"MINETTO BRIDGE RD","featuresIntersected":"RTE 48  OSWEGO CANAL","location":"AT MINETTO; OSWEGO RIVER","lat":44.880556,"lon":-76.839722,"lowestRating":6,"yearBuilt":1917,"adt":3527,"conditionCategory":"fair","structurallyDeficient":false,"materialName":"Steel Continuous","designTypeName":"Stringer/Multi-beam or Girder","lengthFt":80.1,"maxSpanFt":15},{"id":"OH-1800930","state":"OH","stateName":"Ohio","countyFips":"035","facilityCarried":"USR 6","featuresIntersected":"CUY. RIVER & RTA","location":"DETROIT/SUPERIOR BRIDGE","lat":42.343056,"lon":-82.318889,"lowestRating":5,"yearBuilt":1917,"adt":20094,"conditionCategory":"fair","structurallyDeficient":false,"materialName":"Steel","designTypeName":"Arch - Thru","lengthFt":265.6,"maxSpanFt":59.1},{"id":"OH-1869280","state":"OH","stateName":"Ohio","countyFips":"035","facilityCarried":"CLARK-QUIGLEY RAMP","featuresIntersected":"INDUSTRIAL FLATS WEST","location":"W OFF QUIGLEY RD (FLATS)","lat":41.81,"lon":-82.15,"lowestRating":5,"yearBuilt":1917,"adt":4106,"conditionCategory":"fair","structurallyDeficient":false,"materialName":"Steel","designTypeName":"Stringer/Multi-beam or Girder","lengthFt":98.1,"maxSpanFt":8},{"id":"PA-000000000005308","state":"PA","stateName":"Pennsylvania","countyFips":"011","facilityCarried":"POPLAR NECK ROAD","featuresIntersected":"SCHUYLKILL RIVER","location":"NW OF PA 724/I-176 INTER.","lat":40.525278,"lon":-76.47,"lowestRating":4,"yearBuilt":1917,"adt":1086,"conditionCategory":"poor","structurallyDeficient":true,"materialName":"Concrete","designTypeName":"Arch - Deck","lengthFt":55,"maxSpanFt":9.1},{"id":"TN-33SR0080007","state":"TN","stateName":"Tennessee","countyFips":"065","facilityCarried":"FAU 8","featuresIntersected":"TN RIVER & FAU 5395","location":"MARKET STREET BRIDGE","lat":35.705,"lon":-86.26,"lowestRating":4,"yearBuilt":1917,"adt":26697,"conditionCategory":"poor","structurallyDeficient":true,"materialName":"Steel","designTypeName":"Movable - Bascule","lengthFt":200,"maxSpanFt":35.9},{"id":"IN-6500200","state":"IN","stateName":"Indiana","countyFips":"129","facilityCarried":"WILSEY RD","featuresIntersected":"BLACK RIVER","location":"01.26 E S MAIN ST","lat":38.228889,"lon":-88.695,"lowestRating":0,"yearBuilt":1918,"adt":281,"conditionCategory":"poor","structurallyDeficient":true,"materialName":"Steel","designTypeName":"Truss - Thru","lengthFt":66,"maxSpanFt":17.8},{"id":"MA-L040022PTMUNNBI","state":"MA","stateName":"Massachusetts","countyFips":"009","facilityCarried":"HWY   AMESBURY ST","featuresIntersected":"COMB  MERIMAC RIV/ACCESS","location":"AT MERRIMACK RIVER","lat":43.034722,"lon":-72.184722,"lowestRating":5,"yearBuilt":1918,"adt":25000,"conditionCategory":"fair","structurallyDeficient":false,"materialName":"Concrete","designTypeName":"Arch - Deck","lengthFt":149.7,"maxSpanFt":10.7},{"id":"NE-S026 01367R","state":"NE","stateName":"Nebraska","countyFips":"157","facilityCarried":"FAS 1037","featuresIntersected":"NORTH PLATTE RIVER","location":"1S OF MITCHELL","lat":43.02,"lon":-105.17,"lowestRating":5,"yearBuilt":1918,"adt":745,"conditionCategory":"fair","structurallyDeficient":false,"materialName":"Concrete","designTypeName":"Arch - Deck","lengthFt":64.4,"maxSpanFt":5.4},{"id":"PA-000000000027721","state":"PA","stateName":"Pennsylvania","countyFips":"091","facilityCarried":"FAYETTE STREET","featuresIntersected":"SCHUYKILL RIVER NSRC","location":"CONSHOHOCKEN 3368A09","lat":40.473611,"lon":-76.225,"lowestRating":5,"yearBuilt":1918,"adt":40702,"conditionCategory":"fair","structurallyDeficient":false,"materialName":"Prestressed Concrete Continuous","designTypeName":"Stringer/Multi-beam or Girder","lengthFt":130.5,"maxSpanFt":12.6},{"id":"CT-01843","state":"CT","stateName":"Connecticut","countyFips":"001","facilityCarried":"ROUTE 34","featuresIntersected":"HOUSATONIC RIVER","location":"1 MILE EAST OF JCT RT 111","lat":41.386667,"lon":-73.661389,"lowestRating":4,"yearBuilt":1919,"adt":9400,"conditionCategory":"poor","structurallyDeficient":true,"materialName":"Concrete","designTypeName":"Tee Beam","lengthFt":98.3,"maxSpanFt":6},{"id":"MN-6313","state":"MN","stateName":"Minnesota","countyFips":"137","facilityCarried":"MN 23","featuresIntersected":"ST LOUIS RIVER","location":"AT WIS STATE LINE","lat":47.546111,"lon":-92.303889,"lowestRating":5,"yearBuilt":1919,"adt":1650,"conditionCategory":"fair","structurallyDeficient":false,"materialName":"Concrete Continuous","designTypeName":"Arch - Deck","lengthFt":68,"maxSpanFt":12.6},{"id":"OK-007250000000000","state":"OK","stateName":"Oklahoma","countyFips":"063","facilityCarried":"N3804","featuresIntersected":"S. CANADIAN RIVER","location":"1NE OF CALVIN","lat":35.9475,"lon":-96.955,"lowestRating":3,"yearBuilt":1919,"adt":50,"conditionCategory":"poor","structurallyDeficient":true,"materialName":"Steel","designTypeName":"Truss - Thru","lengthFt":76.7,"maxSpanFt":19},{"id":"OR-00332A271 00009","state":"OR","stateName":"Oregon","countyFips":"029","facilityCarried":"OR 99 (HWY 271)","featuresIntersected":"ROGUE RIVER-ROCKY POINT","location":"00.4 MI E HWY 060 JCT","lat":43.985833,"lon":-123.795833,"lowestRating":6,"yearBuilt":1919,"adt":2581,"conditionCategory":"fair","structurallyDeficient":false,"materialName":"Concrete","designTypeName":"Arch - Deck","lengthFt":50,"maxSpanFt":11.3},{"id":"CA-39 0217","state":"CA","stateName":"California","countyFips":"047","facilityCarried":"STATE ROUTE 165","featuresIntersected":"MERCED RIVER","location":"10-MER-165-30.29","lat":38.574444,"lon":-120.880833,"lowestRating":5,"yearBuilt":1920,"adt":7750,"conditionCategory":"fair","structurallyDeficient":false,"materialName":"Concrete Continuous","designTypeName":"Tee Beam","lengthFt":137.9,"maxSpanFt":5.2},{"id":"HI-007000560400573","state":"HI","stateName":"Hawaii","countyFips":"007","facilityCarried":"KUHIO HWY/PLAN.RD.","featuresIntersected":"WAILUA RIVER","location":"0.15 MI LEHO DR","lat":23.225833,"lon":-159.633889,"lowestRating":4,"yearBuilt":1920,"adt":31600,"conditionCategory":"poor","structurallyDeficient":true,"materialName":"Steel","designTypeName":"Truss - Thru","lengthFt":51,"maxSpanFt":6},{"id":"IA-000000000003770","state":"IA","stateName":"Iowa","countyFips":"153","facilityCarried":"UNIV AVE","featuresIntersected":"DES MOINES RIVER","location":"078240300","lat":41.636667,"lon":-95.128333,"lowestRating":5,"yearBuilt":1920,"adt":16294,"conditionCategory":"fair","structurallyDeficient":false,"materialName":"Concrete Continuous","designTypeName":"Arch - Deck","lengthFt":84.9,"maxSpanFt":17.3},{"id":"IA-000000000033490","state":"IA","stateName":"Iowa","countyFips":"113","facilityCarried":"IA 922-1ST AVE","featuresIntersected":"CEDAR RIVER","location":"0.2 MI. N OF I-380","lat":42.976389,"lon":-92.271111,"lowestRating":6,"yearBuilt":1920,"adt":13000,"conditionCategory":"fair","structurallyDeficient":false,"materialName":"Concrete Continuous","designTypeName":"Arch - Deck","lengthFt":69.7,"maxSpanFt":11.3},{"id":"IL-016612000000000","state":"IL","stateName":"Illinois","countyFips":"031","facilityCarried":"MICHIGAN AVE","featuresIntersected":"VARIOUS CITY STS","location":"100E 365N TO 530N","lat":42.71,"lon":-88.375278,"lowestRating":4,"yearBuilt":1920,"adt":24300,"conditionCategory":"poor","structurallyDeficient":true,"materialName":"Steel","designTypeName":"Stringer/Multi-beam or Girder","lengthFt":111.1,"maxSpanFt":4.1},{"id":"KY-036B00040N","state":"KY","stateName":"Kentucky","countyFips":"071","facilityCarried":"KY-2557","featuresIntersected":"Levisa Fork & Old US 23","location":"Justell @ JCT US 23","lat":38.327778,"lon":-82.661111,"lowestRating":4,"yearBuilt":1920,"adt":265,"conditionCategory":"poor","structurallyDeficient":true,"materialName":"Steel","designTypeName":"Truss - Thru","lengthFt":72.7,"maxSpanFt":20},{"id":"MD-200000BC1403010","state":"MD","stateName":"Maryland","countyFips":"510","facilityCarried":"CALVERT STREET","featuresIntersected":"I-83 AND AMTRAK","location":"0.06 MI E OF ST PAUL ST","lat":39.878611,"lon":-77.955,"lowestRating":6,"yearBuilt":1920,"adt":4644,"conditionCategory":"fair","structurallyDeficient":false,"materialName":"Steel","designTypeName":"Stringer/Multi-beam or Girder","lengthFt":65.6,"maxSpanFt":13.4},{"id":"MO-20779","state":"MO","stateName":"Missouri","countyFips":"131","facilityCarried":"SWINGING BR RD","featuresIntersected":"GRAND AUGLAIZE","location":"S 36 T 39 N R 15 W","lat":39.107778,"lon":-93.529444,"lowestRating":2,"yearBuilt":1920,"adt":250,"conditionCategory":"poor","structurallyDeficient":true,"materialName":"Steel Continuous","designTypeName":"Suspension","lengthFt":50,"maxSpanFt":41.4},{"id":"MO-25423","state":"MO","stateName":"Missouri","countyFips":"095","facilityCarried":"23RD ST","featuresIntersected":"KCT RR","location":"S 7 T 49 N R 33 W","lat":39.470833,"lon":-95.020556,"lowestRating":4,"yearBuilt":1920,"adt":3303,"conditionCategory":"poor","structurallyDeficient":true,"materialName":"Steel Continuous","designTypeName":"Girder and Floorbeam","lengthFt":170.8,"maxSpanFt":9.7},{"id":"MT-L04415000+01001","state":"MT","stateName":"Montana","countyFips":"007","facilityCarried":"HWY 287 BYPASS","featuresIntersected":"MISSOURI RIVER       019","location":"TOSTON","lat":46.685278,"lon":-112.468056,"lowestRating":3,"yearBuilt":1920,"adt":175,"conditionCategory":"poor","structurallyDeficient":true,"materialName":"Steel","designTypeName":"Truss - Thru","lengthFt":53.2,"maxSpanFt":17.5},{"id":"NC-000000001610628","state":"NC","stateName":"North Carolina","countyFips":"161","facilityCarried":"SR1306","featuresIntersected":"BROAD RIVER","location":"0.2 MI.N.JCT.US64 74","lat":36.340278,"lon":-82.256667,"lowestRating":4,"yearBuilt":1920,"adt":330,"conditionCategory":"poor","structurallyDeficient":true,"materialName":"Concrete","designTypeName":"Tee Beam","lengthFt":50.9,"maxSpanFt":4.1},{"id":"PA-000000000005035","state":"PA","stateName":"Pennsylvania","countyFips":"011","facilityCarried":"SR 2005 (LR 148)","featuresIntersected":"NORFOLK SOUTHERN RR","location":"BINGAMAN ST BRIDGE","lat":41.265,"lon":-77.483333,"lowestRating":5,"yearBuilt":1920,"adt":19564,"conditionCategory":"fair","structurallyDeficient":false,"materialName":"Concrete","designTypeName":"Arch - Deck","lengthFt":147.6,"maxSpanFt":11.4},{"id":"PA-000000000023518","state":"PA","stateName":"Pennsylvania","countyFips":"077","facilityCarried":"MAIN ST RAMP","featuresIntersected":"MONACACY CR.RR CONESTOGA","location":"CITY OF BETHLEHEM","lat":40.8225,"lon":-77.015,"lowestRating":5,"yearBuilt":1920,"adt":1000,"conditionCategory":"fair","structurallyDeficient":false,"materialName":"Concrete","designTypeName":"Arch - Deck","lengthFt":65.9,"maxSpanFt":12.9},{"id":"CA-20C0155","state":"CA","stateName":"California","countyFips":"097","facilityCarried":"WOHLER RD","featuresIntersected":"RUSSIAN RIVER","location":"1.5 MI FROM RIVER RD","lat":39.268333,"lon":-123.072222,"lowestRating":5,"yearBuilt":1921,"adt":828,"conditionCategory":"fair","structurallyDeficient":false,"materialName":"Steel","designTypeName":"Truss - Thru","lengthFt":75.8,"maxSpanFt":23},{"id":"CA-53C2033","state":"CA","stateName":"California","countyFips":"037","facilityCarried":"FOOTHILL BLVD","featuresIntersected":"N CHAN BIG TUJUNGA WASH","location":"0.9 MI E/O WHEATLAND AVE","lat":34.694722,"lon":-118.738333,"lowestRating":5,"yearBuilt":1921,"adt":8546,"conditionCategory":"fair","structurallyDeficient":false,"materialName":"Concrete","designTypeName":"Box Beam - Multiple","lengthFt":65,"maxSpanFt":5.5},{"id":"CT-00327","state":"CT","stateName":"Connecticut","countyFips":"009","facilityCarried":"US ROUTE 1","featuresIntersected":"HOUSATONIC RIVER","location":"AT STRATFORD TOWN LINE","lat":41.228889,"lon":-74.148611,"lowestRating":5,"yearBuilt":1921,"adt":16500,"conditionCategory":"fair","structurallyDeficient":false,"materialName":"Steel","designTypeName":"Movable - Bascule","lengthFt":87.7,"maxSpanFt":18.3},{"id":"HI-003008360800242","state":"HI","stateName":"Hawaii","countyFips":"003","facilityCarried":"KAM HWY","featuresIntersected":"HEEIA STRM","location":"0.39MI S/ULUMAU VILLAGE","lat":21.757778,"lon":-158.944444,"lowestRating":6,"yearBuilt":1921,"adt":4850,"conditionCategory":"fair","structurallyDeficient":false,"materialName":"Concrete Continuous","designTypeName":"Tee Beam","lengthFt":89.2,"maxSpanFt":1.7},{"id":"IL-016612100000000","state":"IL","stateName":"Illinois","countyFips":"031","facilityCarried":"MICHIGAN AVE","featuresIntersected":"VARIOUS CITY STREETS","location":"100E.& 340N.TO 200N.","lat":42.371389,"lon":-88.408889,"lowestRating":3,"yearBuilt":1921,"adt":24300,"conditionCategory":"poor","structurallyDeficient":true,"materialName":"Steel Continuous","designTypeName":"Stringer/Multi-beam or Girder","lengthFt":90.3,"maxSpanFt":4.8},{"id":"IL-016612800000000","state":"IL","stateName":"Illinois","countyFips":"031","facilityCarried":"CLARK ST","featuresIntersected":"UNUSED LAND","location":"200W.& 1200S.","lat":41.918889,"lon":-88.993056,"lowestRating":6,"yearBuilt":1921,"adt":11500,"conditionCategory":"fair","structurallyDeficient":false,"materialName":"Prestressed Concrete","designTypeName":"Slab","lengthFt":55.1,"maxSpanFt":7.8},{"id":"IL-016626200000000","state":"IL","stateName":"Illinois","countyFips":"031","facilityCarried":"HARRISON STREET","featuresIntersected":"UNION STATION TRACKS","location":"600S 360W TO 500W","lat":42.641944,"lon":-88.208056,"lowestRating":3,"yearBuilt":1921,"adt":5100,"conditionCategory":"poor","structurallyDeficient":true,"materialName":"Steel","designTypeName":"Stringer/Multi-beam or Girder","lengthFt":78,"maxSpanFt":5.5},{"id":"IL-016627500000000","state":"IL","stateName":"Illinois","countyFips":"031","facilityCarried":"ORLEANS ST","featuresIntersected":"KINZIE RR & MUNI STS","location":"340W 300N TO 400N","lat":42.5325,"lon":-87.996667,"lowestRating":6,"yearBuilt":1921,"adt":16550,"conditionCategory":"fair","structurallyDeficient":false,"materialName":"Steel Continuous","designTypeName":"Stringer/Multi-beam or Girder","lengthFt":58.4,"maxSpanFt":6.7},