{"total":1685,"good":768,"fair":784,"poor":133,"structurallyDeficient":133,"goodPct":45.6,"fairPct":46.5,"poorPct":7.9,"sdPct":7.9,"materials":{"Steel":854,"Prestressed Concrete":483,"Wood/Timber":295,"Concrete":36,"Metal (Other)":17},"designTypes":{"Stringer/Multi-beam or Girder":887,"Tee Beam":418,"Culvert":119,"Slab":80,"Box Beam - Multiple":67,"Truss - Thru":56,"Girder and Floorbeam":28,"Other":9,"Orthotropic":5,"Arch - Deck":4,"Truss - Deck":4,"Box Beam - Single/Spread":4,"Cable-Stayed":1,"Segmental Box Girder":1,"Channel Beam":1,"Frame":1},"ageDistribution":{"21-40 years":609,"0-20 years":405,"41-60 years":551,"80+ years":21,"61-80 years":99},"owners":{"State Highway Agency":864,"U.S. Forest Service":491,"City/Municipal":114,"Tribal":71,"County Highway Agency":62,"State Park/Forest":28,"Unknown":22,"National Park Service":13,"Bureau of Indian Affairs":7,"Other State":5,"Other Local":3,"Fish and Wildlife":2,"Railroad":1,"Bureau of Land Management":1,"Corps of Engineers":1},"avgAdt":1913,"totalDailyCrossings":2817839,"avgYearBuilt":1989,"oldestYear":1910,"newestYear":2023,"avgLengthFt":14.4,"ratingDistribution":{"0":4,"1":3,"2":9,"3":13,"4":104,"5":273,"6":511,"7":570,"8":154,"9":44},"state":"AK","stateName":"Alaska","countyCount":30,"cityCount":136,"topCounties":[{"fips":"198","total":234,"poor":16,"poorPct":6.8,"avgAdt":79},{"fips":"195","total":141,"poor":11,"poorPct":7.8,"avgAdt":102},{"fips":"020","total":134,"poor":1,"poorPct":0.7,"avgAdt":9943},{"fips":"105","total":125,"poor":19,"poorPct":15.2,"avgAdt":55},{"fips":"170","total":120,"poor":7,"poorPct":5.8,"avgAdt":2747},{"fips":"090","total":111,"poor":8,"poorPct":7.2,"avgAdt":3525},{"fips":"122","total":103,"poor":14,"poorPct":13.6,"avgAdt":1793},{"fips":"130","total":100,"poor":12,"poorPct":12.0,"avgAdt":1251},{"fips":"290","total":94,"poor":8,"poorPct":8.5,"avgAdt":255},{"fips":"063","total":66,"poor":5,"poorPct":7.6,"avgAdt":413},{"fips":"240","total":64,"poor":8,"poorPct":12.5,"avgAdt":319},{"fips":"275","total":58,"poor":4,"poorPct":6.9,"avgAdt":27},{"fips":"066","total":52,"poor":3,"poorPct":5.8,"avgAdt":318},{"fips":"110","total":47,"poor":1,"poorPct":2.1,"avgAdt":5194},{"fips":"220","total":37,"poor":1,"poorPct":2.7,"avgAdt":1926},{"fips":"180","total":30,"poor":2,"poorPct":6.7,"avgAdt":131},{"fips":"068","total":27,"poor":1,"poorPct":3.7,"avgAdt":1336},{"fips":"150","total":25,"poor":2,"poorPct":8.0,"avgAdt":742},{"fips":"100","total":20,"poor":1,"poorPct":5.0,"avgAdt":74},{"fips":"013","total":16,"poor":1,"poorPct":6.2,"avgAdt":77}],"worstBridges":[{"id":"AK-AFAKBTSG00703","state":"AK","stateName":"Alaska","countyFips":"090","facilityCarried":"NUC CIRCLE ROAD","featuresIntersected":"CREEK","location":"On Blair Lake Range. Con","lat":65.15,"lon":-148.072222,"lowestRating":0,"yearBuilt":1998,"adt":10,"conditionCategory":"poor","structurallyDeficient":true,"materialName":"Steel","designTypeName":"Stringer/Multi-beam or Girder","lengthFt":42.3},{"id":"AK-000000008PGH-39","state":"AK","stateName":"Alaska","countyFips":"122","facilityCarried":"IRR BIA RTE 8PGH","featuresIntersected":"UNNAMED CREEK","location":"15.4 Mi  SE of Port Graha","lat":60.033333,"lon":-151.861111,"lowestRating":0,"yearBuilt":1997,"adt":5,"conditionCategory":"poor","structurallyDeficient":true,"materialName":"Wood or Timber","designTypeName":"Stringer/Multi-beam or Girder","lengthFt":37.1},{"id":"AK-000000001048-20","state":"AK","stateName":"Alaska","countyFips":"122","facilityCarried":"IRR BIA RTE 1048","featuresIntersected":"WINDY CREEK RIGHT","location":"16.6 Mi SE of Port Graham","lat":60.655556,"lon":-152.938889,"lowestRating":0,"yearBuilt":1997,"adt":2,"conditionCategory":"poor","structurallyDeficient":true,"materialName":"Steel","designTypeName":"Stringer/Multi-beam or Girder","lengthFt":60.0},{"id":"AK-0000E03354T0580","state":"AK","stateName":"Alaska","countyFips":"185","facilityCarried":"IRR BIA RTE 002","featuresIntersected":"UNNAMED STREAM","location":"NUIQSUT","lat":71.845,"lon":-152.573889,"lowestRating":0,"yearBuilt":1980,"adt":null,"conditionCategory":"poor","structurallyDeficient":true,"materialName":"Steel","designTypeName":"Stringer/Multi-beam or Girder","lengthFt":40.7},{"id":"AK-0339","state":"AK","stateName":"Alaska","countyFips":"063","facilityCarried":"COPPER RIVER HWY","featuresIntersected":"COPPER DELTA","location":"MILE POINT 36.2","lat":60.559444,"lon":-145.693611,"lowestRating":1,"yearBuilt":1977,"adt":65,"conditionCategory":"poor","structurallyDeficient":true,"materialName":"Prestressed Concrete","designTypeName":"Tee Beam","lengthFt":400.9},{"id":"AK-000000001026-20","state":"AK","stateName":"Alaska","countyFips":"122","facilityCarried":"IRR BIA RTE 1026","featuresIntersected":"UNNAMED CREEK","location":"0.5 MI. N OF WINDY BAY RD","lat":60.838889,"lon":-152.886111,"lowestRating":1,"yearBuilt":1997,"adt":10,"conditionCategory":"poor","structurallyDeficient":true,"materialName":"Steel","designTypeName":"Stringer/Multi-beam or Girder","lengthFt":65.0},{"id":"AK-000000008PGH-37","state":"AK","stateName":"Alaska","countyFips":"122","facilityCarried":"IRR BIA RTE 8PGH","featuresIntersected":"UNNAMED CREEK","location":"14.5 Mi SE of Port Graham","lat":60.505556,"lon":-153.261111,"lowestRating":1,"yearBuilt":1997,"adt":5,"conditionCategory":"poor","structurallyDeficient":true,"materialName":"Wood or Timber","designTypeName":"Stringer/Multi-beam or Girder","lengthFt":39.0},{"id":"AK-0463","state":"AK","stateName":"Alaska","countyFips":"290","facilityCarried":"STERLING L/OPHIR","featuresIntersected":"TAKOTNA RIVER","location":"MILE POINT 21.8","lat":63.124444,"lon":-156.914722,"lowestRating":2,"yearBuilt":1941,"adt":45,"conditionCategory":"poor","structurallyDeficient":true,"materialName":"Steel","designTypeName":"Truss - Thru","lengthFt":254.9},{"id":"AK-1958","state":"AK","stateName":"Alaska","countyFips":"090","facilityCarried":"CACHE CREEK ROAD","featuresIntersected":"FORTUNE CREEK","location":"FAIRBANKS  DNR","lat":65.050278,"lon":-149.594444,"lowestRating":2,"yearBuilt":1991,"adt":30,"conditionCategory":"poor","structurallyDeficient":true,"materialName":"Steel","designTypeName":"Other","lengthFt":40.0},{"id":"AK-2128","state":"AK","stateName":"Alaska","countyFips":"170","facilityCarried":"GRUBSTAKE-HATCHERS","featuresIntersected":"WILLOW CREEK","location":"MILE POINT 0.1","lat":62.641111,"lon":-150.421389,"lowestRating":2,"yearBuilt":1945,"adt":10,"conditionCategory":"poor","structurallyDeficient":true,"materialName":"Steel","designTypeName":"Other","lengthFt":41.3},{"id":"AK-100521000010761","state":"AK","stateName":"Alaska","countyFips":"195","facilityCarried":"LOGGING ROAD","featuresIntersected":"STREAM","location":"KUPREANOF ISLAND AT KAKE","lat":57.55,"lon":-134.45,"lowestRating":2,"yearBuilt":2003,"adt":10,"conditionCategory":"poor","structurallyDeficient":true,"materialName":"Wood or Timber","designTypeName":"Stringer/Multi-beam or Girder","lengthFt":49.5},{"id":"AK-0000E02276T0750","state":"AK","stateName":"Alaska","countyFips":"050","facilityCarried":"IRR BIA RTE 1045","featuresIntersected":"UNNAMED STREAM","location":"0.2KM NW OF BARGE LANDING","lat":60.385,"lon":-164.483889,"lowestRating":2,"yearBuilt":1980,"adt":null,"conditionCategory":"poor","structurallyDeficient":true,"materialName":"Wood or Timber","designTypeName":"Truss - Thru","lengthFt":146.0},{"id":"AK-100320000001077","state":"AK","stateName":"Alaska","countyFips":"105","facilityCarried":"LOGGING ROAD","featuresIntersected":"STREAM","location":"SALT LAKE BAY","lat":58.17,"lon":-136.97,"lowestRating":2,"yearBuilt":2002,"adt":null,"conditionCategory":"poor","structurallyDeficient":true,"materialName":"Wood or Timber","designTypeName":"Stringer/Multi-beam or Girder","lengthFt":66.3},{"id":"AK-100320000001262","state":"AK","stateName":"Alaska","countyFips":"105","facilityCarried":"ROAD","featuresIntersected":"STREAM -1990","location":"EIGHT FATHOM BIGHT","lat":59.204444,"lon":-136.693056,"lowestRating":2,"yearBuilt":1990,"adt":null,"conditionCategory":"poor","structurallyDeficient":true,"materialName":"Steel","designTypeName":"Stringer/Multi-beam or Girder","lengthFt":60.0},{"id":"AK-100330000001284","state":"AK","stateName":"Alaska","countyFips":"100","facilityCarried":"LOGGING ROAD","featuresIntersected":"FIRST CREEK","location":"HOMESHORE","lat":58.923333,"lon":-135.577778,"lowestRating":2,"yearBuilt":1985,"adt":null,"conditionCategory":"poor","structurallyDeficient":true,"materialName":"Steel","designTypeName":"Stringer/Multi-beam or Girder","lengthFt":56.1},{"id":"AK-100532000003435","state":"AK","stateName":"Alaska","countyFips":"105","facilityCarried":"ROAD","featuresIntersected":"STREAM","location":"SALT LAKE BAY","lat":58.25,"lon":-135.75,"lowestRating":2,"yearBuilt":2002,"adt":null,"conditionCategory":"poor","structurallyDeficient":true,"materialName":"Wood or Timber","designTypeName":"Stringer/Multi-beam or Girder","lengthFt":50.5},{"id":"AK-4060","state":"AK","stateName":"Alaska","countyFips":"170","facilityCarried":"PARKS HIGHWAY","featuresIntersected":"HARDAGE CREEK","location":"MILE POINT 148.3","lat":63.181389,"lon":-150.911944,"lowestRating":3,"yearBuilt":1971,"adt":940,"conditionCategory":"poor","structurallyDeficient":true,"materialName":"Steel","designTypeName":"Culvert","lengthFt":25.9},{"id":"AK-4128","state":"AK","stateName":"Alaska","countyFips":"122","facilityCarried":"FOURTH AVENUE","featuresIntersected":"SEWARD LAGOON","location":"MILE POINT 0.5","lat":61.544444,"lon":-150.141667,"lowestRating":3,"yearBuilt":1960,"adt":500,"conditionCategory":"poor","structurallyDeficient":true,"materialName":"Steel","designTypeName":"Culvert","lengthFt":41.0},{"id":"AK-0000E09229T0230","state":"AK","stateName":"Alaska","countyFips":"198","facilityCarried":"IRR BIA RTE 26","featuresIntersected":"UNNAMED STREAM","location":"10.7KM PAST TOTEM WAY","lat":57.237222,"lon":-134.6675,"lowestRating":3,"yearBuilt":1980,"adt":20,"conditionCategory":"poor","structurallyDeficient":true,"materialName":"Wood or Timber","designTypeName":"Stringer/Multi-beam or Girder","lengthFt":36.1},{"id":"AK-000000001026-40","state":"AK","stateName":"Alaska","countyFips":"122","facilityCarried":"IRR BIA RTE 1026","featuresIntersected":"UNNAMED CREED","location":"0.8 MI N OF WINDY BAY RD.","lat":60.641667,"lon":-151.877778,"lowestRating":3,"yearBuilt":1997,"adt":10,"conditionCategory":"poor","structurallyDeficient":true,"materialName":"Wood or Timber","designTypeName":"Stringer/Multi-beam or Girder","lengthFt":37.1},{"id":"AK-100430000003417","state":"AK","stateName":"Alaska","countyFips":"122","facilityCarried":"NO DATA ENTERED","featuresIntersected":"PALMER CREEK","location":"PALMER CREEK ROAD","lat":61.65,"lon":-149.933333,"lowestRating":3,"yearBuilt":1957,"adt":10,"conditionCategory":"poor","structurallyDeficient":true,"materialName":"Wood or Timber","designTypeName":"Frame","lengthFt":32.2},{"id":"AK-DAPPACTFTBEEBEE","state":"AK","stateName":"Alaska","countyFips":"090","facilityCarried":"TANANA BRIDGE ROAD","featuresIntersected":"BOUNDRY SLOUGH","location":"1.4 KM W-SW TANANA R BR","lat":65.528056,"lon":-147.758056,"lowestRating":3,"yearBuilt":2012,"adt":10,"conditionCategory":"poor","structurallyDeficient":true,"materialName":"Steel","designTypeName":"Stringer/Multi-beam or Girder","lengthFt":121.1},{"id":"AK-E09211T0461-020","state":"AK","stateName":"Alaska","countyFips":"198","facilityCarried":"IRR BIA RTE 461","featuresIntersected":"UNNAMED CREEK","location":"3.0 MI E. OF HYDABURG HWY","lat":56.861667,"lon":-133.980556,"lowestRating":3,"yearBuilt":1982,"adt":10,"conditionCategory":"poor","structurallyDeficient":true,"materialName":"Steel","designTypeName":"Stringer/Multi-beam or Girder","lengthFt":40.0},{"id":"AK-E09211T0461-060","state":"AK","stateName":"Alaska","countyFips":"198","facilityCarried":"IRR BIA RTE 461","featuresIntersected":"UNNAMED CREEK","location":"5.6 MILES EAST OF HYDABUR","lat":56.283333,"lon":-133.791667,"lowestRating":3,"yearBuilt":1980,"adt":10,"conditionCategory":"poor","structurallyDeficient":true,"materialName":"Prestressed Concrete","designTypeName":"Tee Beam","lengthFt":39.0},{"id":"AK-E09211T0461-080","state":"AK","stateName":"Alaska","countyFips":"198","facilityCarried":"IRR BIA RTE 461","featuresIntersected":"UNNAMED CREEK","location":"5.9 MILES EAST OF HYDABUR","lat":56.261111,"lon":-132.952778,"lowestRating":3,"yearBuilt":1980,"adt":10,"conditionCategory":"poor","structurallyDeficient":true,"materialName":"Wood or Timber","designTypeName":"Stringer/Multi-beam or Girder","lengthFt":22.0},{"id":"AK-000000008PGH-35","state":"AK","stateName":"Alaska","countyFips":"122","facilityCarried":"IRR BIA RTE 8PGH","featuresIntersected":"UNNAMED CREEK","location":"14.2 Mi SE of Port Graham","lat":60.741667,"lon":-152.186111,"lowestRating":3,"yearBuilt":1997,"adt":5,"conditionCategory":"poor","structurallyDeficient":true,"materialName":"Wood or Timber","designTypeName":"Stringer/Multi-beam or Girder","lengthFt":37.1},{"id":"AK-0000E09229T0270","state":"AK","stateName":"Alaska","countyFips":"198","facilityCarried":"IRR BIA RTE 27","featuresIntersected":"UNNAMED STREAM","location":"2.8KM NORTH OF LANDFILL","lat":57.818889,"lon":-134.338056,"lowestRating":3,"yearBuilt":1980,"adt":1,"conditionCategory":"poor","structurallyDeficient":true,"materialName":"Wood or Timber","designTypeName":"Stringer/Multi-beam or Girder","lengthFt":39.4},{"id":"AK-100220000001138","state":"AK","stateName":"Alaska","countyFips":"275","facilityCarried":"FDR 6540","featuresIntersected":"STREAM - HAMILTON 60R36","location":"ETOLIN ISLAND","lat":57.818611,"lon":-134.204167,"lowestRating":3,"yearBuilt":1982,"adt":null,"conditionCategory":"poor","structurallyDeficient":true,"materialName":"Steel","designTypeName":"Stringer/Multi-beam or Girder","lengthFt":60.0},{"id":"AK-100532000003429","state":"AK","stateName":"Alaska","countyFips":"105","facilityCarried":"ROAD","featuresIntersected":"NO DATA ENTERED","location":"SALT LAKE BAY","lat":58.26,"lon":-137.02,"lowestRating":3,"yearBuilt":2002,"adt":null,"conditionCategory":"poor","structurallyDeficient":true,"materialName":"Wood or Timber","designTypeName":"Stringer/Multi-beam or Girder","lengthFt":29.9},{"id":"AK-0797","state":"AK","stateName":"Alaska","countyFips":"130","facilityCarried":"SOUTH TONGASS HWY","featuresIntersected":"WATER ST VIADUCT","location":"MILE POINT 1.7","lat":56.388889,"lon":-131.761111,"lowestRating":4,"yearBuilt":1955,"adt":14046,"conditionCategory":"poor","structurallyDeficient":true,"materialName":"Prestressed Concrete","designTypeName":"Tee Beam","lengthFt":1624.0},{"id":"AK-0725","state":"AK","stateName":"Alaska","countyFips":"130","facilityCarried":"SOUTH TONGASS HWY","featuresIntersected":"HOADLEY CREEK","location":"MILE POINT 0.2","lat":55.683333,"lon":-132.155556,"lowestRating":4,"yearBuilt":1957,"adt":11900,"conditionCategory":"poor","structurallyDeficient":true,"materialName":"Concrete","designTypeName":"Stringer/Multi-beam or Girder","lengthFt":44.9},{"id":"AK-0747","state":"AK","stateName":"Alaska","countyFips":"130","facilityCarried":"NORTH TONGASS HWY","featuresIntersected":"WARD CREEK","location":"MILE POINT 4.6","lat":56.15,"lon":-131.855556,"lowestRating":4,"yearBuilt":1975,"adt":5250,"conditionCategory":"poor","structurallyDeficient":true,"materialName":"Prestressed Concrete","designTypeName":"Tee Beam","lengthFt":194.9},{"id":"AK-0295","state":"AK","stateName":"Alaska","countyFips":"090","facilityCarried":"MINNIE STREET","featuresIntersected":"NOYES SLOUGH (MINNIE ST)","location":"MILE POINT 0.4","lat":66.374722,"lon":-148.398889,"lowestRating":4,"yearBuilt":1953,"adt":4130,"conditionCategory":"poor","structurallyDeficient":true,"materialName":"Steel","designTypeName":"Stringer/Multi-beam or Girder","lengthFt":135.2},{"id":"AK-0666","state":"AK","stateName":"Alaska","countyFips":"122","facilityCarried":"STERLING HIGHWAY","featuresIntersected":"SOUTH FORK ANCHOR RIVER","location":"MILE POINT 120.7","lat":61.066667,"lon":-152.166667,"lowestRating":4,"yearBuilt":1959,"adt":3490,"conditionCategory":"poor","structurallyDeficient":true,"materialName":"Steel","designTypeName":"Stringer/Multi-beam or Girder","lengthFt":82.0},{"id":"AK-0989","state":"AK","stateName":"Alaska","countyFips":"150","facilityCarried":"REZANOF DRIVE","featuresIntersected":"SARGENT CREEK","location":"MILE POINT 13.5","lat":58.616389,"lon":-152.746389,"lowestRating":4,"yearBuilt":1980,"adt":2790,"conditionCategory":"poor","structurallyDeficient":true,"materialName":"Prestressed Concrete","designTypeName":"Tee Beam","lengthFt":76.4},{"id":"AK-0209","state":"AK","stateName":"Alaska","countyFips":"090","facilityCarried":"AURORA DRIVE","featuresIntersected":"NOYES SLOUGH (AURORA)","location":"MILE POINT 0.2","lat":65.979167,"lon":-148.884444,"lowestRating":4,"yearBuilt":1960,"adt":2600,"conditionCategory":"poor","structurallyDeficient":true,"materialName":"Steel","designTypeName":"Stringer/Multi-beam or Girder","lengthFt":99.4},{"id":"AK-0726","state":"AK","stateName":"Alaska","countyFips":"130","facilityCarried":"PARK/HARRIS ST","featuresIntersected":"KETCHIKAN CREEK","location":"MILE POINT 0.1","lat":56.37,"lon":-132.37,"lowestRating":4,"yearBuilt":1957,"adt":2512,"conditionCategory":"poor","structurallyDeficient":true,"materialName":"Steel","designTypeName":"Truss - Thru","lengthFt":66.9},{"id":"AK-0978","state":"AK","stateName":"Alaska","countyFips":"122","facilityCarried":"FUNNY RIVER ROAD","featuresIntersected":"FUNNY RIVER","location":"MILE POINT 11.1","lat":61.15,"lon":-151.905556,"lowestRating":4,"yearBuilt":1969,"adt":1830,"conditionCategory":"poor","structurallyDeficient":true,"materialName":"Steel","designTypeName":"Stringer/Multi-beam or Girder","lengthFt":51.8},{"id":"AK-0990","state":"AK","stateName":"Alaska","countyFips":"150","facilityCarried":"REZANOF DRIVE","featuresIntersected":"RUSSIAN RIVER","location":"MILE POINT 13.7","lat":58.332222,"lon":-153.035278,"lowestRating":4,"yearBuilt":1980,"adt":1770,"conditionCategory":"poor","structurallyDeficient":true,"materialName":"Prestressed Concrete","designTypeName":"Tee Beam","lengthFt":113.8},{"id":"AK-0544","state":"AK","stateName":"Alaska","countyFips":"170","facilityCarried":"GLENN HIGHWAY","featuresIntersected":"KINGS RIVER","location":"MILE POINT 59.1","lat":63.272222,"lon":-148.75,"lowestRating":4,"yearBuilt":1961,"adt":1580,"conditionCategory":"poor","structurallyDeficient":true,"materialName":"Steel","designTypeName":"Stringer/Multi-beam or Girder","lengthFt":244.1},{"id":"AK-4008","state":"AK","stateName":"Alaska","countyFips":"198","facilityCarried":"CRAIG/KLAWOCK/HOLL","featuresIntersected":"CRAB CREEK CULVERT","location":"MILE POINT 1.5","lat":55.594444,"lon":-133.977778,"lowestRating":4,"yearBuilt":1985,"adt":1200,"conditionCategory":"poor","structurallyDeficient":true,"materialName":"Aluminum/Wrought Iron/Cast Iron","designTypeName":"Culvert","lengthFt":25.9},{"id":"AK-0381","state":"AK","stateName":"Alaska","countyFips":"063","facilityCarried":"COPPER RIVER HWY","featuresIntersected":"EYAK RIVER","location":"MILE POINT 5.7","lat":61.986389,"lon":-146.803889,"lowestRating":4,"yearBuilt":1954,"adt":1110,"conditionCategory":"poor","structurallyDeficient":true,"materialName":"Prestressed Concrete","designTypeName":"Slab","lengthFt":254.9},{"id":"AK-0444","state":"AK","stateName":"Alaska","countyFips":"105","facilityCarried":"GUSTAVUS AIRPORT R","featuresIntersected":"SALMON RIVER","location":"MILE POINT 1.5","lat":59.66,"lon":-136.2,"lowestRating":4,"yearBuilt":1976,"adt":1020,"conditionCategory":"poor","structurallyDeficient":true,"materialName":"Steel Continuous","designTypeName":"Stringer/Multi-beam or Girder","lengthFt":158.1},{"id":"AK-0805","state":"AK","stateName":"Alaska","countyFips":"230","facilityCarried":"MARINE HWY ROUTE","featuresIntersected":"SKAGWAY FERRY TERMINAL","location":"SKAGWAY","lat":61.019444,"lon":-136.128611,"lowestRating":4,"yearBuilt":1980,"adt":947,"conditionCategory":"poor","structurallyDeficient":true,"materialName":"Steel","designTypeName":"Orthotropic","lengthFt":174.9},{"id":"AK-0216","state":"AK","stateName":"Alaska","countyFips":"068","facilityCarried":"PARKS HIGHWAY","featuresIntersected":"NENANA RIVER AT REX","location":"MILE POINT 240.3","lat":64.340833,"lon":-150.696111,"lowestRating":4,"yearBuilt":1963,"adt":910,"conditionCategory":"poor","structurallyDeficient":true,"materialName":"Steel","designTypeName":"Truss - Thru","lengthFt":509.8},{"id":"AK-0574","state":"AK","stateName":"Alaska","countyFips":"066","facilityCarried":"RICHARDSON HIGHWAY","featuresIntersected":"GULKANA RIVER","location":"MILE POINT 129.8","lat":62.572222,"lon":-145.522222,"lowestRating":4,"yearBuilt":1974,"adt":880,"conditionCategory":"poor","structurallyDeficient":true,"materialName":"Steel Continuous","designTypeName":"Stringer/Multi-beam or Girder","lengthFt":404.9},{"id":"AK-1112","state":"AK","stateName":"Alaska","countyFips":"282","facilityCarried":"IRR:OCEAN CAPE RD","featuresIntersected":"ANKAU SLOUGH","location":"MILE POINT 4.6","lat":60.784444,"lon":-140.531667,"lowestRating":4,"yearBuilt":1961,"adt":457,"conditionCategory":"poor","structurallyDeficient":true,"materialName":"Wood or Timber","designTypeName":"Stringer/Multi-beam or Girder","lengthFt":495.1},{"id":"AK-0844","state":"AK","stateName":"Alaska","countyFips":"063","facilityCarried":"POINT WHITSHED RD","featuresIntersected":"HENEY CREEK","location":"MILE POINT 1.8","lat":61.156667,"lon":-145.827778,"lowestRating":4,"yearBuilt":1936,"adt":440,"conditionCategory":"poor","structurallyDeficient":true,"materialName":"Steel","designTypeName":"Stringer/Multi-beam or Girder","lengthFt":56.1},{"id":"AK-0658","state":"AK","stateName":"Alaska","countyFips":"066","facilityCarried":"91 MILE LOOP","featuresIntersected":"LITTLE TOK RIVER","location":"OLD TOK ALIGNMENT MP0.0","lat":63.977778,"lon":-143.683333,"lowestRating":4,"yearBuilt":1979,"adt":336,"conditionCategory":"poor","structurallyDeficient":true,"materialName":"Steel","designTypeName":"Stringer/Multi-beam or Girder","lengthFt":84.0},{"id":"AK-0581","state":"AK","stateName":"Alaska","countyFips":"240","facilityCarried":"RICHARDSON HIGHWAY","featuresIntersected":"UPPER MILLER CREEK","location":"MILE POINT 217.9","lat":64.1,"lon":-147.24,"lowestRating":4,"yearBuilt":1958,"adt":280,"conditionCategory":"poor","structurallyDeficient":true,"materialName":"Steel Continuous","designTypeName":"Stringer/Multi-beam or Girder","lengthFt":183.1},{"id":"AK-0583","state":"AK","stateName":"Alaska","countyFips":"240","facilityCarried":"RICHARDSON HIGHWAY","featuresIntersected":"CASTNER CREEK","location":"MILE POINT 219.9","lat":63.677778,"lon":-145.927778,"lowestRating":4,"yearBuilt":1958,"adt":280,"conditionCategory":"poor","structurallyDeficient":true,"materialName":"Steel Continuous","designTypeName":"Stringer/Multi-beam or Girder","lengthFt":152.9},{"id":"AK-0593","state":"AK","stateName":"Alaska","countyFips":"240","facilityCarried":"RICHARDSON HIGHWAY","featuresIntersected":"BEAR CREEK","location":"MILE POINT 236.1","lat":64.905556,"lon":-147.294444,"lowestRating":4,"yearBuilt":1952,"adt":240,"conditionCategory":"poor","structurallyDeficient":true,"materialName":"Steel","designTypeName":"Stringer/Multi-beam or Girder","lengthFt":51.5},{"id":"AK-0940","state":"AK","stateName":"Alaska","countyFips":"240","facilityCarried":"IRR:NORTHWAY ROAD","featuresIntersected":"FISH CAMP CREEK","location":"MILE POINT 2.6","lat":64.23,"lon":-143.357778,"lowestRating":4,"yearBuilt":1987,"adt":210,"conditionCategory":"poor","structurallyDeficient":true,"materialName":"Prestressed Concrete","designTypeName":"Tee Beam","lengthFt":48.9},{"id":"AK-1020","state":"AK","stateName":"Alaska","countyFips":"122","facilityCarried":"QUARTZ CREEK ROAD","featuresIntersected":"QUARTZ CREEK","location":"MILE POINT 0.7","lat":61.855556,"lon":-150.133333,"lowestRating":4,"yearBuilt":1958,"adt":210,"conditionCategory":"poor","structurallyDeficient":true,"materialName":"Wood or Timber","designTypeName":"Stringer/Multi-beam or Girder","lengthFt":89.9},{"id":"AK-0578","state":"AK","stateName":"Alaska","countyFips":"066","facilityCarried":"RICHARDSON HIGHWAY","featuresIntersected":"GUNN CREEK","location":"MILE POINT 199.5","lat":63.48,"lon":-147.1,"lowestRating":4,"yearBuilt":1954,"adt":200,"conditionCategory":"poor","structurallyDeficient":true,"materialName":"Steel","designTypeName":"Stringer/Multi-beam or Girder","lengthFt":81.4},{"id":"AK-1685","state":"AK","stateName":"Alaska","countyFips":"110","facilityCarried":"AMALGA STREET","featuresIntersected":"JORDAN CREEK (AMALGA ST)","location":"MILE POINT 0.1","lat":58.772222,"lon":-135.883333,"lowestRating":4,"yearBuilt":1982,"adt":200,"conditionCategory":"poor","structurallyDeficient":true,"materialName":"Wood or Timber","designTypeName":"Stringer/Multi-beam or Girder","lengthFt":77.1},{"id":"AK-0278","state":"AK","stateName":"Alaska","countyFips":"170","facilityCarried":"WILLOW/FISHHOOK RD","featuresIntersected":"WILLOW CREEK","location":"MILE POINT 34.7","lat":62.9,"lon":-150.4725,"lowestRating":4,"yearBuilt":1975,"adt":190,"conditionCategory":"poor","structurallyDeficient":true,"materialName":"Prestressed Concrete","designTypeName":"Tee Beam","lengthFt":109.9},{"id":"AK-1464","state":"AK","stateName":"Alaska","countyFips":"198","facilityCarried":"THORNE BAY ROAD","featuresIntersected":"GRAVELLY CREEK","location":"MILE POINT 14.1","lat":56.644444,"lon":-132.877778,"lowestRating":4,"yearBuilt":1989,"adt":190,"conditionCategory":"poor","structurallyDeficient":true,"materialName":"Prestressed Concrete","designTypeName":"Tee Beam","lengthFt":97.1},{"id":"AK-0518","state":"AK","stateName":"Alaska","countyFips":"240","facilityCarried":"ALASKA HIGHWAY","featuresIntersected":"JOHNSON RIVER","location":"MILE POINT 156.1","lat":64.0775,"lon":-145.459167,"lowestRating":4,"yearBuilt":1944,"adt":180,"conditionCategory":"poor","structurallyDeficient":true,"materialName":"Steel","designTypeName":"Truss - Thru","lengthFt":974.4},{"id":"AK-0520","state":"AK","stateName":"Alaska","countyFips":"240","facilityCarried":"ALASKA HIGHWAY","featuresIntersected":"GERSTLE RIVER","location":"MILE POINT 168.3","lat":63.978611,"lon":-145.188333,"lowestRating":4,"yearBuilt":1944,"adt":180,"conditionCategory":"poor","structurallyDeficient":true,"materialName":"Steel","designTypeName":"Truss - Thru","lengthFt":1819.6},{"id":"AK-0277","state":"AK","stateName":"Alaska","countyFips":"240","facilityCarried":"TAYLOR HIGHWAY","featuresIntersected":"TAYLOR CREEK","location":"MILE POINT 50.3","lat":64.511111,"lon":-142.494444,"lowestRating":4,"yearBuilt":1977,"adt":160,"conditionCategory":"poor","structurallyDeficient":true,"materialName":"Steel","designTypeName":"Truss - Thru","lengthFt":60.4},{"id":"AK-0401","state":"AK","stateName":"Alaska","countyFips":"170","facilityCarried":"PETERSVILLE ROAD","featuresIntersected":"MOOSE CREEK","location":"MILE POINT 7.1","lat":63.920556,"lon":-151.578056,"lowestRating":4,"yearBuilt":1974,"adt":160,"conditionCategory":"poor","structurallyDeficient":true,"materialName":"Wood or Timber","designTypeName":"Stringer/Multi-beam or Girder","lengthFt":73.2},{"id":"AK-2264","state":"AK","stateName":"Alaska","countyFips":"130","facilityCarried":"SHELTER COVE ROAD","featuresIntersected":"HARRIET HUNT CREEK","location":"MILE POINT 2.7","lat":55.76,"lon":-131.77,"lowestRating":4,"yearBuilt":1981,"adt":125,"conditionCategory":"poor","structurallyDeficient":true,"materialName":"Steel","designTypeName":"Stringer/Multi-beam or Girder","lengthFt":53.1},{"id":"AK-0431","state":"AK","stateName":"Alaska","countyFips":"290","facilityCarried":"IRR:STEESE HIGHWAY","featuresIntersected":"CROOKED CREEK","location":"MILE POINT 122.3","lat":66.136111,"lon":-144.913889,"lowestRating":4,"yearBuilt":1957,"adt":110,"conditionCategory":"poor","structurallyDeficient":true,"materialName":"Steel","designTypeName":"Truss - Thru","lengthFt":81.0},{"id":"AK-0433","state":"AK","stateName":"Alaska","countyFips":"122","facilityCarried":"IRR:JAKOLOF BAY RD","featuresIntersected":"BARABARA CREEK","location":"MILE POINT 4.4","lat":60.466667,"lon":-152.494444,"lowestRating":4,"yearBuilt":1968,"adt":110,"conditionCategory":"poor","structurallyDeficient":true,"materialName":"Steel","designTypeName":"Stringer/Multi-beam or Girder","lengthFt":71.9},{"id":"AK-1336","state":"AK","stateName":"Alaska","countyFips":"290","facilityCarried":"DALTON HIGHWAY","featuresIntersected":"HAMMOND RIVER","location":"MILE POINT 190.0","lat":68.533889,"lon":-150.229167,"lowestRating":4,"yearBuilt":1972,"adt":110,"conditionCategory":"poor","structurallyDeficient":true,"materialName":"Steel","designTypeName":"Stringer/Multi-beam or Girder","lengthFt":151.9},{"id":"AK-2355","state":"AK","stateName":"Alaska","countyFips":"122","facilityCarried":"NAUTICAL AVENUE","featuresIntersected":"SALMON CREEK TRIBUTARY","location":"MILE POINT 0.1","lat":61.648333,"lon":-149.883889,"lowestRating":4,"yearBuilt":1970,"adt":100,"conditionCategory":"poor","structurallyDeficient":true,"materialName":"Steel","designTypeName":"Other","lengthFt":41.0},{"id":"AK-0473","state":"AK","stateName":"Alaska","countyFips":"290","facilityCarried":"IRR: AIRFIELD RD","featuresIntersected":"GOLD CREEK","location":"MILE POINT 1.1","lat":63.375,"lon":-156.263889,"lowestRating":4,"yearBuilt":1972,"adt":86,"conditionCategory":"poor","structurallyDeficient":true,"materialName":"Steel","designTypeName":"Stringer/Multi-beam or Girder","lengthFt":30.8},{"id":"AK-0944","state":"AK","stateName":"Alaska","countyFips":"063","facilityCarried":"MINERAL CREEK ROAD","featuresIntersected":"MINERAL CREEK","location":"MILE POINT 0.3","lat":61.994444,"lon":-147.544444,"lowestRating":4,"yearBuilt":1970,"adt":75,"conditionCategory":"poor","structurallyDeficient":true,"materialName":"Steel","designTypeName":"Truss - Thru","lengthFt":101.0},{"id":"AK-0206","state":"AK","stateName":"Alaska","countyFips":"063","facilityCarried":"COPPER RIVER HWY","featuresIntersected":"MILLION DOLLAR BRIDGE","location":"MILE POINT 48.8","lat":61.3075,"lon":-145.986667,"lowestRating":4,"yearBuilt":1910,"adt":65,"conditionCategory":"poor","structurallyDeficient":true,"materialName":"Steel","designTypeName":"Truss - Thru","lengthFt":1566.6},{"id":"AK-0687","state":"AK","stateName":"Alaska","countyFips":"170","facilityCarried":"DENALI HIGHWAY","featuresIntersected":"SUSITNA RIVER","location":"MILE POINT 79.5","lat":63.58,"lon":-147.95,"lowestRating":4,"yearBuilt":1956,"adt":60,"conditionCategory":"poor","structurallyDeficient":true,"materialName":"Steel","designTypeName":"Truss - Deck","lengthFt":1039.0},{"id":"AK-1501","state":"AK","stateName":"Alaska","countyFips":"020","facilityCarried":"STARNER ROAD","featuresIntersected":"PETERS CREEK","location":"BIRCHWOOD AREA","lat":62.009722,"lon":-150.970278,"lowestRating":4,"yearBuilt":1989,"adt":50,"conditionCategory":"poor","structurallyDeficient":true,"materialName":"Steel","designTypeName":"Stringer/Multi-beam or Girder","lengthFt":61.0},{"id":"AK-1556","state":"AK","stateName":"Alaska","countyFips":"070","facilityCarried":"IRR:AIRPORT ROAD","featuresIntersected":"UNNAMED CREEK  KOLIGANEK","location":"KOLIGANEK","lat":60.806944,"lon":-158.9125,"lowestRating":4,"yearBuilt":1980,"adt":50,"conditionCategory":"poor","structurallyDeficient":true,"materialName":"Wood or Timber","designTypeName":"Stringer/Multi-beam or Girder","lengthFt":40.0},{"id":"AK-0466","state":"AK","stateName":"Alaska","countyFips":"290","facilityCarried":"STERLING L/OPHIR","featuresIntersected":"CALIFORNIA CREEK","location":"MILE POINT 37.1","lat":64.233889,"lon":-156.498056,"lowestRating":4,"yearBuilt":1937,"adt":45,"conditionCategory":"poor","structurallyDeficient":true,"materialName":"Steel","designTypeName":"Stringer/Multi-beam or Girder","lengthFt":44.6},{"id":"AK-0485","state":"AK","stateName":"Alaska","countyFips":"290","facilityCarried":"STERLING L/OPHIR","featuresIntersected":"SPRUCE CREEK","location":"MILE POINT 42.2","lat":63.504444,"lon":-156.864444,"lowestRating":4,"yearBuilt":1964,"adt":45,"conditionCategory":"poor","structurallyDeficient":true,"materialName":"Wood or Timber","designTypeName":"Stringer/Multi-beam or Girder","lengthFt":28.9},{"id":"AK-1764","state":"AK","stateName":"Alaska","countyFips":"164","facilityCarried":"IRR:ANDERSON RD","featuresIntersected":"INDIAN CREEK","location":"CHIGNIK","lat":56.371944,"lon":-159.938889,"lowestRating":4,"yearBuilt":1985,"adt":45,"conditionCategory":"poor","structurallyDeficient":true,"materialName":"Wood or Timber","designTypeName":"Stringer/Multi-beam or Girder","lengthFt":69.9},{"id":"AK-1841","state":"AK","stateName":"Alaska","countyFips":"130","facilityCarried":"SAYLES/GORGE ST","featuresIntersected":"SAYLES/GORGE VIADUCT","location":"MILE POINT 0.1","lat":56.62,"lon":-132.59,"lowestRating":4,"yearBuilt":1960,"adt":40,"conditionCategory":"poor","structurallyDeficient":true,"materialName":"Wood or Timber","designTypeName":"Stringer/Multi-beam or Girder","lengthFt":127.0},{"id":"AK-1663","state":"AK","stateName":"Alaska","countyFips":"090","facilityCarried":"STANDARD CREEK RD","featuresIntersected":"GOLDSTREAM CREEK","location":"MILE POINT 8.0","lat":65.437222,"lon":-148.728889,"lowestRating":4,"yearBuilt":1994,"adt":30,"conditionCategory":"poor","structurallyDeficient":true,"materialName":"Wood or Timber","designTypeName":"Stringer/Multi-beam or Girder","lengthFt":64.0},{"id":"AK-1957","state":"AK","stateName":"Alaska","countyFips":"090","facilityCarried":"STANDARD CREEK RD","featuresIntersected":"STANDARD CREEK","location":"MILE POINT 13.8","lat":65.644444,"lon":-149.161944,"lowestRating":4,"yearBuilt":2006,"adt":30,"conditionCategory":"poor","structurallyDeficient":true,"materialName":"Steel","designTypeName":"Girder and Floorbeam","lengthFt":29.9},{"id":"AK-2262","state":"AK","stateName":"Alaska","countyFips":"130","facilityCarried":"HARDING STREET","featuresIntersected":"HARDING STREET","location":"MILE POINT 0.1","lat":56.560278,"lon":-132.025278,"lowestRating":4,"yearBuilt":1968,"adt":30,"conditionCategory":"poor","structurallyDeficient":true,"materialName":"Wood or Timber","designTypeName":"Stringer/Multi-beam or Girder","lengthFt":33.1},{"id":"AK-2263","state":"AK","stateName":"Alaska","countyFips":"130","facilityCarried":"PETERSON STREET","featuresIntersected":"PETERSON STREET","location":"MILE POINT 0.1","lat":56.341667,"lon":-132.333333,"lowestRating":4,"yearBuilt":1955,"adt":30,"conditionCategory":"poor","structurallyDeficient":true,"materialName":"Wood or Timber","designTypeName":"Stringer/Multi-beam or Girder","lengthFt":41.0},{"id":"AK-0300","state":"AK","stateName":"Alaska","countyFips":"180","facilityCarried":"IRR:NOME-TELLER RD","featuresIntersected":"SINUK RIVER","location":"MILE POINT 26.0","lat":64.888889,"lon":-166.412778,"lowestRating":4,"yearBuilt":1967,"adt":20,"conditionCategory":"poor","structurallyDeficient":true,"materialName":"Steel","designTypeName":"Stringer/Multi-beam or Girder","lengthFt":360.6},{"id":"AK-0324","state":"AK","stateName":"Alaska","countyFips":"180","facilityCarried":"IRR:NOME-TELLER RD","featuresIntersected":"SNAKE RIVER","location":"MILE POINT 7.1","lat":65.981389,"lon":-166.641389,"lowestRating":4,"yearBuilt":1959,"adt":20,"conditionCategory":"poor","structurallyDeficient":true,"materialName":"Steel","designTypeName":"Stringer/Multi-beam or Girder","lengthFt":130.9},{"id":"AK-0841","state":"AK","stateName":"Alaska","countyFips":"240","facilityCarried":"TAYLOR HIGHWAY","featuresIntersected":"AMERICAN CREEK NO 1","location":"MILE POINT 149.8","lat":65.45,"lon":-142.75,"lowestRating":4,"yearBuilt":1988,"adt":20,"conditionCategory":"poor","structurallyDeficient":true,"materialName":"Prestressed Concrete","designTypeName":"Tee Beam","lengthFt":109.9},{"id":"AK-2057","state":"AK","stateName":"Alaska","countyFips":"090","facilityCarried":"SECTION LINE RD","featuresIntersected":"LITTLE CHENA RIVER","location":"MILE POINT 10.2","lat":65.5475,"lon":-147.6225,"lowestRating":4,"yearBuilt":1980,"adt":20,"conditionCategory":"poor","structurallyDeficient":true,"materialName":"Steel","designTypeName":"Other","lengthFt":95.1},{"id":"AK-0000E09229T0220","state":"AK","stateName":"Alaska","countyFips":"198","facilityCarried":"IRR BIA RTE 26","featuresIntersected":"UNNAMED STREAM","location":"9.1KM FROM TOTEM WAY","lat":58.351944,"lon":-134.811944,"lowestRating":4,"yearBuilt":1980,"adt":20,"conditionCategory":"poor","structurallyDeficient":true,"materialName":"Steel","designTypeName":"Box Beam - Multiple","lengthFt":68.2},{"id":"AK-1414","state":"AK","stateName":"Alaska","countyFips":"290","facilityCarried":"IRR:AIRPORT ROAD","featuresIntersected":"SHAGELUK SLOUGH","location":"SHAGELUK","lat":63.471944,"lon":-159.618889,"lowestRating":4,"yearBuilt":1978,"adt":11,"conditionCategory":"poor","structurallyDeficient":true,"materialName":"Steel","designTypeName":"Truss - Thru","lengthFt":127.0},{"id":"AK-0461","state":"AK","stateName":"Alaska","countyFips":"290","facilityCarried":"HAPPY CREEK ROAD","featuresIntersected":"OTTER CREEK","location":"MILE POINT 7.2  FLAT","lat":62.848333,"lon":-159.092222,"lowestRating":4,"yearBuilt":1947,"adt":10,"conditionCategory":"poor","structurallyDeficient":true,"materialName":"Steel","designTypeName":"Stringer/Multi-beam or Girder","lengthFt":51.8},{"id":"AK-1268","state":"AK","stateName":"Alaska","countyFips":"105","facilityCarried":"MAIN STREET","featuresIntersected":"MAIN STREET PELICAN","location":"PELICAN","lat":58.88,"lon":-137.07,"lowestRating":4,"yearBuilt":1939,"adt":10,"conditionCategory":"poor","structurallyDeficient":true,"materialName":"Wood or Timber","designTypeName":"Stringer/Multi-beam or Girder","lengthFt":2830.1},{"id":"AK-1755","state":"AK","stateName":"Alaska","countyFips":"013","facilityCarried":"MARINE HWY ROUTE","featuresIntersected":"COLD BAY DOCK","location":"COLD BAY","lat":55.934167,"lon":-163.941667,"lowestRating":4,"yearBuilt":1980,"adt":10,"conditionCategory":"poor","structurallyDeficient":true,"materialName":"Prestressed Concrete","designTypeName":"Slab","lengthFt":1824.1},{"id":"AK-1835","state":"AK","stateName":"Alaska","countyFips":"070","facilityCarried":"IRR:KOLGNK DUMP RD","featuresIntersected":"UNNAMED CREEK","location":"KOLIGANEK","lat":59.951667,"lon":-158.242222,"lowestRating":4,"yearBuilt":1980,"adt":10,"conditionCategory":"poor","structurallyDeficient":true,"materialName":"Wood or Timber","designTypeName":"Stringer/Multi-beam or Girder","lengthFt":41.0},{"id":"AK-1985","state":"AK","stateName":"Alaska","countyFips":"170","facilityCarried":"OIL WELL ROAD","featuresIntersected":"MOOSE CREEK","location":"MILE POINT 9.5","lat":63.434722,"lon":-151.449167,"lowestRating":4,"yearBuilt":1998,"adt":10,"conditionCategory":"poor","structurallyDeficient":true,"materialName":"Steel","designTypeName":"Stringer/Multi-beam or Girder","lengthFt":64.0},{"id":"AK-2384","state":"AK","stateName":"Alaska","countyFips":"195","facilityCarried":"KAKE ACCESS - USFS","featuresIntersected":"MUSKEG CREEK","location":"MILE POINT 0.0","lat":58.349444,"lon":-133.811944,"lowestRating":4,"yearBuilt":1981,"adt":10,"conditionCategory":"poor","structurallyDeficient":true,"materialName":"Steel","designTypeName":"Stringer/Multi-beam or Girder","lengthFt":50.5},{"id":"AK-000000001037-20","state":"AK","stateName":"Alaska","countyFips":"122","facilityCarried":"IRR BIA RTE 8PGH","featuresIntersected":"UNNAMED CREEK","location":"9.5 MI SE OF PORT GRAHAM","lat":60.525278,"lon":-151.891667,"lowestRating":4,"yearBuilt":1997,"adt":10,"conditionCategory":"poor","structurallyDeficient":true,"materialName":"Steel","designTypeName":"Stringer/Multi-beam or Girder","lengthFt":55.1},{"id":"AK-E09211T0461-040","state":"AK","stateName":"Alaska","countyFips":"198","facilityCarried":"IRR BIA RTE 461","featuresIntersected":"UNNAMED CREEK","location":"4.8 MILES EAST OF  HYDABU","lat":55.758333,"lon":-133.888889,"lowestRating":4,"yearBuilt":1980,"adt":10,"conditionCategory":"poor","structurallyDeficient":true,"materialName":"Prestressed Concrete","designTypeName":"Tee Beam","lengthFt":40.0},{"id":"AK-100220000001232","state":"AK","stateName":"Alaska","countyFips":"275","facilityCarried":"FDR 6590","featuresIntersected":"STREAM - MOD","location":"ZAREMBO ISLAND","lat":57.285833,"lon":-133.073889,"lowestRating":4,"yearBuilt":1980,"adt":5,"conditionCategory":"poor","structurallyDeficient":true,"materialName":"Steel","designTypeName":"Stringer/Multi-beam or Girder","lengthFt":80.1},{"id":"AK-100520000032846","state":"AK","stateName":"Alaska","countyFips":"130","facilityCarried":"8400000","featuresIntersected":"TRAIL # 828400SHOAL","location":"SHOAL COVE","lat":56.53,"lon":-131.81,"lowestRating":4,"yearBuilt":1992,"adt":5,"conditionCategory":"poor","structurallyDeficient":true,"materialName":"Steel","designTypeName":"Box Beam - Multiple","lengthFt":60.0},{"id":"AK-100521000003082","state":"AK","stateName":"Alaska","countyFips":"195","facilityCarried":"43500","featuresIntersected":"LOG","location":"TONKA","lat":57.651111,"lon":-133.674444,"lowestRating":4,"yearBuilt":2002,"adt":5,"conditionCategory":"poor","structurallyDeficient":true,"materialName":"Wood or Timber","designTypeName":"Stringer/Multi-beam or Girder","lengthFt":49.9},{"id":"AK-100521000003084","state":"AK","stateName":"Alaska","countyFips":"195","facilityCarried":"43500","featuresIntersected":"LOG","location":"TONKA","lat":57.571944,"lon":-134.423611,"lowestRating":4,"yearBuilt":2002,"adt":5,"conditionCategory":"poor","structurallyDeficient":true,"materialName":"Wood or Timber","designTypeName":"Stringer/Multi-beam or Girder","lengthFt":41.0},{"id":"AK-100521000003089","state":"AK","stateName":"Alaska","countyFips":"195","facilityCarried":"43506","featuresIntersected":"LOG","location":"TONKA","lat":57.871667,"lon":-133.317778,"lowestRating":4,"yearBuilt":2002,"adt":5,"conditionCategory":"poor","structurallyDeficient":true,"materialName":"Wood or Timber","designTypeName":"Stringer/Multi-beam or Girder","lengthFt":35.1},{"id":"AK-100521000003090","state":"AK","stateName":"Alaska","countyFips":"195","facilityCarried":"43506","featuresIntersected":"LOG","location":"TONKA","lat":57.250556,"lon":-133.501944,"lowestRating":4,"yearBuilt":2002,"adt":5,"conditionCategory":"poor","structurallyDeficient":true,"materialName":"Wood or Timber","designTypeName":"Stringer/Multi-beam or Girder","lengthFt":42.0},{"id":"AK-100521000003091","state":"AK","stateName":"Alaska","countyFips":"195","facilityCarried":"43506","featuresIntersected":"LOG","location":"TONKA","lat":57.999167,"lon":-133.818333,"lowestRating":4,"yearBuilt":2002,"adt":5,"conditionCategory":"poor","structurallyDeficient":true,"materialName":"Wood or Timber","designTypeName":"Stringer/Multi-beam or Girder","lengthFt":28.9},{"id":"AK-100521000003398","state":"AK","stateName":"Alaska","countyFips":"195","facilityCarried":"NO DATA ENTERED","featuresIntersected":"NO DATA ENTERED","location":"TONKA","lat":57.894167,"lon":-134.298056,"lowestRating":4,"yearBuilt":2004,"adt":5,"conditionCategory":"poor","structurallyDeficient":true,"materialName":"Wood or Timber","designTypeName":"Stringer/Multi-beam or Girder","lengthFt":44.9},{"id":"AK-100540000001095","state":"AK","stateName":"Alaska","countyFips":"198","facilityCarried":"3013000-1.06","featuresIntersected":"MOD","location":"CONTROL LAKE","lat":56.055556,"lon":-133.726667,"lowestRating":4,"yearBuilt":1977,"adt":5,"conditionCategory":"poor","structurallyDeficient":true,"materialName":"Steel","designTypeName":"Stringer/Multi-beam or Girder","lengthFt":40.0},{"id":"AK-E09211T0735-010","state":"AK","stateName":"Alaska","countyFips":"198","facilityCarried":"IRR BIA RTE 735","featuresIntersected":"SUKKWAN STRAIT","location":"3.0 MILES EAST OF HYDABUR","lat":55.371944,"lon":-133.710556,"lowestRating":4,"yearBuilt":1970,"adt":5,"conditionCategory":"poor","structurallyDeficient":true,"materialName":"Concrete","designTypeName":"Box Beam - Multiple","lengthFt":502.6},{"id":"AK-100520000001137","state":"AK","stateName":"Alaska","countyFips":"130","facilityCarried":"NO DATA ENTERED","featuresIntersected":"PERM","location":"UPPER CARROLL","lat":56.2575,"lon":-131.841111,"lowestRating":4,"yearBuilt":1997,"adt":2,"conditionCategory":"poor","structurallyDeficient":true,"materialName":"Steel","designTypeName":"Stringer/Multi-beam or Girder","lengthFt":89.9},{"id":"AK-0000E09108T0520","state":"AK","stateName":"Alaska","countyFips":"198","facilityCarried":"IRR BIA ROUTE 008","featuresIntersected":"UNNAMED CREEK","location":"S OF KLAWOCK LAKE  4.3 MI","lat":56.802778,"lon":-133.172222,"lowestRating":4,"yearBuilt":2005,"adt":1,"conditionCategory":"poor","structurallyDeficient":true,"materialName":"Steel","designTypeName":"Stringer/Multi-beam or Girder","lengthFt":55.4},{"id":"AK-100210000001204","state":"AK","stateName":"Alaska","countyFips":"195","facilityCarried":"LOGGING ROAD","featuresIntersected":"STREAM","location":"KUPREANOF ISLAND  PORTAGE","lat":58.428333,"lon":-133.651111,"lowestRating":4,"yearBuilt":1981,"adt":null,"conditionCategory":"poor","structurallyDeficient":true,"materialName":"Steel","designTypeName":"Stringer/Multi-beam or Girder","lengthFt":40.0},{"id":"AK-100210000001206","state":"AK","stateName":"Alaska","countyFips":"195","facilityCarried":"LOGGING ROAD","featuresIntersected":"STREAM","location":"KUPREANOF ISLAND  PORTAGE","lat":58.349444,"lon":-133.811944,"lowestRating":4,"yearBuilt":1981,"adt":null,"conditionCategory":"poor","structurallyDeficient":true,"materialName":"Steel","designTypeName":"Stringer/Multi-beam or Girder","lengthFt":49.9},{"id":"AK-100210000001238","state":"AK","stateName":"Alaska","countyFips":"275","facilityCarried":"LOGGING ROAD","featuresIntersected":"NO DATA ENTERED","location":"ZAREMBO ISLAND","lat":57.456944,"lon":-133.002222,"lowestRating":4,"yearBuilt":1991,"adt":null,"conditionCategory":"poor","structurallyDeficient":true,"materialName":"Steel","designTypeName":"Stringer/Multi-beam or Girder","lengthFt":60.0},{"id":"AK-100220000001140","state":"AK","stateName":"Alaska","countyFips":"275","facilityCarried":"FDR 6540","featuresIntersected":"STREAM - HAMILTON 50R36","location":"ETOLIN ISLAND","lat":56.679722,"lon":-133.781111,"lowestRating":4,"yearBuilt":1983,"adt":null,"conditionCategory":"poor","structurallyDeficient":true,"materialName":"Steel","designTypeName":"Stringer/Multi-beam or Girder","lengthFt":49.9},{"id":"AK-100310000001013","state":"AK","stateName":"Alaska","countyFips":"220","facilityCarried":"LOGGING ROAD","featuresIntersected":"CORNER CREEK TRIB","location":"CORNER BAY","lat":58.862778,"lon":-136.669167,"lowestRating":4,"yearBuilt":1974,"adt":null,"conditionCategory":"poor","structurallyDeficient":true,"materialName":"Wood or Timber","designTypeName":"Stringer/Multi-beam or Girder","lengthFt":36.1},{"id":"AK-100320000001079","state":"AK","stateName":"Alaska","countyFips":"105","facilityCarried":"LOGGING ROAD","featuresIntersected":"STREAM","location":"SALT LAKE BAY","lat":58.95,"lon":-136.02,"lowestRating":4,"yearBuilt":1975,"adt":null,"conditionCategory":"poor","structurallyDeficient":true,"materialName":"Steel","designTypeName":"Stringer/Multi-beam or Girder","lengthFt":29.9},{"id":"AK-100320000001081","state":"AK","stateName":"Alaska","countyFips":"105","facilityCarried":"LOGGING ROAD","featuresIntersected":"STREAM","location":"SALT LAKE BAY","lat":58.66,"lon":-136.49,"lowestRating":4,"yearBuilt":2003,"adt":null,"conditionCategory":"poor","structurallyDeficient":true,"materialName":"Wood or Timber","designTypeName":"Stringer/Multi-beam or Girder","lengthFt":47.9},{"id":"AK-100320000001345","state":"AK","stateName":"Alaska","countyFips":"105","facilityCarried":"NO DATA ENTERED","featuresIntersected":"STREAM","location":"SALT LAKE BAY","lat":58.623889,"lon":-136.392222,"lowestRating":4,"yearBuilt":1980,"adt":null,"conditionCategory":"poor","structurallyDeficient":true,"materialName":"Steel","designTypeName":"Stringer/Multi-beam or Girder","lengthFt":80.1},{"id":"AK-100330000001060","state":"AK","stateName":"Alaska","countyFips":"105","facilityCarried":"LOGGING ROAD","featuresIntersected":"FRESHWATER CREEK","location":"FRESHWATER","lat":59.293611,"lon":-136.180278,"lowestRating":4,"yearBuilt":1982,"adt":null,"conditionCategory":"poor","structurallyDeficient":true,"materialName":"Steel","designTypeName":"Stringer/Multi-beam or Girder","lengthFt":49.9},{"id":"AK-100350000001469","state":"AK","stateName":"Alaska","countyFips":"282","facilityCarried":"PUBLIC ROAD","featuresIntersected":"W.F. SITUK","location":"W.F. SITUK ROAD","lat":60.003611,"lon":-140.638056,"lowestRating":4,"yearBuilt":1985,"adt":null,"conditionCategory":"poor","structurallyDeficient":true,"materialName":"Steel","designTypeName":"Stringer/Multi-beam or Girder","lengthFt":80.1},{"id":"AK-100510000001061","state":"AK","stateName":"Alaska","countyFips":"198","facilityCarried":"2160000","featuresIntersected":"MOD","location":"LANCASTER","lat":55.814167,"lon":-133.697222,"lowestRating":4,"yearBuilt":1990,"adt":null,"conditionCategory":"poor","structurallyDeficient":true,"materialName":"Steel","designTypeName":"Stringer/Multi-beam or Girder","lengthFt":40.0},{"id":"AK-100520000001129","state":"AK","stateName":"Alaska","countyFips":"130","facilityCarried":"NO DATA ENTERED","featuresIntersected":"MOD","location":"MARGARET","lat":56.44,"lon":-131.774444,"lowestRating":4,"yearBuilt":1989,"adt":null,"conditionCategory":"poor","structurallyDeficient":true,"materialName":"Steel","designTypeName":"Box Beam - Multiple","lengthFt":69.9},{"id":"AK-100521000003408","state":"AK","stateName":"Alaska","countyFips":"195","facilityCarried":"NO DATA ENTERED","featuresIntersected":"NO DATA ENTERED","location":"THOMAS BAY","lat":58.226944,"lon":-133.471944,"lowestRating":4,"yearBuilt":2006,"adt":null,"conditionCategory":"poor","structurallyDeficient":true,"materialName":"Wood or Timber","designTypeName":"Slab","lengthFt":40.0},{"id":"AK-100532000003180","state":"AK","stateName":"Alaska","countyFips":"105","facilityCarried":"NO DATA ENTERED","featuresIntersected":"STREAM","location":"SALT LAKE BAY","lat":58.55,"lon":-136.1,"lowestRating":4,"yearBuilt":2003,"adt":null,"conditionCategory":"poor","structurallyDeficient":true,"materialName":"Steel","designTypeName":"Stringer/Multi-beam or Girder","lengthFt":89.9},{"id":"AK-100532000003359","state":"AK","stateName":"Alaska","countyFips":"105","facilityCarried":"ROAD","featuresIntersected":"STREAM","location":"SALT LAKE BAY","lat":58.12,"lon":-136.23,"lowestRating":4,"yearBuilt":2002,"adt":null,"conditionCategory":"poor","structurallyDeficient":true,"materialName":"Wood or Timber","designTypeName":"Stringer/Multi-beam or Girder","lengthFt":26.9},{"id":"AK-100532000003360","state":"AK","stateName":"Alaska","countyFips":"105","facilityCarried":"ROAD","featuresIntersected":"STREAM","location":"SALT LAKE BAY","lat":58.48,"lon":-136.19,"lowestRating":4,"yearBuilt":2003,"adt":null,"conditionCategory":"poor","structurallyDeficient":true,"materialName":"Wood or Timber","designTypeName":"Stringer/Multi-beam or Girder","lengthFt":49.5},{"id":"AK-100532000003430","state":"AK","stateName":"Alaska","countyFips":"105","facilityCarried":"ROAD","featuresIntersected":"STREAM","location":"SALT LAKE BAY","lat":57.95,"lon":-136.93,"lowestRating":4,"yearBuilt":2002,"adt":null,"conditionCategory":"poor","structurallyDeficient":true,"materialName":"Wood or Timber","designTypeName":"Stringer/Multi-beam or Girder","lengthFt":35.1},{"id":"AK-100532000003431","state":"AK","stateName":"Alaska","countyFips":"105","facilityCarried":"ROAD","featuresIntersected":"STREAM","location":"SALT LAKE BAY","lat":59.12,"lon":-136.45,"lowestRating":4,"yearBuilt":2002,"adt":null,"conditionCategory":"poor","structurallyDeficient":true,"materialName":"Wood or Timber","designTypeName":"Stringer/Multi-beam or Girder","lengthFt":36.7},{"id":"AK-100532000003432","state":"AK","stateName":"Alaska","countyFips":"105","facilityCarried":"ROAD","featuresIntersected":"NO DATA ENTERED","location":"SALT LAKE BAY","lat":58.87,"lon":-136.19,"lowestRating":4,"yearBuilt":2002,"adt":null,"conditionCategory":"poor","structurallyDeficient":true,"materialName":"Wood or Timber","designTypeName":"Stringer/Multi-beam or Girder","lengthFt":41.3},{"id":"AK-100532000003434","state":"AK","stateName":"Alaska","countyFips":"105","facilityCarried":"ROAD","featuresIntersected":"STREAM","location":"SALT LAKE BAY","lat":58.02,"lon":-136.13,"lowestRating":4,"yearBuilt":2002,"adt":null,"conditionCategory":"poor","structurallyDeficient":true,"materialName":"Wood or Timber","designTypeName":"Stringer/Multi-beam or Girder","lengthFt":26.2},{"id":"AK-100532000003436","state":"AK","stateName":"Alaska","countyFips":"105","facilityCarried":"ROAD","featuresIntersected":"STREAM","location":"SALT LAKE BAY","lat":58.31,"lon":-135.8,"lowestRating":4,"yearBuilt":2002,"adt":null,"conditionCategory":"poor","structurallyDeficient":true,"materialName":"Wood or Timber","designTypeName":"Stringer/Multi-beam or Girder","lengthFt":47.9},{"id":"AK-100532000003441","state":"AK","stateName":"Alaska","countyFips":"105","facilityCarried":"ROAD","featuresIntersected":"STREAM","location":"SALT LAKE BAY","lat":59.35,"lon":-135.8,"lowestRating":4,"yearBuilt":2002,"adt":null,"conditionCategory":"poor","structurallyDeficient":true,"materialName":"Wood or Timber","designTypeName":"Stringer/Multi-beam or Girder","lengthFt":45.9},{"id":"AK-100540000001028","state":"AK","stateName":"Alaska","countyFips":"198","facilityCarried":"2050000","featuresIntersected":"MOD","location":"SHAHEEN","lat":55.724722,"lon":-133.737222,"lowestRating":4,"yearBuilt":1991,"adt":null,"conditionCategory":"poor","structurallyDeficient":true,"materialName":"Steel","designTypeName":"Stringer/Multi-beam or Girder","lengthFt":69.9},{"id":"AK-100540000001067","state":"AK","stateName":"Alaska","countyFips":"198","facilityCarried":"3065000-2.349","featuresIntersected":"MOD","location":"WHALE PASS","lat":56.438056,"lon":-133.806111,"lowestRating":4,"yearBuilt":1991,"adt":null,"conditionCategory":"poor","structurallyDeficient":true,"materialName":"Steel","designTypeName":"Stringer/Multi-beam or Girder","lengthFt":60.0},{"id":"AK-100540000001120","state":"AK","stateName":"Alaska","countyFips":"130","facilityCarried":"8330000","featuresIntersected":"MOD","location":"SHELTER","lat":56.923333,"lon":-131.606944,"lowestRating":4,"yearBuilt":1992,"adt":null,"conditionCategory":"poor","structurallyDeficient":true,"materialName":"Steel","designTypeName":"Box Beam - Multiple","lengthFt":69.9},{"id":"AK-100540000001242","state":"AK","stateName":"Alaska","countyFips":"198","facilityCarried":"3015100-0.60","featuresIntersected":"LOG","location":"THORNE BAY","lat":57.304167,"lon":-133.2575,"lowestRating":4,"yearBuilt":1995,"adt":null,"conditionCategory":"poor","structurallyDeficient":true,"materialName":"Wood or Timber","designTypeName":"Stringer/Multi-beam or Girder","lengthFt":32.2}],"mostTrafficked":[{"id":"AK-0534","state":"AK","stateName":"Alaska","countyFips":"020","facilityCarried":"GLENN HIGHWAY","featuresIntersected":"SHIP CREEK","location":"MILE POINT 4.8","lat":61.705556,"lon":-150.766667,"adt":60000,"yearBuilt":1988,"lowestRating":6,"conditionCategory":"fair","structurallyDeficient":false,"materialName":"Prestressed Concrete","designTypeName":"Tee Beam","lengthFt":10.3},{"id":"AK-1324","state":"AK","stateName":"Alaska","countyFips":"020","facilityCarried":"SEWARD HIGHWAY","featuresIntersected":"DOWLING RD UNDERXING","location":"MILE POINT 122.8","lat":62.788889,"lon":-150.488889,"adt":47700,"yearBuilt":2022,"lowestRating":9,"conditionCategory":"good","structurallyDeficient":false,"materialName":"Prestressed Concrete","designTypeName":"Tee Beam","lengthFt":14.6},{"id":"AK-1325","state":"AK","stateName":"Alaska","countyFips":"020","facilityCarried":"SEWARD HIGHWAY","featuresIntersected":"DIMOND BLVD UNDERXING","location":"MILE POINT 121.3","lat":62.272222,"lon":-150.488889,"adt":41300,"yearBuilt":1976,"lowestRating":5,"conditionCategory":"fair","structurallyDeficient":false,"materialName":"Prestressed Concrete","designTypeName":"Tee Beam","lengthFt":11.0},{"id":"AK-2253","state":"AK","stateName":"Alaska","countyFips":"020","facilityCarried":"SEWARD HIGHWAY","featuresIntersected":"76TH AVE UNDERCROSSING","location":"MILE POINT 121.8","lat":61.3475,"lon":-150.440833,"adt":41300,"yearBuilt":2017,"lowestRating":8,"conditionCategory":"good","structurallyDeficient":false,"materialName":"Prestressed Concrete","designTypeName":"Tee Beam","lengthFt":13.3},{"id":"AK-1989","state":"AK","stateName":"Alaska","countyFips":"170","facilityCarried":"PARKS HIGHWAY","featuresIntersected":"SEWARD MERIDIAN U.C.","location":"MILE POINT 4.2","lat":62.017222,"lon":-150.326667,"adt":32100,"yearBuilt":2005,"lowestRating":7,"conditionCategory":"good","structurallyDeficient":false,"materialName":"Prestressed Concrete","designTypeName":"Box Beam - Multiple","lengthFt":19.3},{"id":"AK-0699","state":"AK","stateName":"Alaska","countyFips":"020","facilityCarried":"AIRPORT/MINNESOTA","featuresIntersected":"MINNESOTA DR OVERHEAD","location":"MILE POINT 4.9","lat":62.166667,"lon":-151.261111,"adt":31600,"yearBuilt":1993,"lowestRating":7,"conditionCategory":"good","structurallyDeficient":false,"materialName":"Prestressed Concrete","designTypeName":"Tee Beam","lengthFt":12.7},{"id":"AK-1973","state":"AK","stateName":"Alaska","countyFips":"020","facilityCarried":"MINNESOTA DRIVE","featuresIntersected":"AIRPORT SPUR OVERHEAD","location":"MILE POINT 4.9","lat":62.055556,"lon":-151.372222,"adt":31600,"yearBuilt":1999,"lowestRating":6,"conditionCategory":"fair","structurallyDeficient":false,"materialName":"Prestressed Concrete","designTypeName":"Tee Beam","lengthFt":14.6},{"id":"AK-1432","state":"AK","stateName":"Alaska","countyFips":"020","facilityCarried":"MINNESOTA DRIVE","featuresIntersected":"MINN. DR./RASP. RD. I.C.","location":"MILE POINT 3.9","lat":62.066667,"lon":-151.122222,"adt":31500,"yearBuilt":1991,"lowestRating":7,"conditionCategory":"good","structurallyDeficient":false,"materialName":"Prestressed Concrete","designTypeName":"Tee Beam","lengthFt":14.9},{"id":"AK-1380","state":"AK","stateName":"Alaska","countyFips":"020","facilityCarried":"SEWARD HIGHWAY","featuresIntersected":"OMALLEY UNDERCROSSING","location":"MILE POINT 119.8","lat":61.755556,"lon":-150.516667,"adt":31400,"yearBuilt":1978,"lowestRating":6,"conditionCategory":"fair","structurallyDeficient":false,"materialName":"Prestressed Concrete","designTypeName":"Tee Beam","lengthFt":17.0},{"id":"AK-1323","state":"AK","stateName":"Alaska","countyFips":"020","facilityCarried":"TUDOR ROAD","featuresIntersected":"TUDOR ROAD OVERCROSSING","location":"MILE POINT 2.0","lat":62.58,"lon":-150.89,"adt":29400,"yearBuilt":1974,"lowestRating":6,"conditionCategory":"fair","structurallyDeficient":false,"materialName":"Prestressed Concrete","designTypeName":"Tee Beam","lengthFt":17.6}]}