{"total":872,"good":353,"fair":508,"poor":11,"structurallyDeficient":11,"goodPct":40.5,"fairPct":58.3,"poorPct":1.3,"sdPct":1.3,"materials":{"Steel":367,"Concrete":243,"Prestressed Concrete":219,"Wood/Timber":21,"Metal (Other)":13,"Other":7,"Masonry":2},"designTypes":{"Stringer/Multi-beam or Girder":406,"Culvert":198,"Box Beam - Multiple":117,"Slab":72,"Arch - Deck":24,"Box Beam - Single/Spread":19,"Truss - Thru":7,"Movable - Bascule":7,"Girder and Floorbeam":6,"Tee Beam":5,"Frame":2,"Suspension":2,"Movable - Lift":2,"Cable-Stayed":2,"Truss - Deck":1,"Movable - Swing":1,"Arch - Thru":1},"ageDistribution":{"80+ years":111,"21-40 years":240,"61-80 years":115,"41-60 years":255,"0-20 years":151},"owners":{"State Highway Agency":839,"Local Toll Authority":14,"City/Municipal":12,"Corps of Engineers":4,"State Park/Forest":3},"avgAdt":13593,"totalDailyCrossings":11853458,"avgYearBuilt":1977,"oldestYear":1839,"newestYear":2023,"avgLengthFt":22.4,"ratingDistribution":{"3":3,"4":8,"5":114,"6":394,"7":316,"8":35,"9":2},"state":"DE","stateName":"Delaware","countyCount":3,"cityCount":325,"topCounties":[{"fips":"003","total":527,"poor":5,"poorPct":0.9,"avgAdt":18174},{"fips":"001","total":192,"poor":3,"poorPct":1.6,"avgAdt":6619},{"fips":"005","total":153,"poor":3,"poorPct":2.0,"avgAdt":6568}],"worstBridges":[{"id":"DE-1159 327","state":"DE","stateName":"Delaware","countyFips":"003","facilityCarried":"JAMES ST.","featuresIntersected":"CHRISTINA RIVER","location":"NEWPORT BRIDGE","lat":40.75,"lon":-76.479167,"lowestRating":3,"yearBuilt":1929,"adt":4556,"conditionCategory":"poor","structurallyDeficient":true,"materialName":"Steel","designTypeName":"Girder and Floorbeam","lengthFt":212.9},{"id":"DE-2503 000","state":"DE","stateName":"Delaware","countyFips":"001","facilityCarried":"MAPLE AVE","featuresIntersected":"MISPILLION RIVER","location":"MILFORD","lat":40.045,"lon":-77.04,"lowestRating":3,"yearBuilt":1977,"adt":99,"conditionCategory":"poor","structurallyDeficient":true,"materialName":"Steel","designTypeName":"Culvert","lengthFt":44.0},{"id":"DE-3818 038","state":"DE","stateName":"Delaware","countyFips":"005","facilityCarried":"CODS ROAD","featuresIntersected":"SLAUGHTER CREEK","location":"WEST OF FOWLER BEACH","lat":39.927778,"lon":-76.104444,"lowestRating":3,"yearBuilt":1931,"adt":77,"conditionCategory":"poor","structurallyDeficient":true,"materialName":"Steel","designTypeName":"Stringer/Multi-beam or Girder","lengthFt":35.8},{"id":"DE-1488S001","state":"DE","stateName":"Delaware","countyFips":"003","facilityCarried":"DUPONT PKW/US13 SB","featuresIntersected":"BLACKBIRD CREEK","location":"NORTH OF BLACKBIRD","lat":39.966944,"lon":-76.816111,"lowestRating":4,"yearBuilt":1920,"adt":10619,"conditionCategory":"poor","structurallyDeficient":true,"materialName":"Concrete","designTypeName":"Arch - Deck","lengthFt":42.0},{"id":"DE-000000001495034","state":"DE","stateName":"Delaware","countyFips":"001","facilityCarried":"US ROUTE 13","featuresIntersected":"C & D CANAL","location":"4.5 MI. W. OF REEDY PT.","lat":39.772222,"lon":-75.733333,"lowestRating":4,"yearBuilt":1941,"adt":10208,"conditionCategory":"poor","structurallyDeficient":true,"materialName":"Steel","designTypeName":"Arch - Thru","lengthFt":4209.0},{"id":"DE-2356B356","state":"DE","stateName":"Delaware","countyFips":"001","facilityCarried":"LEBANON RD/SR10 WB","featuresIntersected":"ST. JONES RIVER","location":"SOUTH OF DOVER","lat":40.094444,"lon":-76.922222,"lowestRating":4,"yearBuilt":1965,"adt":8726,"conditionCategory":"poor","structurallyDeficient":true,"materialName":"Steel Continuous","designTypeName":"Stringer/Multi-beam or Girder","lengthFt":302.5},{"id":"DE-3437 058","state":"DE","stateName":"Delaware","countyFips":"005","facilityCarried":"SR 54","featuresIntersected":"ASSAWOMAN BAY","location":"FENWICK ISLAND","lat":38.712222,"lon":-76.484167,"lowestRating":4,"yearBuilt":1957,"adt":7555,"conditionCategory":"poor","structurallyDeficient":true,"materialName":"Prestressed Concrete","designTypeName":"Box Beam - Multiple","lengthFt":440.0},{"id":"DE-1391 424","state":"DE","stateName":"Delaware","countyFips":"003","facilityCarried":"SR 9","featuresIntersected":"APPOQUINIMINK RIVER","location":"N/E OF ODESSA","lat":41.025833,"lon":-76.951389,"lowestRating":4,"yearBuilt":1973,"adt":840,"conditionCategory":"poor","structurallyDeficient":true,"materialName":"Prestressed Concrete","designTypeName":"Box Beam - Multiple","lengthFt":204.7},{"id":"DE-1023A231","state":"DE","stateName":"Delaware","countyFips":"003","facilityCarried":"GUYENCOURT RD.","featuresIntersected":"READING RR","location":"BRANDYWINE AREA","lat":41.451389,"lon":-75.766667,"lowestRating":4,"yearBuilt":1918,"adt":532,"conditionCategory":"poor","structurallyDeficient":true,"materialName":"Wood or Timber","designTypeName":"Stringer/Multi-beam or Girder","lengthFt":66.9},{"id":"DE-3217 542A","state":"DE","stateName":"Delaware","countyFips":"005","facilityCarried":"CRAIGS MILL RD","featuresIntersected":"CRAIGS POND SPILLWAY","location":"WEST OF SEAFORD","lat":39.699722,"lon":-76.932778,"lowestRating":4,"yearBuilt":1973,"adt":200,"conditionCategory":"poor","structurallyDeficient":true,"materialName":"Aluminum/Wrought Iron/Cast Iron","designTypeName":"Culvert","lengthFt":24.0},{"id":"DE-1103 000","state":"DE","stateName":"Delaware","countyFips":"003","facilityCarried":"PRIVATE/PARK ROAD","featuresIntersected":"RED CLAY CREEK","location":"YORKLYN AREA","lat":40.615,"lon":-77.135,"lowestRating":4,"yearBuilt":1915,"adt":99,"conditionCategory":"poor","structurallyDeficient":true,"materialName":"Steel Continuous","designTypeName":"Stringer/Multi-beam or Girder","lengthFt":48.6}],"mostTrafficked":[{"id":"DE-1716 056","state":"DE","stateName":"Delaware","countyFips":"003","facilityCarried":"I95SB/JFK MEM HGWY","featuresIntersected":"SR1/KOREAN WAR VET MEM","location":"NORTH OF CHRISTIANA","lat":39.756389,"lon":-76.278889,"adt":207905,"yearBuilt":1963,"lowestRating":6,"conditionCategory":"fair","structurallyDeficient":false,"materialName":"Steel","designTypeName":"Stringer/Multi-beam or Girder","lengthFt":20.7},{"id":"DE-1706 056","state":"DE","stateName":"Delaware","countyFips":"003","facilityCarried":"I95 / JFK MEM HGWY","featuresIntersected":"NORFOLK SOUTHERN","location":"SOUTH OF NEWARK","lat":41.109444,"lon":-75.886667,"adt":117657,"yearBuilt":1962,"lowestRating":6,"conditionCategory":"fair","structurallyDeficient":false,"materialName":"Concrete","designTypeName":"Slab","lengthFt":3.3},{"id":"DE-1720 056","state":"DE","stateName":"Delaware","countyFips":"003","facilityCarried":"I 95 SB","featuresIntersected":"CHRISTINA CREEK","location":"S.W. OF NEWPORT","lat":40.813611,"lon":-76.207778,"adt":108883,"yearBuilt":1962,"lowestRating":6,"conditionCategory":"fair","structurallyDeficient":false,"materialName":"Steel","designTypeName":"Stringer/Multi-beam or Girder","lengthFt":22.3},{"id":"DE-1719 056","state":"DE","stateName":"Delaware","countyFips":"003","facilityCarried":"I 95 NB","featuresIntersected":"CHRISTINA CREEK","location":"S.W. OF NEWPORT","lat":40.793889,"lon":-76.2025,"adt":102970,"yearBuilt":1962,"lowestRating":5,"conditionCategory":"fair","structurallyDeficient":false,"materialName":"Steel","designTypeName":"Stringer/Multi-beam or Girder","lengthFt":22.3},{"id":"DE-1812 060","state":"DE","stateName":"Delaware","countyFips":"003","facilityCarried":"I 495","featuresIntersected":"TERMINAL AVE  RD 359","location":"SOUTH OF WILMINGTON","lat":40.037778,"lon":-76.249722,"adt":101111,"yearBuilt":1972,"lowestRating":6,"conditionCategory":"fair","structurallyDeficient":false,"materialName":"Steel","designTypeName":"Stringer/Multi-beam or Girder","lengthFt":19.5},{"id":"DE-1799 060","state":"DE","stateName":"Delaware","countyFips":"003","facilityCarried":"VIETNAM MEM HGWY","featuresIntersected":"SO.BRANCH-NAAMANS CREEK","location":"CLAYMONT","lat":40.734167,"lon":-75.786111,"adt":94071,"yearBuilt":1966,"lowestRating":6,"conditionCategory":"fair","structurallyDeficient":false,"materialName":"Concrete","designTypeName":"Culvert","lengthFt":3.3},{"id":"DE-1819S060","state":"DE","stateName":"Delaware","countyFips":"003","facilityCarried":"I 495 SB","featuresIntersected":"SHELLPOT CREEK","location":"EAST OF WILMINGTON","lat":40.972778,"lon":-76.769444,"adt":93552,"yearBuilt":1975,"lowestRating":5,"conditionCategory":"fair","structurallyDeficient":false,"materialName":"Steel","designTypeName":"Stringer/Multi-beam or Girder","lengthFt":15.6},{"id":"DE-1717 056","state":"DE","stateName":"Delaware","countyFips":"003","facilityCarried":"I 95 NB","featuresIntersected":"SR1/KOREAN WAR VET MEM","location":"NORTH OF CHRISTIANA","lat":39.730556,"lon":-76.286111,"adt":92793,"yearBuilt":1963,"lowestRating":6,"conditionCategory":"fair","structurallyDeficient":false,"materialName":"Steel","designTypeName":"Stringer/Multi-beam or Girder","lengthFt":20.9},{"id":"DE-1813 060","state":"DE","stateName":"Delaware","countyFips":"003","facilityCarried":"I 495","featuresIntersected":"CHRISTINA RIVER  N/S RR","location":"WILMINGTON","lat":40.725,"lon":-77.04,"adt":92029,"yearBuilt":1974,"lowestRating":5,"conditionCategory":"fair","structurallyDeficient":false,"materialName":"Steel Continuous","designTypeName":"Girder and Floorbeam","lengthFt":480.4},{"id":"DE-1902 082","state":"DE","stateName":"Delaware","countyFips":"003","facilityCarried":"Korean War Vet Mem","featuresIntersected":"C&D Canal  Rd. 412","location":"C&D Canal","lat":41.2,"lon":-76.261111,"adt":90068,"yearBuilt":1995,"lowestRating":5,"conditionCategory":"fair","structurallyDeficient":false,"materialName":"Prestressed Concrete","designTypeName":"Cable-Stayed","lengthFt":465.0}]}