{"total":15069,"good":11278,"fair":3551,"poor":240,"structurallyDeficient":240,"goodPct":74.8,"fairPct":23.6,"poorPct":1.6,"sdPct":1.6,"materials":{"Concrete":7844,"Prestressed Concrete":3557,"Steel":3495,"Wood/Timber":153,"Metal (Other)":10,"Masonry":6,"Other":4},"designTypes":{"Stringer/Multi-beam or Girder":5780,"Culvert":5672,"Tee Beam":1942,"Slab":543,"Channel Beam":518,"Box Beam - Multiple":343,"Box Beam - Single/Spread":111,"Arch - Deck":56,"Truss - Thru":40,"Girder and Floorbeam":33,"Frame":21,"Mixed Types":5,"Movable - Swing":2,"Cable-Stayed":2,"Truss - Deck":1},"ageDistribution":{"41-60 years":4355,"61-80 years":3302,"0-20 years":2281,"80+ years":1257,"21-40 years":3874},"owners":{"County Highway Agency":7140,"State Highway Agency":6868,"City/Municipal":793,"Unknown":150,"U.S. Forest Service":45,"State Park/Forest":23,"Railroad":22,"National Park Service":8,"Town/Township":6,"Corps of Engineers":6,"Private":3,"TVA":3,"Other State":2},"avgAdt":9922,"totalDailyCrossings":149491666,"avgYearBuilt":1977,"oldestYear":1872,"newestYear":2024,"avgLengthFt":15.6,"ratingDistribution":{"0":12,"1":15,"2":6,"3":27,"4":180,"5":865,"6":2686,"7":10842,"8":436},"state":"GA","stateName":"Georgia","countyCount":159,"cityCount":337,"topCounties":[{"fips":"121","total":775,"poor":8,"poorPct":1.0,"avgAdt":31763},{"fips":"067","total":414,"poor":0,"poorPct":0.0,"avgAdt":27526},{"fips":"089","total":392,"poor":6,"poorPct":1.5,"avgAdt":35870},{"fips":"135","total":317,"poor":0,"poorPct":0.0,"avgAdt":24541},{"fips":"051","total":265,"poor":3,"poorPct":1.1,"avgAdt":26487},{"fips":"021","total":220,"poor":0,"poorPct":0.0,"avgAdt":19702},{"fips":"015","total":219,"poor":5,"poorPct":2.3,"avgAdt":15048},{"fips":"215","total":208,"poor":0,"poorPct":0.0,"avgAdt":13981},{"fips":"115","total":202,"poor":7,"poorPct":3.5,"avgAdt":5907},{"fips":"071","total":194,"poor":1,"poorPct":0.5,"avgAdt":1717},{"fips":"245","total":183,"poor":3,"poorPct":1.6,"avgAdt":18607},{"fips":"275","total":179,"poor":0,"poorPct":0.0,"avgAdt":2441},{"fips":"077","total":173,"poor":1,"poorPct":0.6,"avgAdt":9103},{"fips":"175","total":169,"poor":6,"poorPct":3.6,"avgAdt":4580},{"fips":"045","total":168,"poor":1,"poorPct":0.6,"avgAdt":6356},{"fips":"063","total":168,"poor":2,"poorPct":1.2,"avgAdt":27240},{"fips":"285","total":168,"poor":1,"poorPct":0.6,"avgAdt":11612},{"fips":"057","total":164,"poor":0,"poorPct":0.0,"avgAdt":13579},{"fips":"139","total":151,"poor":2,"poorPct":1.3,"avgAdt":8599},{"fips":"295","total":149,"poor":3,"poorPct":2.0,"avgAdt":2572}],"worstBridges":[{"id":"GA-000000012100380","state":"GA","stateName":"Georgia","countyFips":"121","facilityCarried":"CHESHIRE BRIDGE RD","featuresIntersected":"CSX RAILROAD (639814N)","location":"IN N ATLANTA","lat":34.915,"lon":-85.080833,"lowestRating":0,"yearBuilt":1937,"adt":17700,"conditionCategory":"poor","structurallyDeficient":true,"materialName":"Steel","designTypeName":"Stringer/Multi-beam or Girder","lengthFt":201.1},{"id":"GA-000000015150070","state":"GA","stateName":"Georgia","countyFips":"151","facilityCarried":"SELFRIDGE ROAD","featuresIntersected":"LITTLE COTTON INDIAN CR","location":"4 MI N OF McDONOUGH","lat":34.806111,"lon":-85.374167,"lowestRating":0,"yearBuilt":1955,"adt":320,"conditionCategory":"poor","structurallyDeficient":true,"materialName":"Steel","designTypeName":"Stringer/Multi-beam or Girder","lengthFt":43.0},{"id":"GA-000000014150230","state":"GA","stateName":"Georgia","countyFips":"141","facilityCarried":"WATER WORKS RD","featuresIntersected":"CSX RAILROAD (279806B)","location":"2.1 MI W OF SPARTA","lat":33.529167,"lon":-84.009444,"lowestRating":0,"yearBuilt":1989,"adt":240,"conditionCategory":"poor","structurallyDeficient":true,"materialName":"Wood or Timber","designTypeName":"Stringer/Multi-beam or Girder","lengthFt":69.9},{"id":"GA-000000016950170","state":"GA","stateName":"Georgia","countyFips":"169","facilityCarried":"DUMAS ROAD","featuresIntersected":"GLADY CREEK","location":"4.4 MI NE OF ROUND OAK","lat":33.198889,"lon":-84.189722,"lowestRating":0,"yearBuilt":1940,"adt":121,"conditionCategory":"poor","structurallyDeficient":true,"materialName":"Steel Continuous","designTypeName":"Stringer/Multi-beam or Girder","lengthFt":40.0},{"id":"GA-000000001150120","state":"GA","stateName":"Georgia","countyFips":"011","facilityCarried":"HEMBREE ROAD","featuresIntersected":"HICKORY LEVEL CREEK","location":"4.6 MI S OF HOMER","lat":35.702778,"lon":-83.522778,"lowestRating":0,"yearBuilt":1958,"adt":103,"conditionCategory":"poor","structurallyDeficient":true,"materialName":"Steel Continuous","designTypeName":"Stringer/Multi-beam or Girder","lengthFt":56.1},{"id":"GA-000000010550260","state":"GA","stateName":"Georgia","countyFips":"105","facilityCarried":"BROWNS BRIDGE ROAD","featuresIntersected":"MILL SHOAL CREEK","location":"3.3 MI SW OF BOWMAN","lat":34.406111,"lon":-83.264167,"lowestRating":0,"yearBuilt":1993,"adt":103,"conditionCategory":"poor","structurallyDeficient":true,"materialName":"Steel","designTypeName":"Stringer/Multi-beam or Girder","lengthFt":27.9},{"id":"GA-000000010550270","state":"GA","stateName":"Georgia","countyFips":"105","facilityCarried":"Turman road.","featuresIntersected":"FORK CREEK","location":"4.8 MI S OF BOWMAN","lat":34.664167,"lon":-83.438056,"lowestRating":0,"yearBuilt":1956,"adt":103,"conditionCategory":"poor","structurallyDeficient":true,"materialName":"Steel","designTypeName":"Stringer/Multi-beam or Girder","lengthFt":37.1},{"id":"GA-000000015150620","state":"GA","stateName":"Georgia","countyFips":"151","facilityCarried":"RABBIT RUN ROAD","featuresIntersected":"TUSSAHAW CREEK TRIB","location":"4 MI. N. OF LOCUST CROVE","lat":33.783056,"lon":-84.656111,"lowestRating":0,"yearBuilt":1995,"adt":70,"conditionCategory":"poor","structurallyDeficient":true,"materialName":"Steel","designTypeName":"Stringer/Multi-beam or Girder","lengthFt":45.9},{"id":"GA-000000012550040","state":"GA","stateName":"Georgia","countyFips":"125","facilityCarried":"SNIDER ROAD","featuresIntersected":"JOES CREEK","location":"2.4 MI E OF MITCHELL","lat":33.740833,"lon":-83.780833,"lowestRating":0,"yearBuilt":1950,"adt":40,"conditionCategory":"poor","structurallyDeficient":true,"materialName":"Steel","designTypeName":"Stringer/Multi-beam or Girder","lengthFt":38.1},{"id":"GA-000000008750230","state":"GA","stateName":"Georgia","countyFips":"087","facilityCarried":"KEMP ROAD","featuresIntersected":"DOUBLE BRANCH","location":"5.75 MI E OF ATTAPULGUS","lat":31.453889,"lon":-84.685278,"lowestRating":0,"yearBuilt":1993,"adt":20,"conditionCategory":"poor","structurallyDeficient":true,"materialName":"Steel","designTypeName":"Culvert","lengthFt":49.9},{"id":"GA-000000011950670","state":"GA","stateName":"Georgia","countyFips":"119","facilityCarried":"BALD EAGLE ROAD","featuresIntersected":"CARLAN CREEK","location":"6.2 MI SW OF CARNESVILLE","lat":35.579167,"lon":-84.700833,"lowestRating":0,"yearBuilt":1987,"adt":20,"conditionCategory":"poor","structurallyDeficient":true,"materialName":"Steel","designTypeName":"Stringer/Multi-beam or Girder","lengthFt":51.8},{"id":"GA-000000027350160","state":"GA","stateName":"Georgia","countyFips":"273","facilityCarried":"JUDGE LAY ROAD","featuresIntersected":"BRANTLEY CREEK","location":"1.7 MI W OF SASSER","lat":31.883056,"lon":-84.516111,"lowestRating":0,"yearBuilt":1950,"adt":20,"conditionCategory":"poor","structurallyDeficient":true,"materialName":"Steel","designTypeName":"Stringer/Multi-beam or Girder","lengthFt":64.0},{"id":"GA-000000012104440","state":"GA","stateName":"Georgia","countyFips":"121","facilityCarried":"MT. VERNON HWY","featuresIntersected":"I-285 (SR 407)","location":"IN N FULTON","lat":35.391944,"lon":-84.461944,"lowestRating":1,"yearBuilt":1962,"adt":11500,"conditionCategory":"poor","structurallyDeficient":true,"materialName":"Steel Continuous","designTypeName":"Stringer/Multi-beam or Girder","lengthFt":291.0},{"id":"GA-000000008950820","state":"GA","stateName":"Georgia","countyFips":"089","facilityCarried":"CEDAR GROVE ROAD","featuresIntersected":"NS RAILROAD","location":"8 MI S OF DECATUR","lat":34.411944,"lon":-85.802778,"lowestRating":1,"yearBuilt":1965,"adt":10400,"conditionCategory":"poor","structurallyDeficient":true,"materialName":"Concrete","designTypeName":"Tee Beam","lengthFt":102.0},{"id":"GA-000000015700210","state":"GA","stateName":"Georgia","countyFips":"157","facilityCarried":"VALENTINE INDUSTRI","featuresIntersected":"I-85 (SR 403)","location":"4.5 MI NW OF JEFFERSON","lat":35.228889,"lon":-83.645278,"lowestRating":1,"yearBuilt":1964,"adt":3370,"conditionCategory":"poor","structurallyDeficient":true,"materialName":"Steel Continuous","designTypeName":"Stringer/Multi-beam or Girder","lengthFt":273.0},{"id":"GA-000000029300220","state":"GA","stateName":"Georgia","countyFips":"293","facilityCarried":"HANNAHS MILL ROAD","featuresIntersected":"POTATO CREEK","location":"NW EDGE OF THOMASTON","lat":33.15,"lon":-85.693889,"lowestRating":1,"yearBuilt":1966,"adt":2360,"conditionCategory":"poor","structurallyDeficient":true,"materialName":"Prestressed Concrete","designTypeName":"Channel Beam","lengthFt":224.1},{"id":"GA-000000006300860","state":"GA","stateName":"Georgia","countyFips":"063","facilityCarried":"REX CIRCLE","featuresIntersected":"BIG COTTON INDIAN CREEK","location":"1.6 MI E JCT SR 42 IN REX","lat":34.552778,"lon":-84.482222,"lowestRating":1,"yearBuilt":1932,"adt":2004,"conditionCategory":"poor","structurallyDeficient":true,"materialName":"Steel","designTypeName":"Truss - Thru","lengthFt":95.1},{"id":"GA-000000008951530","state":"GA","stateName":"Georgia","countyFips":"089","facilityCarried":"PARK DRIVE","featuresIntersected":"SNAPFINGER CREEK","location":"3MI E OF DECATUR","lat":34.127778,"lon":-84.933889,"lowestRating":1,"yearBuilt":1950,"adt":2004,"conditionCategory":"poor","structurallyDeficient":true,"materialName":"Steel","designTypeName":"Stringer/Multi-beam or Girder","lengthFt":26.9},{"id":"GA-000000010550220","state":"GA","stateName":"Georgia","countyFips":"105","facilityCarried":"SWEET CITY ROAD","featuresIntersected":"DOVE CREEK","location":"6.5 MI W OF ELBERTON","lat":34.203889,"lon":-83.538056,"lowestRating":1,"yearBuilt":1915,"adt":366,"conditionCategory":"poor","structurallyDeficient":true,"materialName":"Steel","designTypeName":"Truss - Thru","lengthFt":82.0},{"id":"GA-000000012350240","state":"GA","stateName":"Georgia","countyFips":"123","facilityCarried":"LOWER CARTECAY RD","featuresIntersected":"CARTECAY RIVER","location":"6 MI SE OF ELLIJAY","lat":35.167222,"lon":-85.266944,"lowestRating":1,"yearBuilt":1959,"adt":366,"conditionCategory":"poor","structurallyDeficient":true,"materialName":"Steel","designTypeName":"Stringer/Multi-beam or Girder","lengthFt":115.2},{"id":"GA-000000005550470","state":"GA","stateName":"Georgia","countyFips":"055","facilityCarried":"SADDLE CLUB ROAD","featuresIntersected":"GREENWOOD BRANCH","location":"2.7 MI SW OF TRION","lat":35.051944,"lon":-86.99,"lowestRating":1,"yearBuilt":1954,"adt":240,"conditionCategory":"poor","structurallyDeficient":true,"materialName":"Steel","designTypeName":"Stringer/Multi-beam or Girder","lengthFt":24.9},{"id":"GA-000000019950930","state":"GA","stateName":"Georgia","countyFips":"199","facilityCarried":"OAKLAND ROAD","featuresIntersected":"WOLF CREEK","location":"2 MI N OF GAY","lat":34.286111,"lon":-85.093056,"lowestRating":1,"yearBuilt":1985,"adt":220,"conditionCategory":"poor","structurallyDeficient":true,"materialName":"Concrete","designTypeName":"Slab","lengthFt":28.9},{"id":"GA-000000012151190","state":"GA","stateName":"Georgia","countyFips":"121","facilityCarried":"COCHRAN ROAD","featuresIntersected":"DEEP CREEK","location":"IN SOUTH FULTON","lat":33.722778,"lon":-85.688333,"lowestRating":1,"yearBuilt":1940,"adt":180,"conditionCategory":"poor","structurallyDeficient":true,"materialName":"Steel","designTypeName":"Stringer/Multi-beam or Girder","lengthFt":39.0},{"id":"GA-000000019950920","state":"GA","stateName":"Georgia","countyFips":"199","facilityCarried":"TRAMMEL ROAD","featuresIntersected":"WHITE SULPHUR CRK TRIB","location":"2 MI SE WHITE SULPHUR SPR","lat":33.983889,"lon":-86.066944,"lowestRating":1,"yearBuilt":1995,"adt":121,"conditionCategory":"poor","structurallyDeficient":true,"materialName":"Steel","designTypeName":"Stringer/Multi-beam or Girder","lengthFt":40.0},{"id":"GA-000000010550390","state":"GA","stateName":"Georgia","countyFips":"105","facilityCarried":"CALHOUN ROAD","featuresIntersected":"LITTLE BEAVERDAM CREEK","location":"6 MI E OF BOWMAN","lat":34.939167,"lon":-83.771667,"lowestRating":1,"yearBuilt":1951,"adt":103,"conditionCategory":"poor","structurallyDeficient":true,"materialName":"Steel","designTypeName":"Stringer/Multi-beam or Girder","lengthFt":64.0},{"id":"GA-000000014350820","state":"GA","stateName":"Georgia","countyFips":"143","facilityCarried":"BEACH CREEK ROAD","featuresIntersected":"BEACH CREEK","location":"3.4 MILES NORTH EAST OF T","lat":34.183889,"lon":-86.376944,"lowestRating":1,"yearBuilt":2000,"adt":103,"conditionCategory":"poor","structurallyDeficient":true,"materialName":"Prestressed Concrete","designTypeName":"Channel Beam","lengthFt":59.1},{"id":"GA-000000019950250","state":"GA","stateName":"Georgia","countyFips":"199","facilityCarried":"J W DUNN ROAD","featuresIntersected":"WHITE SULPHUR CRK TRIB","location":"1 MI SW OF DURAND","lat":33.325,"lon":-85.899167,"lowestRating":1,"yearBuilt":1950,"adt":20,"conditionCategory":"poor","structurallyDeficient":true,"materialName":"Steel","designTypeName":"Stringer/Multi-beam or Girder","lengthFt":26.9},{"id":"GA-000000012150460","state":"GA","stateName":"Georgia","countyFips":"121","facilityCarried":"GARRETTS  FERRY RD","featuresIntersected":"CHATTAHOOCHEE RIV TRIB","location":"9 MI NW OF PALMETTO","lat":34.997778,"lon":-86.248889,"lowestRating":2,"yearBuilt":1964,"adt":366,"conditionCategory":"poor","structurallyDeficient":true,"materialName":"Prestressed Concrete","designTypeName":"Channel Beam","lengthFt":29.9},{"id":"GA-000000026350140","state":"GA","stateName":"Georgia","countyFips":"263","facilityCarried":"GORMAN ROAD","featuresIntersected":"CSX RAILROAD","location":"N CITY LMT OF TALBOTTON","lat":33.447778,"lon":-85.164167,"lowestRating":2,"yearBuilt":1940,"adt":300,"conditionCategory":"poor","structurallyDeficient":true,"materialName":"Wood or Timber","designTypeName":"Stringer/Multi-beam or Girder","lengthFt":95.1},{"id":"GA-000000021350070","state":"GA","stateName":"Georgia","countyFips":"213","facilityCarried":"OLD FEDERAL ROAD","featuresIntersected":"MILL CREEK","location":"3.8 MI N OF CHATSWORTH","lat":35.125278,"lon":-85.695278,"lowestRating":2,"yearBuilt":1918,"adt":220,"conditionCategory":"poor","structurallyDeficient":true,"materialName":"Steel","designTypeName":"Truss - Thru","lengthFt":79.1},{"id":"GA-000000001150180","state":"GA","stateName":"Georgia","countyFips":"011","facilityCarried":"WRIGHTS MILL ROAD","featuresIntersected":"HUDSON RIVER","location":"7.3 MI SE OF HOMER","lat":34.586944,"lon":-83.663056,"lowestRating":2,"yearBuilt":1960,"adt":110,"conditionCategory":"poor","structurallyDeficient":true,"materialName":"Steel Continuous","designTypeName":"Truss - Thru","lengthFt":142.1},{"id":"GA-000000002550160","state":"GA","stateName":"Georgia","countyFips":"025","facilityCarried":"HUMPBACK ROAD","featuresIntersected":"LITTLE SATILLA RIVER","location":"6 MI N OF NAHUNTA","lat":32.653889,"lon":-83.507222,"lowestRating":2,"yearBuilt":1970,"adt":60,"conditionCategory":"poor","structurallyDeficient":true,"materialName":"Concrete","designTypeName":"Slab","lengthFt":131.9},{"id":"GA-080308000001027","state":"GA","stateName":"Georgia","countyFips":"237","facilityCarried":"FDR-1048","featuresIntersected":"ROCK CREEK","location":"1.9 MI S E STANFORDVILLE","lat":34.568056,"lon":-84.62,"lowestRating":2,"yearBuilt":1975,"adt":15,"conditionCategory":"poor","structurallyDeficient":true,"materialName":"Steel","designTypeName":"Culvert","lengthFt":22.0},{"id":"GA-000000023300550","state":"GA","stateName":"Georgia","countyFips":"233","facilityCarried":"COLLEGE STREET","featuresIntersected":"CSX RAILROAD","location":"IN SOUTH CEDARTOWN","lat":34.901111,"lon":-85.923611,"lowestRating":3,"yearBuilt":1918,"adt":2820,"conditionCategory":"poor","structurallyDeficient":true,"materialName":"Concrete","designTypeName":"Slab","lengthFt":144.0},{"id":"GA-000000004700500","state":"GA","stateName":"Georgia","countyFips":"047","facilityCarried":"KEITH ROAD","featuresIntersected":"LITTLE TIGER CREEK","location":"4.5 MI EAST OF RINGGOLD","lat":36.063889,"lon":-86.490278,"lowestRating":3,"yearBuilt":1967,"adt":1570,"conditionCategory":"poor","structurallyDeficient":true,"materialName":"Steel","designTypeName":"Stringer/Multi-beam or Girder","lengthFt":161.1},{"id":"GA-000000005500250","state":"GA","stateName":"Georgia","countyFips":"055","facilityCarried":"OAK HILL ROAD","featuresIntersected":"MOSTELLER CREEK","location":"0.5 MI W OF LYERLY","lat":34.933056,"lon":-86.813889,"lowestRating":3,"yearBuilt":1930,"adt":990,"conditionCategory":"poor","structurallyDeficient":true,"materialName":"Steel","designTypeName":"Stringer/Multi-beam or Girder","lengthFt":47.9},{"id":"GA-000000012300360","state":"GA","stateName":"Georgia","countyFips":"123","facilityCarried":"BOARDTOWN ROAD","featuresIntersected":"BOARDTOWN CREEK","location":"8.5 MI N OF ELLIJAY","lat":35.48,"lon":-84.481389,"lowestRating":3,"yearBuilt":1958,"adt":640,"conditionCategory":"poor","structurallyDeficient":true,"materialName":"Concrete Continuous","designTypeName":"Slab","lengthFt":42.0},{"id":"GA-000000027350210","state":"GA","stateName":"Georgia","countyFips":"273","facilityCarried":"MILL ROAD","featuresIntersected":"TURKEY CREEK","location":"3.6 MI W OF PARROTT","lat":33.416111,"lon":-84.822778,"lowestRating":3,"yearBuilt":1956,"adt":514,"conditionCategory":"poor","structurallyDeficient":true,"materialName":"Steel","designTypeName":"Stringer/Multi-beam or Girder","lengthFt":32.2},{"id":"GA-000000021350040","state":"GA","stateName":"Georgia","countyFips":"213","facilityCarried":"DENNIS MILL ROAD","featuresIntersected":"ROCK CREEK","location":"5.6 MI SE OF CHATSWORTH","lat":34.888889,"lon":-85.589167,"lowestRating":3,"yearBuilt":1933,"adt":366,"conditionCategory":"poor","structurallyDeficient":true,"materialName":"Steel","designTypeName":"Stringer/Multi-beam or Girder","lengthFt":90.9},{"id":"GA-000000021300480","state":"GA","stateName":"Georgia","countyFips":"213","facilityCarried":"CCC CAMP ROAD","featuresIntersected":"EMERY CREEK","location":"6.5 MI SE OF CRANDALL","lat":35.953889,"lon":-85.529167,"lowestRating":3,"yearBuilt":1934,"adt":280,"conditionCategory":"poor","structurallyDeficient":true,"materialName":"Steel","designTypeName":"Stringer/Multi-beam or Girder","lengthFt":60.0},{"id":"GA-000000019950520","state":"GA","stateName":"Georgia","countyFips":"199","facilityCarried":"MASSENGALES MILL","featuresIntersected":"RED OAK CREEK","location":"2 MI SW OF GAY","lat":34.363056,"lon":-86.050833,"lowestRating":3,"yearBuilt":1940,"adt":220,"conditionCategory":"poor","structurallyDeficient":true,"materialName":"Steel","designTypeName":"Stringer/Multi-beam or Girder","lengthFt":151.9},{"id":"GA-000000004990030","state":"GA","stateName":"Georgia","countyFips":"003","facilityCarried":"CR 120","featuresIntersected":"N PRONG ST MARYS RIVER","location":"1.4 MI EAST OF CR 127","lat":31.838889,"lon":-82.811111,"lowestRating":3,"yearBuilt":1970,"adt":151,"conditionCategory":"poor","structurallyDeficient":true,"materialName":"Concrete","designTypeName":"Slab","lengthFt":174.9},{"id":"GA-CEPSAMGA0000003","state":"GA","stateName":"Georgia","countyFips":"239","facilityCarried":"W.F.GEORGE ACC. RD","featuresIntersected":"RIVER BLUFF PARK ACC. RD","location":"1 MI N. OF GEORGETOWN GA.","lat":32.536111,"lon":-85.738889,"lowestRating":3,"yearBuilt":1963,"adt":125,"conditionCategory":"poor","structurallyDeficient":true,"materialName":"Prestressed Concrete","designTypeName":"Slab","lengthFt":44.6},{"id":"GA-000000016950250","state":"GA","stateName":"Georgia","countyFips":"169","facilityCarried":"COUNTY LINE ROAD","featuresIntersected":"COMMISSIONER CREEK","location":"10.8 MI SE OF GRAY","lat":33.328889,"lon":-83.634722,"lowestRating":3,"yearBuilt":1967,"adt":121,"conditionCategory":"poor","structurallyDeficient":true,"materialName":"Steel","designTypeName":"Stringer/Multi-beam or Girder","lengthFt":191.9},{"id":"GA-000000019950900","state":"GA","stateName":"Georgia","countyFips":"199","facilityCarried":"GORDON MAY ROAD","featuresIntersected":"FLATSHOAL CREEK TRIB","location":"3 MI SW OF GREENVILLE","lat":33.573056,"lon":-84.91,"lowestRating":3,"yearBuilt":1960,"adt":121,"conditionCategory":"poor","structurallyDeficient":true,"materialName":"Steel","designTypeName":"Stringer/Multi-beam or Girder","lengthFt":24.0},{"id":"GA-000000019951110","state":"GA","stateName":"Georgia","countyFips":"199","facilityCarried":"CAIN CREEK DRIVE","featuresIntersected":"CSX RAILROAD","location":"2 MI SOUTH OF WOODBURY","lat":33.178889,"lon":-85.066667,"lowestRating":3,"yearBuilt":1940,"adt":121,"conditionCategory":"poor","structurallyDeficient":true,"materialName":"Wood or Timber","designTypeName":"Stringer/Multi-beam or Girder","lengthFt":98.1},{"id":"GA-000000020550070","state":"GA","stateName":"Georgia","countyFips":"205","facilityCarried":"BAY POLE ROAD","featuresIntersected":"BAY POLE CREEK","location":"APP. 8 MILES SOUTHWEST  O","lat":31.718889,"lon":-84.467222,"lowestRating":3,"yearBuilt":1930,"adt":121,"conditionCategory":"poor","structurallyDeficient":true,"materialName":"Wood or Timber","designTypeName":"Stringer/Multi-beam or Girder","lengthFt":54.1},{"id":"GA-000000026350190","state":"GA","stateName":"Georgia","countyFips":"263","facilityCarried":"HARVEY INGRAM ROAD","featuresIntersected":"CELEOTH CREEK","location":"7 MI E OF WOODLAND","lat":33.246944,"lon":-85.514722,"lowestRating":3,"yearBuilt":1930,"adt":121,"conditionCategory":"poor","structurallyDeficient":true,"materialName":"Steel","designTypeName":"Stringer/Multi-beam or Girder","lengthFt":41.0},{"id":"GA-000000011150070","state":"GA","stateName":"Georgia","countyFips":"111","facilityCarried":"SHALLOWFORD BR","featuresIntersected":"TOCCOA RIVER","location":"6.4 MI S OF MORGANTON","lat":34.855,"lon":-85.195278,"lowestRating":3,"yearBuilt":1918,"adt":100,"conditionCategory":"poor","structurallyDeficient":true,"materialName":"Steel","designTypeName":"Truss - Thru","lengthFt":174.9},{"id":"GA-000000019750010","state":"GA","stateName":"Georgia","countyFips":"197","facilityCarried":"WALTER WELLS RD","featuresIntersected":"SHOAL CREEK","location":"5.5 MI NE OF BUENA VISTA","lat":32.8,"lon":-84.819722,"lowestRating":3,"yearBuilt":1960,"adt":70,"conditionCategory":"poor","structurallyDeficient":true,"materialName":"Steel","designTypeName":"Stringer/Multi-beam or Girder","lengthFt":80.1},{"id":"GA-000000005550410","state":"GA","stateName":"Georgia","countyFips":"055","facilityCarried":"LONG BRANCH ROAD","featuresIntersected":"CHAPPEL CREEK","location":"2.1 MI NE OF TRION","lat":34.946111,"lon":-86.638056,"lowestRating":3,"yearBuilt":1923,"adt":60,"conditionCategory":"poor","structurallyDeficient":true,"materialName":"Steel","designTypeName":"Stringer/Multi-beam or Girder","lengthFt":29.9},{"id":"GA-000000021350270","state":"GA","stateName":"Georgia","countyFips":"213","facilityCarried":"HASSLERS MILL RD","featuresIntersected":"MILL CREEK","location":"5.1 MI NE OF CHATSWORTH","lat":35.158056,"lon":-85.695833,"lowestRating":3,"yearBuilt":1952,"adt":50,"conditionCategory":"poor","structurallyDeficient":true,"materialName":"Steel","designTypeName":"Stringer/Multi-beam or Girder","lengthFt":29.9},{"id":"GA-000000029750070","state":"GA","stateName":"Georgia","countyFips":"297","facilityCarried":"DEWEY HOGAN ROAD","featuresIntersected":"BEAVERDAM CREEK","location":"3.5 MI SE OF BOLD SPRINGS","lat":34.549722,"lon":-84.645278,"lowestRating":3,"yearBuilt":1959,"adt":50,"conditionCategory":"poor","structurallyDeficient":true,"materialName":"Steel","designTypeName":"Stringer/Multi-beam or Girder","lengthFt":40.0},{"id":"GA-000000012350320","state":"GA","stateName":"Georgia","countyFips":"123","facilityCarried":"OLD BUCKTOWN RD","featuresIntersected":"TICKANETLEY CREEK","location":"11 MI SE OF ELLIJAY","lat":35.499167,"lon":-84.448333,"lowestRating":3,"yearBuilt":1978,"adt":40,"conditionCategory":"poor","structurallyDeficient":true,"materialName":"Steel","designTypeName":"Stringer/Multi-beam or Girder","lengthFt":82.0},{"id":"GA-000000027350220","state":"GA","stateName":"Georgia","countyFips":"273","facilityCarried":"MILL ROAD","featuresIntersected":"TURKEY CREEK","location":"3.5 MI W OF PARROTT","lat":33.411944,"lon":-84.767222,"lowestRating":3,"yearBuilt":1956,"adt":40,"conditionCategory":"poor","structurallyDeficient":true,"materialName":"Steel","designTypeName":"Stringer/Multi-beam or Girder","lengthFt":32.2},{"id":"GA-000000027350030","state":"GA","stateName":"Georgia","countyFips":"273","facilityCarried":"MELTON MILL ROAD","featuresIntersected":"WOLF CREEK","location":"2.1 MILES NORTHWEST  OF G","lat":32.448056,"lon":-85.470278,"lowestRating":3,"yearBuilt":1950,"adt":30,"conditionCategory":"poor","structurallyDeficient":true,"materialName":"Steel","designTypeName":"Stringer/Multi-beam or Girder","lengthFt":80.1},{"id":"GA-000000004550270","state":"GA","stateName":"Georgia","countyFips":"045","facilityCarried":"BRICKYARD ROAD","featuresIntersected":"BIG INDIAN CREEK","location":"2 MI W OF BOWDON","lat":35.086667,"lon":-85.723611,"lowestRating":3,"yearBuilt":1975,"adt":20,"conditionCategory":"poor","structurallyDeficient":true,"materialName":"Steel Continuous","designTypeName":"Stringer/Multi-beam or Girder","lengthFt":58.1},{"id":"GA-000000019950870","state":"GA","stateName":"Georgia","countyFips":"199","facilityCarried":"WINTER ROAD","featuresIntersected":"SULPHUR CREEK TRI","location":"1 MI N OF DURAND","lat":33.699167,"lon":-86.345278,"lowestRating":3,"yearBuilt":1988,"adt":20,"conditionCategory":"poor","structurallyDeficient":true,"materialName":"Steel","designTypeName":"Culvert","lengthFt":28.9},{"id":"GA-000000019951070","state":"GA","stateName":"Georgia","countyFips":"199","facilityCarried":"AUGUST CIR.","featuresIntersected":"WHITE SULPHUR CREEK TRIB","location":"4.4 MI SW OF HARRIS CITY","lat":33.168056,"lon":-85.39,"lowestRating":3,"yearBuilt":1980,"adt":10,"conditionCategory":"poor","structurallyDeficient":true,"materialName":"Steel","designTypeName":"Stringer/Multi-beam or Girder","lengthFt":30.8},{"id":"GA-000000020550380","state":"GA","stateName":"Georgia","countyFips":"205","facilityCarried":"HINSONTON ROAD","featuresIntersected":"LOST CREEK","location":"APP 2 MI NE OF COTTON","lat":32.598889,"lon":-85.18,"lowestRating":3,"yearBuilt":1984,"adt":10,"conditionCategory":"poor","structurallyDeficient":true,"materialName":"Wood or Timber","designTypeName":"Stringer/Multi-beam or Girder","lengthFt":81.0},{"id":"GA-000000024700020","state":"GA","stateName":"Georgia","countyFips":"247","facilityCarried":"SR 20","featuresIntersected":"I-20","location":"0.5 MI E OF CONYERS","lat":34.016667,"lon":-84.551667,"lowestRating":4,"yearBuilt":1963,"adt":45600,"conditionCategory":"poor","structurallyDeficient":true,"materialName":"Concrete","designTypeName":"Tee Beam","lengthFt":232.9},{"id":"GA-000000006300480","state":"GA","stateName":"Georgia","countyFips":"063","facilityCarried":"I-285 RAMP","featuresIntersected":"I-285 RAMP TO I-75 SBL","location":"0.4 MI N OF JCT SR 85","lat":35.210556,"lon":-84.722222,"lowestRating":4,"yearBuilt":1959,"adt":35000,"conditionCategory":"poor","structurallyDeficient":true,"materialName":"Steel","designTypeName":"Stringer/Multi-beam or Girder","lengthFt":113.8},{"id":"GA-000000012700620","state":"GA","stateName":"Georgia","countyFips":"127","facilityCarried":"SR 25SE TORRAS CAU","featuresIntersected":"MACKAY RIVER","location":"3 MI E OF BRUNSWICK","lat":31.635,"lon":-82.261667,"lowestRating":4,"yearBuilt":1986,"adt":32900,"conditionCategory":"poor","structurallyDeficient":true,"materialName":"Prestressed Concrete","designTypeName":"Stringer/Multi-beam or Girder","lengthFt":2601.0},{"id":"GA-000000008900400","state":"GA","stateName":"Georgia","countyFips":"089","facilityCarried":"SNAPFINGER ROAD","featuresIntersected":"SNAPFINGER CREEK","location":"5 MI W OF LITHONIA","lat":33.968056,"lon":-84.356111,"lowestRating":4,"yearBuilt":1954,"adt":27900,"conditionCategory":"poor","structurallyDeficient":true,"materialName":"Steel","designTypeName":"Stringer/Multi-beam or Girder","lengthFt":160.1},{"id":"GA-000000030500180","state":"GA","stateName":"Georgia","countyFips":"305","facilityCarried":"US 84 (WBL)","featuresIntersected":"LITTLE MCMILLAN CREEK","location":"IN CITY LIMITS OF JESUP","lat":31.985833,"lon":-82.272778,"lowestRating":4,"yearBuilt":1957,"adt":17800,"conditionCategory":"poor","structurallyDeficient":true,"materialName":"Concrete","designTypeName":"Tee Beam","lengthFt":200.1},{"id":"GA-000000001500180","state":"GA","stateName":"Georgia","countyFips":"015","facilityCarried":"US 41","featuresIntersected":"TWO RUN CREEK","location":"1 MI N OF CASSVILLE","lat":35.405833,"lon":-85.901944,"lowestRating":4,"yearBuilt":1949,"adt":11900,"conditionCategory":"poor","structurallyDeficient":true,"materialName":"Concrete","designTypeName":"Tee Beam","lengthFt":149.9},{"id":"GA-000000008901770","state":"GA","stateName":"Georgia","countyFips":"089","facilityCarried":"HOUSTON MILL ROAD","featuresIntersected":"S FORK PEACHTREE CREEK","location":"5.7 MI SE OF CHAMBLEE","lat":34.200833,"lon":-84.895556,"lowestRating":4,"yearBuilt":1958,"adt":11800,"conditionCategory":"poor","structurallyDeficient":true,"materialName":"Steel","designTypeName":"Stringer/Multi-beam or Girder","lengthFt":180.1},{"id":"GA-000000013900600","state":"GA","stateName":"Georgia","countyFips":"139","facilityCarried":"McEVER RD","featuresIntersected":"BALUS CREEK","location":"IN NORTH OAKWOOD","lat":34.277778,"lon":-84.823889,"lowestRating":4,"yearBuilt":1961,"adt":11100,"conditionCategory":"poor","structurallyDeficient":true,"materialName":"Steel","designTypeName":"Culvert","lengthFt":28.9},{"id":"GA-000000031100070","state":"GA","stateName":"Georgia","countyFips":"311","facilityCarried":"SR 17- SR 75","featuresIntersected":"CHATTAHOOCHEE RIVER","location":"1.5 MI SE OF HELEN","lat":35.093889,"lon":-84.740278,"lowestRating":4,"yearBuilt":1941,"adt":10200,"conditionCategory":"poor","structurallyDeficient":true,"materialName":"Steel","designTypeName":"Stringer/Multi-beam or Girder","lengthFt":279.9},{"id":"GA-000000024100160","state":"GA","stateName":"Georgia","countyFips":"241","facilityCarried":"SR 15  US 23   US","featuresIntersected":"BETTY CREEK","location":"INSIDE DILLARD CITY LIMIT","lat":35.060833,"lon":-83.889722,"lowestRating":4,"yearBuilt":1926,"adt":9330,"conditionCategory":"poor","structurallyDeficient":true,"materialName":"Concrete","designTypeName":"Tee Beam","lengthFt":120.1},{"id":"GA-000000025500250","state":"GA","stateName":"Georgia","countyFips":"255","facilityCarried":"POPLAR STREET","featuresIntersected":"NS RAILROAD","location":"IN GRIFFIN","lat":34.483889,"lon":-84.393611,"lowestRating":4,"yearBuilt":1977,"adt":6820,"conditionCategory":"poor","structurallyDeficient":true,"materialName":"Prestressed Concrete","designTypeName":"Box Beam - Multiple","lengthFt":65.9},{"id":"GA-000000019100070","state":"GA","stateName":"Georgia","countyFips":"191","facilityCarried":"US 17 SR 25","featuresIntersected":"DARIEN RIVER","location":"IN CITY LIMIT OF DARIEN","lat":33.001944,"lon":-81.781389,"lowestRating":4,"yearBuilt":1944,"adt":6790,"conditionCategory":"poor","structurallyDeficient":true,"materialName":"Steel","designTypeName":"Girder and Floorbeam","lengthFt":1452.1},{"id":"GA-000000011500750","state":"GA","stateName":"Georgia","countyFips":"115","facilityCarried":"CALHOUN ROAD","featuresIntersected":"ZUBER CREEK","location":"3.3 MI SW OF SHANNON","lat":34.513056,"lon":-85.872778,"lowestRating":4,"yearBuilt":1931,"adt":6180,"conditionCategory":"poor","structurallyDeficient":true,"materialName":"Concrete","designTypeName":"Culvert","lengthFt":25.9},{"id":"GA-000000003550560","state":"GA","stateName":"Georgia","countyFips":"035","facilityCarried":"SR 36","featuresIntersected":"NORRIS CREEK","location":"3.2 MI SW OF JACKSON","lat":34.083611,"lon":-84.073333,"lowestRating":4,"yearBuilt":1954,"adt":5920,"conditionCategory":"poor","structurallyDeficient":true,"materialName":"Steel","designTypeName":"Culvert","lengthFt":25.9},{"id":"GA-000000002500250","state":"GA","stateName":"Georgia","countyFips":"025","facilityCarried":"US 82 COR Z WBL /","featuresIntersected":"SATILLA RIVER OVERFLOW","location":"14 MI E OF HOBOKEN","lat":31.315,"lon":-83.343889,"lowestRating":4,"yearBuilt":1964,"adt":5680,"conditionCategory":"poor","structurallyDeficient":true,"materialName":"Steel Continuous","designTypeName":"Stringer/Multi-beam or Girder","lengthFt":680.1},{"id":"GA-000000021700630","state":"GA","stateName":"Georgia","countyFips":"217","facilityCarried":"SR 212","featuresIntersected":"LAKE JACKSON(OCMULGEE R)","location":"13.9 MI S OF COVINGTON","lat":34.355,"lon":-85.315,"lowestRating":4,"yearBuilt":1964,"adt":5470,"conditionCategory":"poor","structurallyDeficient":true,"materialName":"Steel Continuous","designTypeName":"Stringer/Multi-beam or Girder","lengthFt":702.1},{"id":"GA-000000004700470","state":"GA","stateName":"Georgia","countyFips":"047","facilityCarried":"POST ROAD (M-1110)","featuresIntersected":"I-75","location":"2 MI WEST OF RINGGOLD","lat":35.149167,"lon":-86.530833,"lowestRating":4,"yearBuilt":1961,"adt":5360,"conditionCategory":"poor","structurallyDeficient":true,"materialName":"Steel","designTypeName":"Stringer/Multi-beam or Girder","lengthFt":256.9},{"id":"GA-000000005100540","state":"GA","stateName":"Georgia","countyFips":"051","facilityCarried":"HOULIHAN BRIDGE","featuresIntersected":"SAVANNAH RIVER","location":"1 MI NE  PORT WENTWORTH","lat":33.690278,"lon":-81.603333,"lowestRating":4,"yearBuilt":1922,"adt":5240,"conditionCategory":"poor","structurallyDeficient":true,"materialName":"Steel Continuous","designTypeName":"Movable - Swing","lengthFt":1464.9},{"id":"GA-000000011500950","state":"GA","stateName":"Georgia","countyFips":"115","facilityCarried":"KINGSTON AVENUE","featuresIntersected":"NS RAILROAD (719097","location":"IN NORTH EAST ROME","lat":35.606944,"lon":-85.838333,"lowestRating":4,"yearBuilt":1978,"adt":5220,"conditionCategory":"poor","structurallyDeficient":true,"materialName":"Steel","designTypeName":"Stringer/Multi-beam or Girder","lengthFt":133.9},{"id":"GA-000000025750110","state":"GA","stateName":"Georgia","countyFips":"257","facilityCarried":"FERNSIDE DRIVE","featuresIntersected":"WARDS CREEK","location":"2.5 MI E OF TOCCOA","lat":35.087222,"lon":-84.089722,"lowestRating":4,"yearBuilt":1956,"adt":4980,"conditionCategory":"poor","structurallyDeficient":true,"materialName":"Steel","designTypeName":"Stringer/Multi-beam or Girder","lengthFt":32.2},{"id":"GA-000000014790010","state":"GA","stateName":"Georgia","countyFips":"007","facilityCarried":"US 29","featuresIntersected":"SAVANNAH RIV/CO RD IN GA","location":"13.7MI SW OF ANDERSON","lat":34.767778,"lon":-84.349444,"lowestRating":4,"yearBuilt":1956,"adt":4900,"conditionCategory":"poor","structurallyDeficient":true,"materialName":"Steel Continuous","designTypeName":"Stringer/Multi-beam or Girder","lengthFt":1145.0},{"id":"GA-000000012300210","state":"GA","stateName":"Georgia","countyFips":"123","facilityCarried":"SR 52","featuresIntersected":"LICKLOG CREEK","location":"6.6 MI SE OF ELLIJAY","lat":35.489167,"lon":-84.779167,"lowestRating":4,"yearBuilt":1940,"adt":4880,"conditionCategory":"poor","structurallyDeficient":true,"materialName":"Concrete","designTypeName":"Tee Beam","lengthFt":104.0},{"id":"GA-000000013900350","state":"GA","stateName":"Georgia","countyFips":"139","facilityCarried":"SR 283","featuresIntersected":"FLAT CREEK","location":"1.5 MI E OF CLERMONT","lat":35.259167,"lon":-85.055278,"lowestRating":4,"yearBuilt":1960,"adt":4410,"conditionCategory":"poor","structurallyDeficient":true,"materialName":"Steel","designTypeName":"Culvert","lengthFt":29.9},{"id":"GA-000000005100550","state":"GA","stateName":"Georgia","countyFips":"051","facilityCarried":"OCEAN HIGHWAY","featuresIntersected":"MIDDLE RIVER","location":"1 MI NE  PORT WENTWORTH","lat":33.724167,"lon":-81.455,"lowestRating":4,"yearBuilt":1922,"adt":4280,"conditionCategory":"poor","structurallyDeficient":true,"materialName":"Concrete","designTypeName":"Tee Beam","lengthFt":1818.9},{"id":"GA-000000021300330","state":"GA","stateName":"Georgia","countyFips":"213","facilityCarried":"US 76/SR 282","featuresIntersected":"ROCK CREEK","location":"5.3 MI S OF CHATSWORTH","lat":35.863056,"lon":-84.832222,"lowestRating":4,"yearBuilt":1910,"adt":4190,"conditionCategory":"poor","structurallyDeficient":true,"materialName":"Concrete","designTypeName":"Arch - Deck","lengthFt":99.1},{"id":"GA-000000015750370","state":"GA","stateName":"Georgia","countyFips":"157","facilityCarried":"O. PENDERGRASS RD","featuresIntersected":"MIDDLE OCONEE RIVER","location":"3.2 MI SE OF PENDERGRASS","lat":35.42,"lon":-84.283889,"lowestRating":4,"yearBuilt":1960,"adt":3330,"conditionCategory":"poor","structurallyDeficient":true,"materialName":"Concrete","designTypeName":"Tee Beam","lengthFt":240.2},{"id":"GA-000000020700260","state":"GA","stateName":"Georgia","countyFips":"207","facilityCarried":"SR 83","featuresIntersected":"LEE CREEK","location":"11 MI NE OF FORSYTH","lat":33.950833,"lon":-84.743611,"lowestRating":4,"yearBuilt":1958,"adt":2790,"conditionCategory":"poor","structurallyDeficient":true,"materialName":"Concrete","designTypeName":"Tee Beam","lengthFt":200.1},{"id":"GA-000000012103900","state":"GA","stateName":"Georgia","countyFips":"121","facilityCarried":"WESTVIEW DRIVE","featuresIntersected":"M-9131- WHITE STREET","location":"IN WEST ATLANTA","lat":35.131111,"lon":-85.733333,"lowestRating":4,"yearBuilt":1965,"adt":2620,"conditionCategory":"poor","structurallyDeficient":true,"materialName":"Steel","designTypeName":"Stringer/Multi-beam or Girder","lengthFt":317.9},{"id":"GA-000000012151490","state":"GA","stateName":"Georgia","countyFips":"121","facilityCarried":"MARIETTA ROAD","featuresIntersected":"CSX RR YARD  (TILFORD)","location":"IN N W ATLANTA","lat":33.818889,"lon":-85.346667,"lowestRating":4,"yearBuilt":1971,"adt":2600,"conditionCategory":"poor","structurallyDeficient":true,"materialName":"Prestressed Concrete","designTypeName":"Box Beam - Multiple","lengthFt":422.9},{"id":"GA-000000012300070","state":"GA","stateName":"Georgia","countyFips":"123","facilityCarried":"NORTH MAIN STREET","featuresIntersected":"ELLIJAY RIVER","location":"IN ELLIJAY","lat":34.786944,"lon":-85.572222,"lowestRating":4,"yearBuilt":1929,"adt":2550,"conditionCategory":"poor","structurallyDeficient":true,"materialName":"Concrete","designTypeName":"Tee Beam","lengthFt":252.0},{"id":"GA-000000025700150","state":"GA","stateName":"Georgia","countyFips":"257","facilityCarried":"POND STREET","featuresIntersected":"NORFOLK SOUTH RAILROAD","location":"CITY OF TOCCOA","lat":35.741944,"lon":-84.490833,"lowestRating":4,"yearBuilt":1950,"adt":2150,"conditionCategory":"poor","structurallyDeficient":true,"materialName":"Steel","designTypeName":"Stringer/Multi-beam or Girder","lengthFt":79.1},{"id":"GA-000000019900530","state":"GA","stateName":"Georgia","countyFips":"199","facilityCarried":"SR 362","featuresIntersected":"CSX RAILROAD","location":"IN ALVATON","lat":33.573056,"lon":-85.869722,"lowestRating":4,"yearBuilt":1960,"adt":2120,"conditionCategory":"poor","structurallyDeficient":true,"materialName":"Steel","designTypeName":"Stringer/Multi-beam or Girder","lengthFt":105.0},{"id":"GA-000000012151540","state":"GA","stateName":"Georgia","countyFips":"121","facilityCarried":"LOTUS AVE.","featuresIntersected":"PROCTOR CREEK TRIB","location":"IN N W ATLANTA","lat":34.213889,"lon":-85.877222,"lowestRating":4,"yearBuilt":1925,"adt":2004,"conditionCategory":"poor","structurallyDeficient":true,"materialName":"Steel","designTypeName":"Stringer/Multi-beam or Girder","lengthFt":26.9},{"id":"GA-000000012150820","state":"GA","stateName":"Georgia","countyFips":"121","facilityCarried":"JOHNSON ROAD","featuresIntersected":"SHOAL CREEK","location":"4 MI SW OF FAIRBURN","lat":33.883889,"lon":-84.690833,"lowestRating":4,"yearBuilt":1955,"adt":1850,"conditionCategory":"poor","structurallyDeficient":true,"materialName":"Concrete","designTypeName":"Slab","lengthFt":29.9},{"id":"GA-000000011100390","state":"GA","stateName":"Georgia","countyFips":"111","facilityCarried":"MADOLA ROAD","featuresIntersected":"FIGHTINGTOWN CREEK","location":"4.5 MI SW OF MCCAYSVILLE","lat":35.924167,"lon":-85.446389,"lowestRating":4,"yearBuilt":1956,"adt":1840,"conditionCategory":"poor","structurallyDeficient":true,"materialName":"Concrete","designTypeName":"Tee Beam","lengthFt":149.9},{"id":"GA-000000026900190","state":"GA","stateName":"Georgia","countyFips":"269","facilityCarried":"SR 128","featuresIntersected":"PATSILIGA CREEK","location":"0.7 MI N OF REYNOLDS","lat":33.294722,"lon":-84.788611,"lowestRating":4,"yearBuilt":1937,"adt":1810,"conditionCategory":"poor","structurallyDeficient":true,"materialName":"Concrete","designTypeName":"Tee Beam","lengthFt":180.1},{"id":"GA-000000018700060","state":"GA","stateName":"Georgia","countyFips":"187","facilityCarried":"US 19 / SR 9","featuresIntersected":"CHESTATEE RIVER","location":"10.25 MI NE OF DAHLONEGA","lat":35.947222,"lon":-84.033611,"lowestRating":4,"yearBuilt":1929,"adt":1770,"conditionCategory":"poor","structurallyDeficient":true,"materialName":"Concrete","designTypeName":"Tee Beam","lengthFt":120.1},{"id":"GA-000000007100680","state":"GA","stateName":"Georgia","countyFips":"071","facilityCarried":"ELLENTON-OMEGA RD","featuresIntersected":"WARRIOR CREEK","location":"APP 6 MI N OF ELLENTON","lat":31.681944,"lon":-84.428611,"lowestRating":4,"yearBuilt":1939,"adt":1650,"conditionCategory":"poor","structurallyDeficient":true,"materialName":"Concrete","designTypeName":"Tee Beam","lengthFt":299.9},{"id":"GA-000000024550190","state":"GA","stateName":"Georgia","countyFips":"245","facilityCarried":"GOODRICH ROAD","featuresIntersected":"CANAL SPILLWAY","location":"13.7 MI NE OF HEPHZIBAH","lat":34.745,"lon":-83.338056,"lowestRating":4,"yearBuilt":1940,"adt":1606,"conditionCategory":"poor","structurallyDeficient":true,"materialName":"Steel Continuous","designTypeName":"Stringer/Multi-beam or Girder","lengthFt":29.9},{"id":"GA-000000021350280","state":"GA","stateName":"Georgia","countyFips":"213","facilityCarried":"COOL SPRINGS RD","featuresIntersected":"CSX RAILROAD (340672T)","location":"5.2 MI SE OF CHATSWORTH","lat":36.16,"lon":-86.141111,"lowestRating":4,"yearBuilt":1966,"adt":1600,"conditionCategory":"poor","structurallyDeficient":true,"materialName":"Steel","designTypeName":"Stringer/Multi-beam or Girder","lengthFt":155.8},{"id":"GA-000000031350500","state":"GA","stateName":"Georgia","countyFips":"313","facilityCarried":"McGAUGHEY CHAPEL R","featuresIntersected":"COAHULLA CREEK","location":"3 MI NE OF VARNELL","lat":35.878889,"lon":-86.306111,"lowestRating":4,"yearBuilt":1978,"adt":1560,"conditionCategory":"poor","structurallyDeficient":true,"materialName":"Steel Continuous","designTypeName":"Stringer/Multi-beam or Girder","lengthFt":117.1},{"id":"GA-000000018100140","state":"GA","stateName":"Georgia","countyFips":"181","facilityCarried":"SR 220","featuresIntersected":"SOAP CREEK","location":"5 MI E OF LINCOLNTON","lat":34.983889,"lon":-82.800833,"lowestRating":4,"yearBuilt":1952,"adt":1480,"conditionCategory":"poor","structurallyDeficient":true,"materialName":"Steel","designTypeName":"Stringer/Multi-beam or Girder","lengthFt":330.1},{"id":"GA-000000011350360","state":"GA","stateName":"Georgia","countyFips":"113","facilityCarried":"CROSS CREEK TRAIL","featuresIntersected":"GAY CREEK","location":"1.5 MI N OF INMAN","lat":33.772222,"lon":-86.025278,"lowestRating":4,"yearBuilt":1988,"adt":1450,"conditionCategory":"poor","structurallyDeficient":true,"materialName":"Steel","designTypeName":"Culvert","lengthFt":29.9},{"id":"GA-000000029750220","state":"GA","stateName":"Georgia","countyFips":"297","facilityCarried":"CHANDLER HAULK RD","featuresIntersected":"LITTLE HAYNES CREEK TRIB","location":"1.9 MI S OF LOGANVILLE","lat":35.018056,"lon":-84.258056,"lowestRating":4,"yearBuilt":1957,"adt":1450,"conditionCategory":"poor","structurallyDeficient":true,"materialName":"Steel","designTypeName":"Stringer/Multi-beam or Girder","lengthFt":47.9},{"id":"GA-000000014100100","state":"GA","stateName":"Georgia","countyFips":"141","facilityCarried":"SR 16","featuresIntersected":"OGEECHEE RIVER","location":"11.3 MI E OF SPARTA","lat":34.496111,"lon":-84.247222,"lowestRating":4,"yearBuilt":1969,"adt":1390,"conditionCategory":"poor","structurallyDeficient":true,"materialName":"Steel","designTypeName":"Stringer/Multi-beam or Girder","lengthFt":414.0},{"id":"GA-000000005500420","state":"GA","stateName":"Georgia","countyFips":"055","facilityCarried":"BACK BERRYTON RD","featuresIntersected":"RACCOON CREEK TRIB.","location":"IN NE BERRYTON","lat":35.573056,"lon":-86.625833,"lowestRating":4,"yearBuilt":1952,"adt":1358,"conditionCategory":"poor","structurallyDeficient":true,"materialName":"Steel","designTypeName":"Stringer/Multi-beam or Girder","lengthFt":24.9},{"id":"GA-000000025190010","state":"GA","stateName":"Georgia","countyFips":"005","facilityCarried":"US 301","featuresIntersected":"SAVANNAH RIVER","location":"GA/SC STATE LINE","lat":33.415278,"lon":-81.655833,"lowestRating":4,"yearBuilt":1965,"adt":1350,"conditionCategory":"poor","structurallyDeficient":true,"materialName":"Steel Continuous","designTypeName":"Stringer/Multi-beam or Girder","lengthFt":1549.9},{"id":"GA-000000008950720","state":"GA","stateName":"Georgia","countyFips":"089","facilityCarried":"PRESIDENTIAL DRIVE","featuresIntersected":"N FORK PEACHTREE CREEK","location":"0.5 MI SE OF DORAVILLE","lat":34.226389,"lon":-85.430278,"lowestRating":4,"yearBuilt":1967,"adt":1290,"conditionCategory":"poor","structurallyDeficient":true,"materialName":"Steel Continuous","designTypeName":"Stringer/Multi-beam or Girder","lengthFt":80.1},{"id":"GA-000000017550790","state":"GA","stateName":"Georgia","countyFips":"175","facilityCarried":"N. FRANKLIN STREET","featuresIntersected":"HUNGER & HARDSHIP CREEK","location":"IN DUBLIN","lat":33.115,"lon":-84.143056,"lowestRating":4,"yearBuilt":1936,"adt":1290,"conditionCategory":"poor","structurallyDeficient":true,"materialName":"Concrete","designTypeName":"Tee Beam","lengthFt":136.2},{"id":"GA-000000025100390","state":"GA","stateName":"Georgia","countyFips":"251","facilityCarried":"ROCKY FORD ROAD","featuresIntersected":"HORSE CREEK","location":"0.7 MI S OF ROCKY FORD","lat":33.204167,"lon":-82.262222,"lowestRating":4,"yearBuilt":1987,"adt":1200,"conditionCategory":"poor","structurallyDeficient":true,"materialName":"Prestressed Concrete","designTypeName":"Stringer/Multi-beam or Girder","lengthFt":359.9},{"id":"GA-000000019550120","state":"GA","stateName":"Georgia","countyFips":"195","facilityCarried":"ROGERS MILL ROAD","featuresIntersected":"SOUTH FORK BROAD RIVER","location":"2.5 MI SE OF ILA","lat":35.234167,"lon":-84.737778,"lowestRating":4,"yearBuilt":1959,"adt":1070,"conditionCategory":"poor","structurallyDeficient":true,"materialName":"Concrete","designTypeName":"Tee Beam","lengthFt":134.8},{"id":"GA-000000025700120","state":"GA","stateName":"Georgia","countyFips":"257","facilityCarried":"BROOKHAVEN CIR","featuresIntersected":"EASTANOLLEE CREEK","location":"2.5 MI NE OF AVALON","lat":35.378056,"lon":-84.428889,"lowestRating":4,"yearBuilt":1963,"adt":1060,"conditionCategory":"poor","structurallyDeficient":true,"materialName":"Concrete","designTypeName":"Tee Beam","lengthFt":134.8},{"id":"GA-000000028550410","state":"GA","stateName":"Georgia","countyFips":"285","facilityCarried":"MOBLEY BRIDGE RD","featuresIntersected":"YELLOW JACKET CREEK TRIB","location":"5 MI N OF LAGRANGE","lat":34.115,"lon":-85.055,"lowestRating":4,"yearBuilt":1950,"adt":970,"conditionCategory":"poor","structurallyDeficient":true,"materialName":"Prestressed Concrete","designTypeName":"Channel Beam","lengthFt":49.9},{"id":"GA-000000029550340","state":"GA","stateName":"Georgia","countyFips":"295","facilityCarried":"STRAIGHT CUT ROAD","featuresIntersected":"CRAWFISH CREEK","location":"8.9 MI N OF LAFAYETTE","lat":35.583056,"lon":-85.301111,"lowestRating":4,"yearBuilt":1923,"adt":920,"conditionCategory":"poor","structurallyDeficient":true,"materialName":"Steel Continuous","designTypeName":"Stringer/Multi-beam or Girder","lengthFt":34.1},{"id":"GA-000000019950970","state":"GA","stateName":"Georgia","countyFips":"199","facilityCarried":"COUNTY LINE ROAD","featuresIntersected":"BLUE CREEK","location":"6.0 MI E OF LUTHERSVILLE","lat":34.816944,"lon":-86.104167,"lowestRating":4,"yearBuilt":1965,"adt":910,"conditionCategory":"poor","structurallyDeficient":true,"materialName":"Steel","designTypeName":"Stringer/Multi-beam or Girder","lengthFt":40.0},{"id":"GA-000000029500390","state":"GA","stateName":"Georgia","countyFips":"295","facilityCarried":"EAST ARMUCHEE RD","featuresIntersected":"EAST ARMUCHEE CREEK","location":"1.5 MI SOUTH OF VILLANOW","lat":34.837778,"lon":-85.255833,"lowestRating":4,"yearBuilt":1973,"adt":910,"conditionCategory":"poor","structurallyDeficient":true,"materialName":"Concrete","designTypeName":"Tee Beam","lengthFt":60.0},{"id":"GA-000000018700180","state":"GA","stateName":"Georgia","countyFips":"187","facilityCarried":"CAVENDER CRK RD","featuresIntersected":"CHESTATEE RIVER","location":"7 MI NE OF DAHLONEGA","lat":35.777778,"lon":-84.235278,"lowestRating":4,"yearBuilt":1950,"adt":903,"conditionCategory":"poor","structurallyDeficient":true,"materialName":"Steel","designTypeName":"Stringer/Multi-beam or Girder","lengthFt":69.9},{"id":"GA-000000031150400","state":"GA","stateName":"Georgia","countyFips":"311","facilityCarried":"JESS HUNT ROAD","featuresIntersected":"COX CREEK","location":"W CLEVELAND CITY LIMITS","lat":36.228889,"lon":-84.986944,"lowestRating":4,"yearBuilt":1980,"adt":903,"conditionCategory":"poor","structurallyDeficient":true,"materialName":"Steel","designTypeName":"Culvert","lengthFt":25.9},{"id":"GA-000000001551190","state":"GA","stateName":"Georgia","countyFips":"015","facilityCarried":"COOPERS FURNACE RO","featuresIntersected":"COOPERS FURNCAE","location":"3 MI EAST OF CARTERSVILLE","lat":35.491111,"lon":-85.836111,"lowestRating":4,"yearBuilt":2006,"adt":804,"conditionCategory":"poor","structurallyDeficient":true,"materialName":"Steel","designTypeName":"Culvert","lengthFt":21.0},{"id":"GA-000000011500770","state":"GA","stateName":"Georgia","countyFips":"115","facilityCarried":"PLAINVILLE ROAD","featuresIntersected":"WOODWARD CREEK","location":"3 MI NE OF SHANNON","lat":35.526111,"lon":-86.491944,"lowestRating":4,"yearBuilt":1926,"adt":780,"conditionCategory":"poor","structurallyDeficient":true,"materialName":"Steel","designTypeName":"Stringer/Multi-beam or Girder","lengthFt":65.9},{"id":"GA-000000012950620","state":"GA","stateName":"Georgia","countyFips":"129","facilityCarried":"POCKET ROAD","featuresIntersected":"SNAKE CREEK","location":"IN WEST SUGAR VALLEY","lat":35.281944,"lon":-86.641944,"lowestRating":4,"yearBuilt":1983,"adt":780,"conditionCategory":"poor","structurallyDeficient":true,"materialName":"Steel","designTypeName":"Culvert","lengthFt":43.0},{"id":"GA-000000019950880","state":"GA","stateName":"Georgia","countyFips":"199","facilityCarried":"HARRY HARDY ROAD","featuresIntersected":"SULPHUR CREEK","location":"0.5 MI N OF DURAND","lat":34.171944,"lon":-85.500833,"lowestRating":4,"yearBuilt":1950,"adt":760,"conditionCategory":"poor","structurallyDeficient":true,"materialName":"Steel","designTypeName":"Culvert","lengthFt":28.9},{"id":"GA-000000021300430","state":"GA","stateName":"Georgia","countyFips":"213","facilityCarried":"OLD US 411","featuresIntersected":"COOSAWATTEE RIVER","location":"12 MI S OF CHATSWORTH","lat":34.993889,"lon":-85.914167,"lowestRating":4,"yearBuilt":1928,"adt":720,"conditionCategory":"poor","structurallyDeficient":true,"materialName":"Concrete","designTypeName":"Tee Beam","lengthFt":314.0},{"id":"GA-000000021300440","state":"GA","stateName":"Georgia","countyFips":"213","facilityCarried":"OLD US 411","featuresIntersected":"WILLBANKS BRANCH","location":"10 MI SE OF CHATSWORTH","lat":34.901944,"lon":-85.589167,"lowestRating":4,"yearBuilt":1921,"adt":720,"conditionCategory":"poor","structurallyDeficient":true,"materialName":"Concrete","designTypeName":"Slab","lengthFt":34.1},{"id":"GA-000000008150230","state":"GA","stateName":"Georgia","countyFips":"081","facilityCarried":"AIRPORT ROAD","featuresIntersected":"GUM CREEK","location":"2.5 MI N OF CORDELE","lat":32.016111,"lon":-85.205,"lowestRating":4,"yearBuilt":1945,"adt":704,"conditionCategory":"poor","structurallyDeficient":true,"materialName":"Steel Continuous","designTypeName":"Stringer/Multi-beam or Girder","lengthFt":120.1},{"id":"GA-000000014350280","state":"GA","stateName":"Georgia","countyFips":"143","facilityCarried":"BROAD STREET","featuresIntersected":"TALLAPOOSA RIVER","location":"2.4 MI NW OF TALLAPOOSA","lat":35.359167,"lon":-85.933889,"lowestRating":4,"yearBuilt":1969,"adt":630,"conditionCategory":"poor","structurallyDeficient":true,"materialName":"Steel","designTypeName":"Stringer/Multi-beam or Girder","lengthFt":224.1},{"id":"GA-000000003950390","state":"GA","stateName":"Georgia","countyFips":"039","facilityCarried":"BORRELL BLVD","featuresIntersected":"BORRELLS CREEK","location":"CITY LIMIT OF ST MARYS","lat":31.395,"lon":-82.665833,"lowestRating":4,"yearBuilt":1991,"adt":580,"conditionCategory":"poor","structurallyDeficient":true,"materialName":"Concrete","designTypeName":"Slab","lengthFt":29.9},{"id":"GA-000000005550490","state":"GA","stateName":"Georgia","countyFips":"055","facilityCarried":"LYERLY DAM ROAD","featuresIntersected":"CHATTOOGA RIVER","location":"AT EAST LYERLY CTY LMTS","lat":34.611111,"lon":-86.628889,"lowestRating":4,"yearBuilt":1957,"adt":520,"conditionCategory":"poor","structurallyDeficient":true,"materialName":"Steel","designTypeName":"Truss - Thru","lengthFt":223.1},{"id":"GA-000000006900350","state":"GA","stateName":"Georgia","countyFips":"069","facilityCarried":"BRIDGETOWN RD","featuresIntersected":"SATILLA RIVER","location":"APP 11 MI W OF DOUGLAS","lat":32.793889,"lon":-83.402778,"lowestRating":4,"yearBuilt":1960,"adt":520,"conditionCategory":"poor","structurallyDeficient":true,"materialName":"Concrete","designTypeName":"Tee Beam","lengthFt":299.9},{"id":"GA-000000002750170","state":"GA","stateName":"Georgia","countyFips":"027","facilityCarried":"LIVINGSTON ROAD","featuresIntersected":"PISCOLA CREEK","location":"1 MI SE OF DIXIE","lat":31.471111,"lon":-84.687778,"lowestRating":4,"yearBuilt":1969,"adt":514,"conditionCategory":"poor","structurallyDeficient":true,"materialName":"Concrete","designTypeName":"Tee Beam","lengthFt":270.0},{"id":"GA-000000018550210","state":"GA","stateName":"Georgia","countyFips":"185","facilityCarried":"OLD QUITMAN ROAD","featuresIntersected":"CSX RAILROAD","location":"APP 6 MI W OF VALDOSTA","lat":32.245,"lon":-83.744722,"lowestRating":4,"yearBuilt":1928,"adt":510,"conditionCategory":"poor","structurallyDeficient":true,"materialName":"Concrete","designTypeName":"Tee Beam","lengthFt":132.9},{"id":"GA-DAPTRAGORBRGNRA","state":"GA","stateName":"Georgia","countyFips":"245","facilityCarried":"NORTH RANGE ROAD","featuresIntersected":"MAXWELL CREEK","location":"SOUTH OF BRG107AV","lat":34.363889,"lon":-82.526944,"lowestRating":4,"yearBuilt":1955,"adt":500,"conditionCategory":"poor","structurallyDeficient":true,"materialName":"Concrete","designTypeName":"Culvert","lengthFt":21.0},{"id":"GA-000000019900560","state":"GA","stateName":"Georgia","countyFips":"199","facilityCarried":"FLAT SHOALS ROAD","featuresIntersected":"FLINT RIVER","location":"3.7 MI E OF GAY","lat":33.118889,"lon":-85.395833,"lowestRating":4,"yearBuilt":1958,"adt":490,"conditionCategory":"poor","structurallyDeficient":true,"materialName":"Steel Continuous","designTypeName":"Stringer/Multi-beam or Girder","lengthFt":569.9},{"id":"GA-000000029150630","state":"GA","stateName":"Georgia","countyFips":"291","facilityCarried":"HILL ROAD","featuresIntersected":"WOLF CREEK","location":"IN VOGEL STATE PARK","lat":36.092778,"lon":-84.821944,"lowestRating":4,"yearBuilt":1981,"adt":490,"conditionCategory":"poor","structurallyDeficient":true,"materialName":"Steel","designTypeName":"Stringer/Multi-beam or Girder","lengthFt":29.9},{"id":"GA-000000008550130","state":"GA","stateName":"Georgia","countyFips":"085","facilityCarried":"ETOWAH RIVER ROAD","featuresIntersected":"RUSSELL CREEK","location":"4 MI SE OF DAWSONVILLE","lat":35.601111,"lon":-84.398889,"lowestRating":4,"yearBuilt":1960,"adt":480,"conditionCategory":"poor","structurallyDeficient":true,"materialName":"Steel","designTypeName":"Culvert","lengthFt":22.0},{"id":"GA-000000017150080","state":"GA","stateName":"Georgia","countyFips":"171","facilityCarried":"CANNAFAX FARM RD","featuresIntersected":"LITTLE POTATO CREEK","location":"3.5 MI SW OF BARNESVILLE","lat":34.305833,"lon":-84.423333,"lowestRating":4,"yearBuilt":1960,"adt":480,"conditionCategory":"poor","structurallyDeficient":true,"materialName":"Prestressed Concrete","designTypeName":"Channel Beam","lengthFt":60.0},{"id":"GA-000000001750030","state":"GA","stateName":"Georgia","countyFips":"017","facilityCarried":"BETHLEHAM CH RD","featuresIntersected":"OTTER CREEK","location":"4 MI N OF FITZGERALD","lat":32.545,"lon":-84.752222,"lowestRating":4,"yearBuilt":1955,"adt":450,"conditionCategory":"poor","structurallyDeficient":true,"materialName":"Steel Continuous","designTypeName":"Stringer/Multi-beam or Girder","lengthFt":80.1},{"id":"GA-000000018900310","state":"GA","stateName":"Georgia","countyFips":"189","facilityCarried":"SR 80","featuresIntersected":"LITTLE RIVER","location":"12.9 MI NW OF THOMSON","lat":34.450278,"lon":-84.152222,"lowestRating":4,"yearBuilt":1959,"adt":440,"conditionCategory":"poor","structurallyDeficient":true,"materialName":"Concrete","designTypeName":"Tee Beam","lengthFt":268.0},{"id":"GA-000000029900520","state":"GA","stateName":"Georgia","countyFips":"299","facilityCarried":"SWAMP ROAD","featuresIntersected":"GUM SWAMP","location":"8 MI SE OF WAYCROSS","lat":31.91,"lon":-83.999444,"lowestRating":4,"yearBuilt":1965,"adt":430,"conditionCategory":"poor","structurallyDeficient":true,"materialName":"Concrete","designTypeName":"Slab","lengthFt":165.0},{"id":"GA-000000003300410","state":"GA","stateName":"Georgia","countyFips":"033","facilityCarried":"HERNDAN ROAD","featuresIntersected":"BUCKHEAD CREEK","location":"10.2 MI S OF WAYNESBORO","lat":34.218889,"lon":-82.403056,"lowestRating":4,"yearBuilt":1957,"adt":420,"conditionCategory":"poor","structurallyDeficient":true,"materialName":"Prestressed Concrete","designTypeName":"Channel Beam","lengthFt":299.9},{"id":"GA-000000005550300","state":"GA","stateName":"Georgia","countyFips":"055","facilityCarried":"CENTER POST ROAD","featuresIntersected":"CHATTOOGA RIVER","location":"3.5 MI NW OF TRION","lat":36.126111,"lon":-85.545833,"lowestRating":4,"yearBuilt":1958,"adt":410,"conditionCategory":"poor","structurallyDeficient":true,"materialName":"Steel","designTypeName":"Stringer/Multi-beam or Girder","lengthFt":121.1},{"id":"GA-000000029300180","state":"GA","stateName":"Georgia","countyFips":"293","facilityCarried":"POBIDDY ROAD","featuresIntersected":"POTATO CREEK","location":"8 MI S OF THOMASTON","lat":33.804444,"lon":-85.292778,"lowestRating":4,"yearBuilt":1956,"adt":410,"conditionCategory":"poor","structurallyDeficient":true,"materialName":"Steel","designTypeName":"Stringer/Multi-beam or Girder","lengthFt":278.9},{"id":"GA-000000006500570","state":"GA","stateName":"Georgia","countyFips":"065","facilityCarried":"CR 203 SHILOH CHUR","featuresIntersected":"SURVEYORS CREEK","location":"APP 6 MI S OF HOMMERVILLE","lat":32.408889,"lon":-83.045278,"lowestRating":4,"yearBuilt":1956,"adt":370,"conditionCategory":"poor","structurallyDeficient":true,"materialName":"Concrete","designTypeName":"Slab","lengthFt":76.1},{"id":"GA-000000012350420","state":"GA","stateName":"Georgia","countyFips":"123","facilityCarried":"ROCK CREEK ROAD","featuresIntersected":"ROCK CREEK","location":"8 MI NE OF ELLIJAY","lat":35.903056,"lon":-85.846944,"lowestRating":4,"yearBuilt":1978,"adt":366,"conditionCategory":"poor","structurallyDeficient":true,"materialName":"Steel","designTypeName":"Stringer/Multi-beam or Girder","lengthFt":36.1},{"id":"GA-000000014750800","state":"GA","stateName":"Georgia","countyFips":"147","facilityCarried":"UNION HILL CH RD.","featuresIntersected":"SHOAL CREEK TRIB","location":"2 MI E OF BOWERSVILLE","lat":35.299444,"lon":-83.086944,"lowestRating":4,"yearBuilt":1982,"adt":366,"conditionCategory":"poor","structurallyDeficient":true,"materialName":"Steel","designTypeName":"Stringer/Multi-beam or Girder","lengthFt":20.0},{"id":"GA-000000023350260","state":"GA","stateName":"Georgia","countyFips":"233","facilityCarried":"DAVIS TOWN ROAD","featuresIntersected":"HILLS CREEK TRIB","location":"6 MI NE OF ROCKMART","lat":34.816389,"lon":-86.535278,"lowestRating":4,"yearBuilt":1920,"adt":366,"conditionCategory":"poor","structurallyDeficient":true,"materialName":"Concrete Continuous","designTypeName":"Slab","lengthFt":33.1},{"id":"GA-000000029150300","state":"GA","stateName":"Georgia","countyFips":"291","facilityCarried":"OLD BALD MTN ROAD","featuresIntersected":"STINK CREEK","location":"7.1 MI SE OF BLAIRSVILLE","lat":35.555,"lon":-84.473611,"lowestRating":4,"yearBuilt":1942,"adt":366,"conditionCategory":"poor","structurallyDeficient":true,"materialName":"Steel","designTypeName":"Stringer/Multi-beam or Girder","lengthFt":33.1},{"id":"GA-000000005550340","state":"GA","stateName":"Georgia","countyFips":"055","facilityCarried":"FISH HATCHERY RD","featuresIntersected":"RACCOON CREEK TRIB","location":"1.6 MI W OF BERRYTON","lat":35.77,"lon":-86.981667,"lowestRating":4,"yearBuilt":1989,"adt":360,"conditionCategory":"poor","structurallyDeficient":true,"materialName":"Steel","designTypeName":"Stringer/Multi-beam or Girder","lengthFt":25.9},{"id":"GA-000000017550470","state":"GA","stateName":"Georgia","countyFips":"175","facilityCarried":"CHICKEN ROAD","featuresIntersected":"MARC BRANCH","location":"4.8 MI NW OF DEXTER","lat":33.021944,"lon":-83.490278,"lowestRating":4,"yearBuilt":1950,"adt":360,"conditionCategory":"poor","structurallyDeficient":true,"materialName":"Concrete","designTypeName":"Culvert","lengthFt":39.0},{"id":"GA-000000017550620","state":"GA","stateName":"Georgia","countyFips":"175","facilityCarried":"OLD HAWKINSVILLE R","featuresIntersected":"TURKEY CREEK","location":"4.2 MI NE OF MONTROSE","lat":32.998056,"lon":-84.53,"lowestRating":4,"yearBuilt":1980,"adt":320,"conditionCategory":"poor","structurallyDeficient":true,"materialName":"Concrete","designTypeName":"Tee Beam","lengthFt":160.1},{"id":"GA-000000021350090","state":"GA","stateName":"Georgia","countyFips":"213","facilityCarried":"LOUGHRIDGE ROAD","featuresIntersected":"MILL CREEK","location":"2 MI N OF ETON","lat":36.362778,"lon":-86.278611,"lowestRating":4,"yearBuilt":1922,"adt":320,"conditionCategory":"poor","structurallyDeficient":true,"materialName":"Steel","designTypeName":"Stringer/Multi-beam or Girder","lengthFt":49.9},{"id":"GA-000000001550980","state":"GA","stateName":"Georgia","countyFips":"015","facilityCarried":"TWIN BRIDGE ROAD","featuresIntersected":"SWAMP CREEK TRIB","location":"1.9 MI W OF ADAIRSVILLE","lat":34.836111,"lon":-85.048333,"lowestRating":4,"yearBuilt":1998,"adt":310,"conditionCategory":"poor","structurallyDeficient":true,"materialName":"Steel","designTypeName":"Culvert","lengthFt":33.1},{"id":"GA-000000003550050","state":"GA","stateName":"Georgia","countyFips":"035","facilityCarried":"WILDWOOD ROAD","featuresIntersected":"CANEY FORK CREEK","location":"4 MI N OF JACKSON","lat":34.917778,"lon":-84.992222,"lowestRating":4,"yearBuilt":1960,"adt":300,"conditionCategory":"poor","structurallyDeficient":true,"materialName":"Concrete","designTypeName":"Culvert","lengthFt":21.0},{"id":"GA-000000011900290","state":"GA","stateName":"Georgia","countyFips":"119","facilityCarried":"SR 326","featuresIntersected":"NAILS CREEK","location":"5 MI SW OF CARNESVILLE","lat":35.696111,"lon":-84.336111,"lowestRating":4,"yearBuilt":1959,"adt":300,"conditionCategory":"poor","structurallyDeficient":true,"materialName":"Concrete","designTypeName":"Tee Beam","lengthFt":204.1},{"id":"GA-000000019950310","state":"GA","stateName":"Georgia","countyFips":"199","facilityCarried":"MITCHAM ROAD","featuresIntersected":"CSX RAILROAD","location":"1 MI E OF DURAND","lat":33.922222,"lon":-85.379167,"lowestRating":4,"yearBuilt":1945,"adt":300,"conditionCategory":"poor","structurallyDeficient":true,"materialName":"Wood or Timber","designTypeName":"Stringer/Multi-beam or Girder","lengthFt":140.1},{"id":"GA-000000012350430","state":"GA","stateName":"Georgia","countyFips":"123","facilityCarried":"ROCK CREEK ROAD","featuresIntersected":"ROCK CREEK","location":"9 MI NE OF ELLIJAY","lat":36.176944,"lon":-84.649167,"lowestRating":4,"yearBuilt":1975,"adt":290,"conditionCategory":"poor","structurallyDeficient":true,"materialName":"Steel","designTypeName":"Stringer/Multi-beam or Girder","lengthFt":39.0},{"id":"GA-000000011500780","state":"GA","stateName":"Georgia","countyFips":"115","facilityCarried":"BELLS FERRY ROAD","featuresIntersected":"WOODWARD CREEK","location":"2.3 MI W OF SHANNON","lat":35.349167,"lon":-86.141389,"lowestRating":4,"yearBuilt":1938,"adt":280,"conditionCategory":"poor","structurallyDeficient":true,"materialName":"Steel","designTypeName":"Stringer/Multi-beam or Girder","lengthFt":67.9},{"id":"GA-000000021350380","state":"GA","stateName":"Georgia","countyFips":"213","facilityCarried":"HAWKINS ROAD","featuresIntersected":"SUMAC CREEK TRIB","location":"4 MI NW OF CRANDALL","lat":35.595833,"lon":-85.964444,"lowestRating":4,"yearBuilt":1987,"adt":270,"conditionCategory":"poor","structurallyDeficient":true,"materialName":"Steel","designTypeName":"Culvert","lengthFt":24.0},{"id":"GA-000000028150320","state":"GA","stateName":"Georgia","countyFips":"281","facilityCarried":"HIGH RIVER ROAD","featuresIntersected":"HIAWASSEE RIVER","location":"6 MI SE OF HIAWEESSE","lat":36.240833,"lon":-83.886111,"lowestRating":4,"yearBuilt":1958,"adt":270,"conditionCategory":"poor","structurallyDeficient":true,"materialName":"Steel","designTypeName":"Stringer/Multi-beam or Girder","lengthFt":45.9},{"id":"GA-000000005550090","state":"GA","stateName":"Georgia","countyFips":"055","facilityCarried":"MARBLE SPRINGS RD.","featuresIntersected":"LOWE BRANCH","location":"2 MI SE OF SUMMERVILLE","lat":35.936944,"lon":-86.618889,"lowestRating":4,"yearBuilt":1958,"adt":250,"conditionCategory":"poor","structurallyDeficient":true,"materialName":"Steel","designTypeName":"Stringer/Multi-beam or Girder","lengthFt":29.9},{"id":"GA-000000024550150","state":"GA","stateName":"Georgia","countyFips":"245","facilityCarried":"GOODRICH ROAD","featuresIntersected":"CANAL SPILLWAY","location":"13.2 MI NE OF HEPHZIBAH","lat":33.676111,"lon":-82.768889,"lowestRating":4,"yearBuilt":1940,"adt":250,"conditionCategory":"poor","structurallyDeficient":true,"materialName":"Steel Continuous","designTypeName":"Stringer/Multi-beam or Girder","lengthFt":41.0},{"id":"GA-000000001550320","state":"GA","stateName":"Georgia","countyFips":"015","facilityCarried":"CROW SPRINGS RD","featuresIntersected":"CROW SPRINGS BRANCH","location":"9.5 MI N OF CARTERSVILLE","lat":34.656944,"lon":-84.921111,"lowestRating":4,"yearBuilt":1960,"adt":240,"conditionCategory":"poor","structurallyDeficient":true,"materialName":"Steel Continuous","designTypeName":"Stringer/Multi-beam or Girder","lengthFt":28.9},{"id":"GA-000000001550560","state":"GA","stateName":"Georgia","countyFips":"015","facilityCarried":"OLD DIXIE HIGHWAY","featuresIntersected":"CHAMLEE CREEK","location":"1.2 MI N OF ADAIRSVILLE","lat":34.565833,"lon":-85.125,"lowestRating":4,"yearBuilt":1929,"adt":230,"conditionCategory":"poor","structurallyDeficient":true,"materialName":"Concrete","designTypeName":"Tee Beam","lengthFt":60.0},{"id":"GA-000000017550480","state":"GA","stateName":"Georgia","countyFips":"175","facilityCarried":"LORD ROAD","featuresIntersected":"ROCKY CREEK","location":"4.6 MI S OF DUDLEY","lat":33.060278,"lon":-83.556389,"lowestRating":4,"yearBuilt":1950,"adt":230,"conditionCategory":"poor","structurallyDeficient":true,"materialName":"Steel","designTypeName":"Stringer/Multi-beam or Girder","lengthFt":96.1},{"id":"GA-000000002750200","state":"GA","stateName":"Georgia","countyFips":"027","facilityCarried":"LIBERTY CHRUCH RD","featuresIntersected":"CAT CREEK TRIB","location":"APP 5 MI SW OF DIXIE","lat":31.311944,"lon":-84.411111,"lowestRating":4,"yearBuilt":1935,"adt":220,"conditionCategory":"poor","structurallyDeficient":true,"materialName":"Steel","designTypeName":"Stringer/Multi-beam or Girder","lengthFt":27.9},{"id":"GA-000000011550270","state":"GA","stateName":"Georgia","countyFips":"115","facilityCarried":"L. TEXAS VALLEY RD","featuresIntersected":"ARMUCHEE CREEK","location":"8.5 MI N OF ROME","lat":35.082778,"lon":-86.320833,"lowestRating":4,"yearBuilt":1935,"adt":220,"conditionCategory":"poor","structurallyDeficient":true,"materialName":"Steel","designTypeName":"Truss - Thru","lengthFt":111.9},{"id":"GA-000000014550230","state":"GA","stateName":"Georgia","countyFips":"145","facilityCarried":"RIDGEWAY ROAD","featuresIntersected":"BOYD BRANCH TRIB","location":"5.5 MI SE OF WAVERLY HALL","lat":34.008889,"lon":-86.149167,"lowestRating":4,"yearBuilt":1950,"adt":220,"conditionCategory":"poor","structurallyDeficient":true,"materialName":"Steel","designTypeName":"Stringer/Multi-beam or Girder","lengthFt":32.2},{"id":"GA-000000018550080","state":"GA","stateName":"Georgia","countyFips":"185","facilityCarried":"JUMPING GULLEY RD","featuresIntersected":"BEVEL CREEK","location":"6 MI SW OF LAKE PARK","lat":30.721944,"lon":-84.871944,"lowestRating":4,"yearBuilt":1972,"adt":220,"conditionCategory":"poor","structurallyDeficient":true,"materialName":"Prestressed Concrete","designTypeName":"Channel Beam","lengthFt":122.0},{"id":"GA-000000021350370","state":"GA","stateName":"Georgia","countyFips":"213","facilityCarried":"HAWKINS ROAD","featuresIntersected":"SUMAC CREEK TRIB","location":"3.5 MI NW OF CRANDALL","lat":35.605833,"lon":-84.950278,"lowestRating":4,"yearBuilt":1987,"adt":210,"conditionCategory":"poor","structurallyDeficient":true,"materialName":"Steel","designTypeName":"Culvert","lengthFt":24.0},{"id":"GA-000000017150110","state":"GA","stateName":"Georgia","countyFips":"171","facilityCarried":"ETHERIDGE MILL RD.","featuresIntersected":"POTATO CREEK","location":"2 MI W OF MILNER","lat":34.161111,"lon":-85.747222,"lowestRating":4,"yearBuilt":1978,"adt":180,"conditionCategory":"poor","structurallyDeficient":true,"materialName":"Steel","designTypeName":"Stringer/Multi-beam or Girder","lengthFt":102.0},{"id":"GA-000000025550200","state":"GA","stateName":"Georgia","countyFips":"255","facilityCarried":"JENKINSBURG ROAD","featuresIntersected":"TOWALIGA RIVER","location":"9 MI NE OF GRIFFIN","lat":34.033889,"lon":-85.263889,"lowestRating":4,"yearBuilt":1937,"adt":180,"conditionCategory":"poor","structurallyDeficient":true,"materialName":"Steel","designTypeName":"Truss - Thru","lengthFt":102.0},{"id":"GA-000000007750760","state":"GA","stateName":"Georgia","countyFips":"077","facilityCarried":"MAIN STREET","featuresIntersected":"NS RR (719386R)","location":"2.5 MI NW OF NEWNAN","lat":35.053889,"lon":-85.054444,"lowestRating":4,"yearBuilt":1940,"adt":170,"conditionCategory":"poor","structurallyDeficient":true,"materialName":"Wood or Timber","designTypeName":"Stringer/Multi-beam or Girder","lengthFt":96.1},{"id":"GA-000000003550410","state":"GA","stateName":"Georgia","countyFips":"035","facilityCarried":"GILES FERRY ROAD","featuresIntersected":"DOUGLAS CREEK","location":"1.9 MI E OF FLOUILLA","lat":34.162778,"lon":-84.226944,"lowestRating":4,"yearBuilt":1995,"adt":160,"conditionCategory":"poor","structurallyDeficient":true,"materialName":"Steel","designTypeName":"Culvert","lengthFt":35.1},{"id":"GA-000000011550180","state":"GA","stateName":"Georgia","countyFips":"115","facilityCarried":"GAINES ROAD","featuresIntersected":"WOODWARD CREEK TRIB","location":"9.6 MI NE OF ROME","lat":35.358889,"lon":-85.548056,"lowestRating":4,"yearBuilt":1991,"adt":160,"conditionCategory":"poor","structurallyDeficient":true,"materialName":"Steel","designTypeName":"Culvert","lengthFt":27.9},{"id":"GA-000000021350390","state":"GA","stateName":"Georgia","countyFips":"213","facilityCarried":"OLD SR 2","featuresIntersected":"CONASAUGA RIVER TRIB.","location":"6.9 MI NE OF CRANDALL","lat":35.310278,"lon":-85.771944,"lowestRating":4,"yearBuilt":1932,"adt":160,"conditionCategory":"poor","structurallyDeficient":true,"materialName":"Steel","designTypeName":"Stringer/Multi-beam or Girder","lengthFt":22.0},{"id":"GA-000000030150370","state":"GA","stateName":"Georgia","countyFips":"301","facilityCarried":"REYNOLDSVILLE RD","featuresIntersected":"WILLIAMS CREEK TRIB","location":"4.1 MI NW OF NORWOOD","lat":33.733056,"lon":-84.131944,"lowestRating":4,"yearBuilt":1955,"adt":158,"conditionCategory":"poor","structurallyDeficient":true,"materialName":"Steel","designTypeName":"Stringer/Multi-beam or Girder","lengthFt":32.2},{"id":"GA-000000006550590","state":"GA","stateName":"Georgia","countyFips":"065","facilityCarried":"CR 202 WITHERS ROA","featuresIntersected":"SUWANNOOCHEE CREEK TRIB","location":"APP 8 MI S OF DUPONT","lat":31.453056,"lon":-84.477778,"lowestRating":4,"yearBuilt":1957,"adt":130,"conditionCategory":"poor","structurallyDeficient":true,"materialName":"Concrete","designTypeName":"Slab","lengthFt":60.0},{"id":"GA-000000011550640","state":"GA","stateName":"Georgia","countyFips":"115","facilityCarried":"FOUCH GAP ROAD","featuresIntersected":"HEATH CREEK","location":"5 MI N OF COOSA","lat":35.163056,"lon":-86.286389,"lowestRating":4,"yearBuilt":1982,"adt":130,"conditionCategory":"poor","structurallyDeficient":true,"materialName":"Steel","designTypeName":"Culvert","lengthFt":26.9},{"id":"GA-000000029550640","state":"GA","stateName":"Georgia","countyFips":"295","facilityCarried":"KENSINGTON ROAD","featuresIntersected":"MILL CREEK","location":"7.1 MI NW OF LAFAYETTE","lat":35.732222,"lon":-85.913056,"lowestRating":4,"yearBuilt":1982,"adt":130,"conditionCategory":"poor","structurallyDeficient":true,"materialName":"Concrete","designTypeName":"Culvert","lengthFt":40.0},{"id":"GA-000000002750160","state":"GA","stateName":"Georgia","countyFips":"027","facilityCarried":"BEASLEY ROAD","featuresIntersected":"CARROLL CREEK TRIB","location":"APP 4 MI SW OF DIXIE","lat":32.208056,"lon":-83.780278,"lowestRating":4,"yearBuilt":1935,"adt":121,"conditionCategory":"poor","structurallyDeficient":true,"materialName":"Steel","designTypeName":"Stringer/Multi-beam or Girder","lengthFt":27.9},{"id":"GA-000000002750280","state":"GA","stateName":"Georgia","countyFips":"027","facilityCarried":"HODGES ROAD","featuresIntersected":"MULE CREEK","location":"APP 5 MI SE OF PAVO","lat":32.420833,"lon":-85.017222,"lowestRating":4,"yearBuilt":1985,"adt":121,"conditionCategory":"poor","structurallyDeficient":true,"materialName":"Wood or Timber","designTypeName":"Stringer/Multi-beam or Girder","lengthFt":149.9},{"id":"GA-000000003350240","state":"GA","stateName":"Georgia","countyFips":"033","facilityCarried":"WALKER DOW ROAD","featuresIntersected":"BUCKHEAD CREEK","location":"3.9 MI E OF VIDETTE","lat":33.410556,"lon":-83.639722,"lowestRating":4,"yearBuilt":1988,"adt":121,"conditionCategory":"poor","structurallyDeficient":true,"materialName":"Steel","designTypeName":"Culvert","lengthFt":24.0},{"id":"GA-000000003350250","state":"GA","stateName":"Georgia","countyFips":"033","facilityCarried":"HILLS MILL ROAD","featuresIntersected":"BUCKHEAD CREEK","location":"2.8 MI E OF VIDETTE","lat":33.436111,"lon":-82.327222,"lowestRating":4,"yearBuilt":1990,"adt":121,"conditionCategory":"poor","structurallyDeficient":true,"materialName":"Steel","designTypeName":"Culvert","lengthFt":35.1},{"id":"GA-000000004950680","state":"GA","stateName":"Georgia","countyFips":"049","facilityCarried":"BRYANT LANE","featuresIntersected":"BRYANT SWAMP","location":"5 MI W OF FOLKSTON","lat":32.056667,"lon":-82.286667,"lowestRating":4,"yearBuilt":1970,"adt":121,"conditionCategory":"poor","structurallyDeficient":true,"materialName":"Wood or Timber","designTypeName":"Stringer/Multi-beam or Girder","lengthFt":34.1},{"id":"GA-000000010750570","state":"GA","stateName":"Georgia","countyFips":"107","facilityCarried":"HALLS BRIDGE ROAD","featuresIntersected":"LITTLE OHOOPEE RIVER","location":"2.7 MI NE OF NORRISTOWN","lat":33.666111,"lon":-83.186667,"lowestRating":4,"yearBuilt":1920,"adt":121,"conditionCategory":"poor","structurallyDeficient":true,"materialName":"Concrete","designTypeName":"Slab","lengthFt":460.0},{"id":"GA-000000010750580","state":"GA","stateName":"Georgia","countyFips":"107","facilityCarried":"HALLS BRIDGE ROAD","featuresIntersected":"WEST FORK YAM GRANDY CR","location":"3 MI W OF SWAINSBORO","lat":33.939167,"lon":-83.93,"lowestRating":4,"yearBuilt":1920,"adt":121,"conditionCategory":"poor","structurallyDeficient":true,"materialName":"Concrete","designTypeName":"Slab","lengthFt":45.9},{"id":"GA-000000014150180","state":"GA","stateName":"Georgia","countyFips":"141","facilityCarried":"TUCKER ROAD","featuresIntersected":"SANDY RUN CREEK","location":"7.1 MI SE OF SPARTA","lat":34.506944,"lon":-84.573056,"lowestRating":4,"yearBuilt":1950,"adt":121,"conditionCategory":"poor","structurallyDeficient":true,"materialName":"Steel","designTypeName":"Stringer/Multi-beam or Girder","lengthFt":26.9},{"id":"GA-000000015950410","state":"GA","stateName":"Georgia","countyFips":"159","facilityCarried":"OLD AGATEVILLE RD","featuresIntersected":"CEDAR CREEK","location":"6.4 MI SE OF MONTICELLO","lat":33.898056,"lon":-85.057222,"lowestRating":4,"yearBuilt":1950,"adt":121,"conditionCategory":"poor","structurallyDeficient":true,"materialName":"Steel","designTypeName":"Stringer/Multi-beam or Girder","lengthFt":36.1},{"id":"GA-000000015950610","state":"GA","stateName":"Georgia","countyFips":"159","facilityCarried":"BENTON ROAD","featuresIntersected":"HERDS CREEK","location":"7.1 MI NW OF MONTICELLO","lat":33.847778,"lon":-84.932778,"lowestRating":4,"yearBuilt":1950,"adt":121,"conditionCategory":"poor","structurallyDeficient":true,"materialName":"Steel","designTypeName":"Stringer/Multi-beam or Girder","lengthFt":34.1},{"id":"GA-000000016350040","state":"GA","stateName":"Georgia","countyFips":"163","facilityCarried":"BRUSHY CREEK RD","featuresIntersected":"BRUSHY CREEK","location":"4.5 MI E OF STELLAVILLE","lat":34.395,"lon":-82.968611,"lowestRating":4,"yearBuilt":1991,"adt":121,"conditionCategory":"poor","structurallyDeficient":true,"materialName":"Steel","designTypeName":"Culvert","lengthFt":32.2},{"id":"GA-000000017550210","state":"GA","stateName":"Georgia","countyFips":"175","facilityCarried":"CHIC INN ROAD","featuresIntersected":"LIME SINK CREEK","location":"10.2 MI SE OF CADWELL","lat":33.303056,"lon":-84.385,"lowestRating":4,"yearBuilt":1950,"adt":121,"conditionCategory":"poor","structurallyDeficient":true,"materialName":"Steel","designTypeName":"Stringer/Multi-beam or Girder","lengthFt":111.9},{"id":"GA-000000017550320","state":"GA","stateName":"Georgia","countyFips":"175","facilityCarried":"FORDHAM ROAD","featuresIntersected":"LIME SINK CREEK","location":"2.4 MI SE OF RENTZ","lat":32.838889,"lon":-83.503056,"lowestRating":4,"yearBuilt":1950,"adt":121,"conditionCategory":"poor","structurallyDeficient":true,"materialName":"Steel","designTypeName":"Stringer/Multi-beam or Girder","lengthFt":32.2},{"id":"GA-000000019950160","state":"GA","stateName":"Georgia","countyFips":"199","facilityCarried":"DOBSON ROAD","featuresIntersected":"FLAT SHOAL CREEK","location":"2 MI S OF ODESSADALE","lat":33.573889,"lon":-84.908611,"lowestRating":4,"yearBuilt":1945,"adt":121,"conditionCategory":"poor","structurallyDeficient":true,"materialName":"Steel","designTypeName":"Stringer/Multi-beam or Girder","lengthFt":42.0},{"id":"GA-000000019950460","state":"GA","stateName":"Georgia","countyFips":"199","facilityCarried":"COVERED BRIDGE RD","featuresIntersected":"RED OAK CREEK","location":"3 MI NE OF WOODBURY","lat":33.558056,"lon":-84.737222,"lowestRating":4,"yearBuilt":1930,"adt":121,"conditionCategory":"poor","structurallyDeficient":true,"materialName":"Wood or Timber","designTypeName":"Truss - Thru","lengthFt":393.0},{"id":"GA-000000019950910","state":"GA","stateName":"Georgia","countyFips":"199","facilityCarried":"MURRAY ROAD","featuresIntersected":"LITTLE RED OAK CREEK","location":"3.5 MI SW OF GAY","lat":33.683056,"lon":-85.924722,"lowestRating":4,"yearBuilt":1980,"adt":121,"conditionCategory":"poor","structurallyDeficient":true,"materialName":"Steel","designTypeName":"Stringer/Multi-beam or Girder","lengthFt":25.9},{"id":"GA-000000019951090","state":"GA","stateName":"Georgia","countyFips":"199","facilityCarried":"HOSS BOWDEN ROAD","featuresIntersected":"FLINT RIVER TRIBUTARY","location":"2.5 MI NORTH OF WOODBURY","lat":33.281111,"lon":-86.186944,"lowestRating":4,"yearBuilt":1980,"adt":121,"conditionCategory":"poor","structurallyDeficient":true,"materialName":"Steel","designTypeName":"Stringer/Multi-beam or Girder","lengthFt":25.9},{"id":"GA-000000026350380","state":"GA","stateName":"Georgia","countyFips":"263","facilityCarried":"HINTON ROAD","featuresIntersected":"HINTON CREEK","location":"5 MI W OF TALBOTTON","lat":33.230833,"lon":-85.368889,"lowestRating":4,"yearBuilt":1991,"adt":121,"conditionCategory":"poor","structurallyDeficient":true,"materialName":"Concrete","designTypeName":"Slab","lengthFt":44.9},{"id":"GA-000000027350130","state":"GA","stateName":"Georgia","countyFips":"273","facilityCarried":"W.B. JOHNSON ROAD","featuresIntersected":"SUGAR CREEK","location":"4.1 MI NE OF BRONWOOD","lat":33.061944,"lon":-85.523056,"lowestRating":4,"yearBuilt":1950,"adt":121,"conditionCategory":"poor","structurallyDeficient":true,"materialName":"Steel","designTypeName":"Stringer/Multi-beam or Girder","lengthFt":47.9},{"id":"GA-000000004750210","state":"GA","stateName":"Georgia","countyFips":"047","facilityCarried":"SPIVEY ROAD","featuresIntersected":"SUGAR CREEK","location":"4.8 MI NE OF RINGGOLD","lat":35.023056,"lon":-85.195,"lowestRating":4,"yearBuilt":1975,"adt":120,"conditionCategory":"poor","structurallyDeficient":true,"materialName":"Steel","designTypeName":"Stringer/Multi-beam or Girder","lengthFt":43.0},{"id":"GA-000000000350150","state":"GA","stateName":"Georgia","countyFips":"003","facilityCarried":"LIVE OAK CH ROAD","featuresIntersected":"RED BLUFF CREEK","location":"APP 7 MI SW OF PEARSON","lat":31.968056,"lon":-83.833056,"lowestRating":4,"yearBuilt":1963,"adt":110,"conditionCategory":"poor","structurallyDeficient":true,"materialName":"Concrete","designTypeName":"Tee Beam","lengthFt":89.9},{"id":"GA-000000004990040","state":"GA","stateName":"Georgia","countyFips":"089","facilityCarried":"STOKES ROAD","featuresIntersected":"ST. MARYS RIVER","location":"0.7 MI WEST OF CR 121","lat":30.551389,"lon":-82.283611,"lowestRating":4,"yearBuilt":1978,"adt":110,"conditionCategory":"poor","structurallyDeficient":true,"materialName":"Prestressed Concrete","designTypeName":"Slab","lengthFt":208.0},{"id":"GA-000000013750620","state":"GA","stateName":"Georgia","countyFips":"137","facilityCarried":"TUGALO CUT THROUGH","featuresIntersected":"LITTLE PANTHER CREEK","location":"0.8 MI SW OF TALLULA PARK","lat":35.690833,"lon":-83.497778,"lowestRating":4,"yearBuilt":1941,"adt":110,"conditionCategory":"poor","structurallyDeficient":true,"materialName":"Steel","designTypeName":"Stringer/Multi-beam or Girder","lengthFt":29.9},{"id":"GA-000000001150460","state":"GA","stateName":"Georgia","countyFips":"011","facilityCarried":"BOILING ROAD","featuresIntersected":"MIDDLE FORK BROAD RIVER","location":"8.5 MI N OF HOMER","lat":35.862222,"lon":-84.717778,"lowestRating":4,"yearBuilt":1982,"adt":103,"conditionCategory":"poor","structurallyDeficient":true,"materialName":"Steel","designTypeName":"Stringer/Multi-beam or Girder","lengthFt":104.0},{"id":"GA-000000012350710","state":"GA","stateName":"Georgia","countyFips":"123","facilityCarried":"VANILLA LANE","featuresIntersected":"BIG TURNIPTOWN CREEK","location":"4.9 MI NE OF ELLIJAY","lat":35.79,"lon":-84.988333,"lowestRating":4,"yearBuilt":1980,"adt":103,"conditionCategory":"poor","structurallyDeficient":true,"materialName":"Steel","designTypeName":"Stringer/Multi-beam or Girder","lengthFt":35.1},{"id":"GA-000000021350020","state":"GA","stateName":"Georgia","countyFips":"213","facilityCarried":"HEMPHILL ROAD","featuresIntersected":"SUGAR CREEK TRIB","location":"6.9 MI SE OF CHATSWORTH","lat":35.626111,"lon":-86.356667,"lowestRating":4,"yearBuilt":1921,"adt":103,"conditionCategory":"poor","structurallyDeficient":true,"materialName":"Concrete","designTypeName":"Culvert","lengthFt":26.9},{"id":"GA-0000000000M9352","state":"GA","stateName":"Georgia","countyFips":"053","facilityCarried":"BUENA VISTA ROAD","featuresIntersected":"PINE KNOT CREEK","location":"1.5 KM E/O SHAMANSKI RD","lat":33.013056,"lon":-86.346944,"lowestRating":4,"yearBuilt":1977,"adt":100,"conditionCategory":"poor","structurallyDeficient":true,"materialName":"Steel","designTypeName":"Stringer/Multi-beam or Girder","lengthFt":183.1},{"id":"GA-000000001750070","state":"GA","stateName":"Georgia","countyFips":"017","facilityCarried":"TULIP ROAD","featuresIntersected":"YOUNG CREEK","location":"13 MI NW OF FITZGERALD","lat":32.281944,"lon":-85.023056,"lowestRating":4,"yearBuilt":1955,"adt":100,"conditionCategory":"poor","structurallyDeficient":true,"materialName":"Steel Continuous","designTypeName":"Stringer/Multi-beam or Girder","lengthFt":80.1},{"id":"GA-000000026350570","state":"GA","stateName":"Georgia","countyFips":"263","facilityCarried":"POPULAR  TRACE RD","featuresIntersected":"RICHLAND CREEK","location":"8.2 MI NE OF JUNCTION CTY","lat":32.726944,"lon":-84.583333,"lowestRating":4,"yearBuilt":1955,"adt":100,"conditionCategory":"poor","structurallyDeficient":true,"materialName":"Steel","designTypeName":"Stringer/Multi-beam or Girder","lengthFt":134.8},{"id":"GA-DAPFORSTE008656","state":"GA","stateName":"Georgia","countyFips":"051","facilityCarried":"SABER HALL EXT RD","featuresIntersected":"DRAINAGE CANAL","location":"HUNTER ARMY AIRFIELD GA","lat":32.331111,"lon":-81.731944,"lowestRating":4,"yearBuilt":1999,"adt":100,"conditionCategory":"poor","structurallyDeficient":true,"materialName":"Concrete","designTypeName":"Culvert","lengthFt":36.1},{"id":"GA-000000029150440","state":"GA","stateName":"Georgia","countyFips":"291","facilityCarried":"FISHER FIELD","featuresIntersected":"NOTTELY RIVER","location":"8.5 MI SE OF BLAIRSVILLE","lat":36.398056,"lon":-85.489722,"lowestRating":4,"yearBuilt":1980,"adt":90,"conditionCategory":"poor","structurallyDeficient":true,"materialName":"Steel","designTypeName":"Stringer/Multi-beam or Girder","lengthFt":40.0},{"id":"GA-080306000003078","state":"GA","stateName":"Georgia","countyFips":"257","facilityCarried":"REDROOT ROAD","featuresIntersected":"BROAD RIVER","location":"LAKE RUSSELL WMA","lat":34.561389,"lon":-84.936944,"lowestRating":4,"yearBuilt":1954,"adt":77,"conditionCategory":"poor","structurallyDeficient":true,"materialName":"Concrete","designTypeName":"Slab","lengthFt":39.0},{"id":"GA-000000014100250","state":"GA","stateName":"Georgia","countyFips":"141","facilityCarried":"HAMBURG ST PK RD","featuresIntersected":"DRY CREEK","location":"10.8 MI E OF SPARTA","lat":34.089167,"lon":-83.305833,"lowestRating":4,"yearBuilt":1955,"adt":70,"conditionCategory":"poor","structurallyDeficient":true,"materialName":"Steel","designTypeName":"Culvert","lengthFt":68.9},{"id":"GA-000000026350530","state":"GA","stateName":"Georgia","countyFips":"263","facilityCarried":"PACKING HOUSE RD","featuresIntersected":"CSX RAILROAD","location":"2 MI S OF TALBOTTON","lat":34.068889,"lon":-84.889444,"lowestRating":4,"yearBuilt":1940,"adt":70,"conditionCategory":"poor","structurallyDeficient":true,"materialName":"Wood or Timber","designTypeName":"Stringer/Multi-beam or Girder","lengthFt":97.1},{"id":"GA-000000028150280","state":"GA","stateName":"Georgia","countyFips":"281","facilityCarried":"TITUS VALLEY ROAD","featuresIntersected":"HALL CREEK","location":"6.7 MI E OF HIAWASSEE","lat":36.468056,"lon":-85.109167,"lowestRating":4,"yearBuilt":1997,"adt":60,"conditionCategory":"poor","structurallyDeficient":true,"materialName":"Steel","designTypeName":"Stringer/Multi-beam or Girder","lengthFt":29.9},{"id":"GA-000000005550440","state":"GA","stateName":"Georgia","countyFips":"055","facilityCarried":"GILREATH MILL ROAD","featuresIntersected":"GILREATH CREEK","location":"6 MI N OF MENLO","lat":34.682222,"lon":-85.928889,"lowestRating":4,"yearBuilt":1984,"adt":50,"conditionCategory":"poor","structurallyDeficient":true,"materialName":"Steel Continuous","designTypeName":"Stringer/Multi-beam or Girder","lengthFt":34.1},{"id":"GA-000000011350470","state":"GA","stateName":"Georgia","countyFips":"113","facilityCarried":"PYE COURT","featuresIntersected":"GINGER CAKE CREEK TRIB","location":"IN FAYETTEVILLE CITY LMT","lat":33.913056,"lon":-84.536944,"lowestRating":4,"yearBuilt":1992,"adt":50,"conditionCategory":"poor","structurallyDeficient":true,"materialName":"Steel","designTypeName":"Culvert","lengthFt":22.0},{"id":"GA-000000011950070","state":"GA","stateName":"Georgia","countyFips":"119","facilityCarried":"BURROUGHS ROAD","featuresIntersected":"UNAWATTI CREEK","location":"3.8 MI NW OF CANON","lat":35.31,"lon":-84.746944,"lowestRating":4,"yearBuilt":1988,"adt":50,"conditionCategory":"poor","structurallyDeficient":true,"materialName":"Steel","designTypeName":"Stringer/Multi-beam or Girder","lengthFt":64.0},{"id":"GA-000000012950320","state":"GA","stateName":"Georgia","countyFips":"129","facilityCarried":"ROCK CREEK ROAD","featuresIntersected":"SPRING CREEK","location":"6.6 MI W OF CALHOUN","lat":34.727222,"lon":-86.393889,"lowestRating":4,"yearBuilt":1989,"adt":50,"conditionCategory":"poor","structurallyDeficient":true,"materialName":"Steel","designTypeName":"Culvert","lengthFt":23.0},{"id":"GA-000000014750030","state":"GA","stateName":"Georgia","countyFips":"147","facilityCarried":"LIBERTY HILL ROAD","featuresIntersected":"CEDAR CREEK","location":"5.4 MI SE OF HARTWELL","lat":35.569722,"lon":-83.264167,"lowestRating":4,"yearBuilt":1952,"adt":50,"conditionCategory":"poor","structurallyDeficient":true,"materialName":"Steel","designTypeName":"Stringer/Multi-beam or Girder","lengthFt":41.0},{"id":"GA-000000029350050","state":"GA","stateName":"Georgia","countyFips":"293","facilityCarried":"DRIPPING ROCK ROAD","featuresIntersected":"ELKINS CREEK","location":"12 MI NW OF THOMASTON","lat":33.342222,"lon":-86.114444,"lowestRating":4,"yearBuilt":1945,"adt":50,"conditionCategory":"poor","structurallyDeficient":true,"materialName":"Steel","designTypeName":"Stringer/Multi-beam or Girder","lengthFt":39.0},{"id":"GA-000000015950300","state":"GA","stateName":"Georgia","countyFips":"159","facilityCarried":"WICKER ROAD","featuresIntersected":"WHITEOAK CREEK","location":"5 MI SW OF SHADY DALE","lat":34.685,"lon":-84.841944,"lowestRating":4,"yearBuilt":1950,"adt":40,"conditionCategory":"poor","structurallyDeficient":true,"materialName":"Steel","designTypeName":"Stringer/Multi-beam or Girder","lengthFt":36.1},{"id":"GA-000000024150360","state":"GA","stateName":"Georgia","countyFips":"241","facilityCarried":"W.76 LOOP ROAD","featuresIntersected":"TIMPSON CREEK","location":"4.6 MI W OF CLAYTON","lat":35.048056,"lon":-84.318889,"lowestRating":4,"yearBuilt":1928,"adt":40,"conditionCategory":"poor","structurallyDeficient":true,"materialName":"Concrete","designTypeName":"Tee Beam","lengthFt":68.9},{"id":"GA-000000030150340","state":"GA","stateName":"Georgia","countyFips":"301","facilityCarried":"BELL STREET","featuresIntersected":"CSX RAILROAD (279774X)","location":"IN CAMAK","lat":34.83,"lon":-82.786667,"lowestRating":4,"yearBuilt":1950,"adt":40,"conditionCategory":"poor","structurallyDeficient":true,"materialName":"Steel","designTypeName":"Stringer/Multi-beam or Girder","lengthFt":106.0},{"id":"GA-000000011350330","state":"GA","stateName":"Georgia","countyFips":"113","facilityCarried":"SHOAL CREEK ROAD","featuresIntersected":"SHOAL CREEK","location":"6.8 MI SW OF FAYETTEVILLE","lat":34.286111,"lon":-85.925833,"lowestRating":4,"yearBuilt":1980,"adt":30,"conditionCategory":"poor","structurallyDeficient":true,"materialName":"Steel","designTypeName":"Culvert","lengthFt":26.9},{"id":"GA-000000014150070","state":"GA","stateName":"Georgia","countyFips":"141","facilityCarried":"TWIN POND ROAD","featuresIntersected":"LITTLE OGEECHEE RIVER","location":"3.9 MI NE OF SPARTA","lat":33.348889,"lon":-84.244722,"lowestRating":4,"yearBuilt":1950,"adt":30,"conditionCategory":"poor","structurallyDeficient":true,"materialName":"Steel","designTypeName":"Culvert","lengthFt":21.0},{"id":"GA-000000019950480","state":"GA","stateName":"Georgia","countyFips":"199","facilityCarried":"DAN STRIBLING ROAD","featuresIntersected":"CSX RAILROAD","location":"3.5 MI S OF GAY","lat":33.308056,"lon":-85.809167,"lowestRating":4,"yearBuilt":1945,"adt":30,"conditionCategory":"poor","structurallyDeficient":true,"materialName":"Wood or Timber","designTypeName":"Stringer/Multi-beam or Girder","lengthFt":98.1},{"id":"GA-000000031350530","state":"GA","stateName":"Georgia","countyFips":"313","facilityCarried":"NANCE SPRINGS CIR.","featuresIntersected":"CONASAUGA RIVER TRIB.","location":"IN SE CORNER OF WHITFIELD","lat":34.923056,"lon":-84.989167,"lowestRating":4,"yearBuilt":1923,"adt":30,"conditionCategory":"poor","structurallyDeficient":true,"materialName":"Steel","designTypeName":"Stringer/Multi-beam or Girder","lengthFt":24.9},{"id":"GA-080302000003036","state":"GA","stateName":"Georgia","countyFips":"291","facilityCarried":"COOPER CREEK ROAD","featuresIntersected":"MULKEY CREEK","location":"COOPER CREEK SCENIC AREA","lat":36.171389,"lon":-84.266667,"lowestRating":4,"yearBuilt":1986,"adt":25,"conditionCategory":"poor","structurallyDeficient":true,"materialName":"Prestressed Concrete","designTypeName":"Slab","lengthFt":36.1},{"id":"GA-000000001150080","state":"GA","stateName":"Georgia","countyFips":"011","facilityCarried":"HICKORY CREEK ROAD","featuresIntersected":"HICKORY LEVEL CREEK","location":"3.2 MI SW OF HOMER","lat":35.044167,"lon":-84.545,"lowestRating":4,"yearBuilt":1970,"adt":20,"conditionCategory":"poor","structurallyDeficient":true,"materialName":"Steel Continuous","designTypeName":"Stringer/Multi-beam or Girder","lengthFt":58.1},{"id":"GA-000000005550450","state":"GA","stateName":"Georgia","countyFips":"055","facilityCarried":"NEAL GAP ROAD","featuresIntersected":"TELOGA CREEK","location":"6.5 MI W OF TRION","lat":35.008056,"lon":-85.64,"lowestRating":4,"yearBuilt":1954,"adt":20,"conditionCategory":"poor","structurallyDeficient":true,"materialName":"Steel Continuous","designTypeName":"Stringer/Multi-beam or Girder","lengthFt":32.2},{"id":"GA-000000013150540","state":"GA","stateName":"Georgia","countyFips":"131","facilityCarried":"CRANFORD ROAD","featuresIntersected":"TIRED CREEK","location":"APP 4.3 MI SW OF CAIRO","lat":30.928611,"lon":-84.656944,"lowestRating":4,"yearBuilt":1992,"adt":20,"conditionCategory":"poor","structurallyDeficient":true,"materialName":"Concrete","designTypeName":"Slab","lengthFt":120.1},{"id":"GA-000000019950220","state":"GA","stateName":"Georgia","countyFips":"199","facilityCarried":"BETTY DUNN ROAD","featuresIntersected":"CRAWFORD CREEK","location":"4 MI NE OF PINE MTN.","lat":33.166111,"lon":-86.365833,"lowestRating":4,"yearBuilt":1950,"adt":20,"conditionCategory":"poor","structurallyDeficient":true,"materialName":"Steel","designTypeName":"Stringer/Multi-beam or Girder","lengthFt":35.1},{"id":"GA-000000021350410","state":"GA","stateName":"Georgia","countyFips":"213","facilityCarried":"McNELLY ROAD","featuresIntersected":"CONASAUGA RIVER TRIB.","location":"5 MI NW OF CRANDELL","lat":35.562222,"lon":-85.513889,"lowestRating":4,"yearBuilt":1934,"adt":20,"conditionCategory":"poor","structurallyDeficient":true,"materialName":"Steel","designTypeName":"Stringer/Multi-beam or Girder","lengthFt":24.9},{"id":"GA-000000003350410","state":"GA","stateName":"Georgia","countyFips":"033","facilityCarried":"WALKER DOW ROAD","featuresIntersected":"THORNTON CREEK","location":"3.4 MI E OF VIDETTE","lat":34.565556,"lon":-83.568889,"lowestRating":4,"yearBuilt":1988,"adt":10,"conditionCategory":"poor","structurallyDeficient":true,"materialName":"Steel","designTypeName":"Culvert","lengthFt":24.0},{"id":"GA-000000008350120","state":"GA","stateName":"Georgia","countyFips":"083","facilityCarried":"OLD CLOVERDALE RD.","featuresIntersected":"LOOKOUT CREEK","location":"11.2 MI S OF TRENTON","lat":35.791944,"lon":-86.595,"lowestRating":4,"yearBuilt":1932,"adt":10,"conditionCategory":"poor","structurallyDeficient":true,"materialName":"Steel","designTypeName":"Stringer/Multi-beam or Girder","lengthFt":89.9},{"id":"GA-000000014150090","state":"GA","stateName":"Georgia","countyFips":"141","facilityCarried":"RABUN ROAD","featuresIntersected":"OGEECHEE RIVER","location":"13.4 MI NE OF SPARTA","lat":33.822222,"lon":-84.186389,"lowestRating":4,"yearBuilt":1955,"adt":10,"conditionCategory":"poor","structurallyDeficient":true,"materialName":"Steel","designTypeName":"Stringer/Multi-beam or Girder","lengthFt":46.9},{"id":"GA-000000019950120","state":"GA","stateName":"Georgia","countyFips":"199","facilityCarried":"OLD SR 41","featuresIntersected":"MILL CREEK","location":"3 MI N OF GREENVILLE","lat":34.027222,"lon":-84.966944,"lowestRating":4,"yearBuilt":1940,"adt":10,"conditionCategory":"poor","structurallyDeficient":true,"materialName":"Concrete","designTypeName":"Tee Beam","lengthFt":104.0},{"id":"GA-000000022150110","state":"GA","stateName":"Georgia","countyFips":"221","facilityCarried":"SAXTON-MATTOX RD","featuresIntersected":"LONG CREEK","location":"17.5 MI NE OF LEXINGTON","lat":34.747222,"lon":-83.658889,"lowestRating":4,"yearBuilt":1950,"adt":10,"conditionCategory":"poor","structurallyDeficient":true,"materialName":"Steel","designTypeName":"Stringer/Multi-beam or Girder","lengthFt":40.0},{"id":"GA-000000027350110","state":"GA","stateName":"Georgia","countyFips":"273","facilityCarried":"CR 84","featuresIntersected":"MIDDLE CREEK","location":"2.5 MI SE OF BRONWOOD","lat":31.81,"lon":-85.047778,"lowestRating":4,"yearBuilt":1950,"adt":10,"conditionCategory":"poor","structurallyDeficient":true,"materialName":"Steel","designTypeName":"Stringer/Multi-beam or Girder","lengthFt":47.9},