{"total":47,"good":20,"fair":21,"poor":6,"structurallyDeficient":6,"goodPct":42.6,"fairPct":44.7,"poorPct":12.8,"sdPct":12.8,"materials":{"Concrete":22,"Prestressed Concrete":22,"Steel":3},"designTypes":{"Stringer/Multi-beam or Girder":21,"Culvert":11,"Box Beam - Multiple":6,"Slab":3,"Tee Beam":3,"Frame":2,"Box Beam - Single/Spread":1},"ageDistribution":{"21-40 years":18,"41-60 years":18,"61-80 years":5,"0-20 years":4,"80+ years":2},"owners":{"State Highway Agency":47},"avgAdt":11401,"totalDailyCrossings":535839,"avgYearBuilt":1979,"oldestYear":1900,"newestYear":2018,"avgLengthFt":6.7,"ratingDistribution":{"2":1,"3":1,"4":4,"5":10,"6":11,"7":19,"8":1},"state":"GU","stateName":"Guam","countyCount":1,"cityCount":0,"topCounties":[{"fips":"010","total":47,"poor":6,"poorPct":12.8,"avgAdt":11401}],"worstBridges":[],"mostTrafficked":[{"id":"GU-66181000010G005","state":"GU","stateName":"Guam","countyFips":"010","facilityCarried":"Route 1","featuresIntersected":"Agana River","location":"Int. of Cha. Can. n RTE1","lat":14.500556,"lon":-145.215833,"adt":39000,"yearBuilt":2014,"lowestRating":7,"conditionCategory":"good","structurallyDeficient":false,"materialName":"Prestressed Concrete","designTypeName":"Box Beam - Multiple","lengthFt":10.1},{"id":"GU-66181000010G027","state":"GU","stateName":"Guam","countyFips":"010","facilityCarried":"Route 1","featuresIntersected":"Asan River","location":"1.2mi W of RTE1 n RTE6","lat":14.084167,"lon":-146.057222,"adt":38000,"yearBuilt":1970,"lowestRating":5,"conditionCategory":"fair","structurallyDeficient":false,"materialName":"Concrete","designTypeName":"Culvert","lengthFt":4.9},{"id":"GU-66181000010G030","state":"GU","stateName":"Guam","countyFips":"010","facilityCarried":"Route 1","featuresIntersected":"Asan River","location":"Int. of RTE1 n Santa Ana","lat":14.092778,"lon":-146.348889,"adt":38000,"yearBuilt":1985,"lowestRating":7,"conditionCategory":"good","structurallyDeficient":false,"materialName":"Concrete","designTypeName":"Culvert","lengthFt":2.7},{"id":"GU-66181000040G004","state":"GU","stateName":"Guam","countyFips":"010","facilityCarried":"Route 1","featuresIntersected":"Fonte River","location":"0.1mi E of Rte1/Rte6","lat":14.605556,"lon":-146.216667,"adt":34400,"yearBuilt":1982,"lowestRating":5,"conditionCategory":"fair","structurallyDeficient":false,"materialName":"Concrete","designTypeName":"Frame","lengthFt":7.9},{"id":"GU-66181000010G035","state":"GU","stateName":"Guam","countyFips":"010","facilityCarried":"Route 1","featuresIntersected":"Laguas River","location":"1.2mi S of Rte1/Rte6","lat":14.433333,"lon":-146.25,"adt":32000,"yearBuilt":1993,"lowestRating":6,"conditionCategory":"fair","structurallyDeficient":false,"materialName":"Prestressed Concrete","designTypeName":"Stringer/Multi-beam or Girder","lengthFt":4.6},{"id":"GU-66181000010G036","state":"GU","stateName":"Guam","countyFips":"010","facilityCarried":"Route 1","featuresIntersected":"Sasa River","location":"0.4mi S of Rte1/Hwy18","lat":13.612778,"lon":-145.001111,"adt":32000,"yearBuilt":1992,"lowestRating":6,"conditionCategory":"fair","structurallyDeficient":false,"materialName":"Prestressed Concrete","designTypeName":"Stringer/Multi-beam or Girder","lengthFt":4.6},{"id":"GU-66181000010G001","state":"GU","stateName":"Guam","countyFips":"010","facilityCarried":"Route 1","featuresIntersected":"Atantano River","location":".25mi S of RTE1 n RTE2A","lat":14.175,"lon":-145.7775,"adt":31000,"yearBuilt":1953,"lowestRating":2,"conditionCategory":"poor","structurallyDeficient":true,"materialName":"Concrete Continuous","designTypeName":"Stringer/Multi-beam or Girder","lengthFt":4.5},{"id":"GU-66181000010G003","state":"GU","stateName":"Guam","countyFips":"010","facilityCarried":"Route 1","featuresIntersected":"Masso River","location":"0.05mi E of Rte 1 and 11","lat":14.783333,"lon":-145.516667,"adt":30100,"yearBuilt":1980,"lowestRating":7,"conditionCategory":"good","structurallyDeficient":false,"materialName":"Concrete","designTypeName":"Culvert","lengthFt":3.0},{"id":"GU-66181000040G021","state":"GU","stateName":"Guam","countyFips":"010","facilityCarried":"Route 4","featuresIntersected":"Chaot River","location":"1.7mi S of RTE4 and RTE1","lat":13.885833,"lon":-145.735556,"adt":30000,"yearBuilt":1977,"lowestRating":7,"conditionCategory":"good","structurallyDeficient":false,"materialName":"Prestressed Concrete","designTypeName":"Stringer/Multi-beam or Girder","lengthFt":9.3},{"id":"GU-66181000010G034","state":"GU","stateName":"Guam","countyFips":"010","facilityCarried":"Route 10A","featuresIntersected":"Route 16","location":".8mi S of RTE16 n RTE27","lat":15.014722,"lon":-145.165833,"adt":26400,"yearBuilt":2000,"lowestRating":6,"conditionCategory":"fair","structurallyDeficient":false,"materialName":"Prestressed Concrete","designTypeName":"Tee Beam","lengthFt":6.7}]}