{"total":2542,"good":1312,"fair":1039,"poor":191,"structurallyDeficient":191,"goodPct":51.6,"fairPct":40.9,"poorPct":7.5,"sdPct":7.5,"materials":{"Steel":1374,"Concrete":751,"Prestressed Concrete":228,"Wood/Timber":146,"Masonry":31,"Metal (Other)":12},"designTypes":{"Stringer/Multi-beam or Girder":1367,"Slab":300,"Frame":292,"Culvert":286,"Tee Beam":71,"Box Beam - Multiple":64,"Arch - Deck":52,"Truss - Thru":49,"Girder and Floorbeam":30,"Other":18,"Arch - Thru":4,"Truss - Deck":3,"Box Beam - Single/Spread":2,"Movable - Bascule":2,"Movable - Lift":2},"ageDistribution":{"80+ years":605,"61-80 years":506,"41-60 years":618,"0-20 years":401,"21-40 years":412},"owners":{"State Highway Agency":1303,"City/Municipal":982,"State Toll Authority":167,"U.S. Forest Service":70,"Unknown":5,"Corps of Engineers":5,"State Park/Forest":4,"Other Local":2,"Railroad":1,"County Highway Agency":1,"Other State":1,"Local Toll Authority":1},"avgAdt":6725,"totalDailyCrossings":17054577,"avgYearBuilt":1968,"oldestYear":1832,"newestYear":2023,"avgLengthFt":10.6,"ratingDistribution":{"0":1,"1":11,"2":7,"3":36,"4":136,"5":406,"6":633,"7":937,"8":309,"9":66},"state":"NH","stateName":"New Hampshire","countyCount":10,"cityCount":236,"topCounties":[{"fips":"009","total":544,"poor":44,"poorPct":8.1,"avgAdt":3363},{"fips":"011","total":385,"poor":34,"poorPct":8.8,"avgAdt":11616},{"fips":"013","total":326,"poor":26,"poorPct":8.0,"avgAdt":9089},{"fips":"015","total":308,"poor":20,"poorPct":6.5,"avgAdt":13017},{"fips":"003","total":193,"poor":8,"poorPct":4.1,"avgAdt":2343},{"fips":"005","total":192,"poor":22,"poorPct":11.5,"avgAdt":3481},{"fips":"007","total":188,"poor":12,"poorPct":6.4,"avgAdt":1568},{"fips":"019","total":158,"poor":8,"poorPct":5.1,"avgAdt":2843},{"fips":"017","total":136,"poor":12,"poorPct":8.8,"avgAdt":9801},{"fips":"001","total":112,"poor":5,"poorPct":4.5,"avgAdt":5512}],"worstBridges":[{"id":"NH-017301680015200","state":"NH","stateName":"New Hampshire","countyFips":"017","facilityCarried":"TOWNHOUSE ROAD","featuresIntersected":"NORTHEAST POND","location":"NH-ME SL","lat":43.646111,"lon":-72.611111,"lowestRating":0,"yearBuilt":1948,"adt":554,"conditionCategory":"poor","structurallyDeficient":true,"materialName":"Wood or Timber","designTypeName":"Stringer/Multi-beam or Girder","lengthFt":94.2},{"id":"NH-026200620005200","state":"NH","stateName":"New Hampshire","countyFips":"005","facilityCarried":"BRIDGE STREET","featuresIntersected":"CONNECTICUT RIVER","location":"VERMONT STATE LINE","lat":43.331389,"lon":-73.112222,"lowestRating":1,"yearBuilt":1930,"adt":6100,"conditionCategory":"poor","structurallyDeficient":true,"materialName":"Concrete","designTypeName":"Arch - Deck","lengthFt":230.0},{"id":"NH-025100980012200","state":"NH","stateName":"New Hampshire","countyFips":"005","facilityCarried":"CHRISTIAN HILL RD","featuresIntersected":"NHRR(ABD)","location":"50 FT FROM SOUTH GROVE S","lat":43.207778,"lon":-72.9075,"lowestRating":1,"yearBuilt":1930,"adt":2159,"conditionCategory":"poor","structurallyDeficient":true,"materialName":"Wood or Timber","designTypeName":"Stringer/Multi-beam or Girder","lengthFt":74.1},{"id":"NH-000701450010600","state":"NH","stateName":"New Hampshire","countyFips":"011","facilityCarried":"THORNTONS FERRY RD","featuresIntersected":"BEAVER BROOK","location":"3.2 MI FR MERRIMACK TL","lat":43.741667,"lon":-73.228056,"lowestRating":1,"yearBuilt":1970,"adt":388,"conditionCategory":"poor","structurallyDeficient":true,"materialName":"Steel","designTypeName":"Culvert","lengthFt":20.0},{"id":"NH-022000650008300","state":"NH","stateName":"New Hampshire","countyFips":"005","facilityCarried":"WHIPPLE HILL ROAD","featuresIntersected":"ROARING BROOK","location":"0.5 MI. RTE.119","lat":43.268611,"lon":-72.398333,"lowestRating":1,"yearBuilt":1950,"adt":331,"conditionCategory":"poor","structurallyDeficient":true,"materialName":"Steel Continuous","designTypeName":"Stringer/Multi-beam or Girder","lengthFt":43.0},{"id":"NH-001300950012700","state":"NH","stateName":"New Hampshire","countyFips":"015","facilityCarried":"GRIFFIN MILL ROAD","featuresIntersected":"MAPLE FALLS BROOK","location":"300 YDS N. OF NH 121","lat":43.56,"lon":-72.908611,"lowestRating":1,"yearBuilt":1850,"adt":187,"conditionCategory":"poor","structurallyDeficient":true,"materialName":"Steel","designTypeName":"Stringer/Multi-beam or Girder","lengthFt":28.9},{"id":"NH-000500590013400","state":"NH","stateName":"New Hampshire","countyFips":"005","facilityCarried":"HILL ROAD","featuresIntersected":"DARBY BROOK","location":".08 MI FR DINSMORE HILL","lat":44.541389,"lon":-73.268889,"lowestRating":1,"yearBuilt":1970,"adt":90,"conditionCategory":"poor","structurallyDeficient":true,"materialName":"Steel","designTypeName":"Stringer/Multi-beam or Girder","lengthFt":29.9},{"id":"NH-017900910015500","state":"NH","stateName":"New Hampshire","countyFips":"011","facilityCarried":"DOUGHERTY LANE","featuresIntersected":"MID BR PISCATAQUOG RIVER","location":"0.8 MI FR SANDERS HILL R","lat":44.229444,"lon":-72.14,"lowestRating":1,"yearBuilt":2004,"adt":90,"conditionCategory":"poor","structurallyDeficient":true,"materialName":"Concrete","designTypeName":"Frame","lengthFt":22.0},{"id":"NH-019201770011700","state":"NH","stateName":"New Hampshire","countyFips":"019","facilityCarried":"PARADISE ROAD","featuresIntersected":"SUGAR RIVER","location":"380 FT. RTE.11","lat":44.112222,"lon":-72.348333,"lowestRating":1,"yearBuilt":1976,"adt":90,"conditionCategory":"poor","structurallyDeficient":true,"materialName":"Steel","designTypeName":"Stringer/Multi-beam or Girder","lengthFt":39.0},{"id":"NH-020300870010800","state":"NH","stateName":"New Hampshire","countyFips":"009","facilityCarried":"HIGH BRIDGE ROAD","featuresIntersected":"ARCHERTOWN BROOK","location":"150FT W TILLOTSON RD JCT","lat":45.250833,"lon":-73.486389,"lowestRating":1,"yearBuilt":1940,"adt":90,"conditionCategory":"poor","structurallyDeficient":true,"materialName":"Steel","designTypeName":"Stringer/Multi-beam or Girder","lengthFt":24.0},{"id":"NH-026102900006400","state":"NH","stateName":"New Hampshire","countyFips":"003","facilityCarried":"MAPLE STREET","featuresIntersected":"BRANCH RIVER","location":"0.02MI. RTE 153","lat":44.597778,"lon":-72.009444,"lowestRating":1,"yearBuilt":1940,"adt":90,"conditionCategory":"poor","structurallyDeficient":true,"materialName":"Concrete","designTypeName":"Tee Beam","lengthFt":35.1},{"id":"NH-012301710010500","state":"NH","stateName":"New Hampshire","countyFips":"013","facilityCarried":"SHOP ROAD","featuresIntersected":"NEEDLE SHOP BROOK","location":"0.8 MI N NEW CHESTER RD","lat":44.561389,"lon":-71.839444,"lowestRating":1,"yearBuilt":1930,"adt":63,"conditionCategory":"poor","structurallyDeficient":true,"materialName":"Steel","designTypeName":"Stringer/Multi-beam or Girder","lengthFt":35.1},{"id":"NH-022300690004600","state":"NH","stateName":"New Hampshire","countyFips":"017","facilityCarried":"OAK STREET","featuresIntersected":"CSX","location":"DOVER-ROLLINSFORD TL","lat":43.915,"lon":-72.309444,"lowestRating":2,"yearBuilt":1890,"adt":8552,"conditionCategory":"poor","structurallyDeficient":true,"materialName":"Steel","designTypeName":"Other","lengthFt":65.0},{"id":"NH-021701980010700","state":"NH","stateName":"New Hampshire","countyFips":"015","facilityCarried":"CATE STREET","featuresIntersected":"HODGSON BROOK","location":".2 WEST OF BARTLETT St.","lat":43.421667,"lon":-71.651944,"lowestRating":2,"yearBuilt":1940,"adt":1340,"conditionCategory":"poor","structurallyDeficient":true,"materialName":"Steel","designTypeName":"Stringer/Multi-beam or Girder","lengthFt":37.1},{"id":"NH-021900830015400","state":"NH","stateName":"New Hampshire","countyFips":"015","facilityCarried":"DUDLEY ROAD","featuresIntersected":"LAMPREY RIVER","location":".23 MI JCT 101","lat":44.423056,"lon":-72.319444,"lowestRating":2,"yearBuilt":1914,"adt":535,"conditionCategory":"poor","structurallyDeficient":true,"materialName":"Concrete","designTypeName":"Slab","lengthFt":51.8},{"id":"NH-026801210010300","state":"NH","stateName":"New Hampshire","countyFips":"013","facilityCarried":"CLOTHESPIN BR ROAD","featuresIntersected":"BLACKWATER RIVER","location":"0.88MI NH127","lat":43.47,"lon":-73.193333,"lowestRating":2,"yearBuilt":1954,"adt":448,"conditionCategory":"poor","structurallyDeficient":true,"materialName":"Steel","designTypeName":"Stringer/Multi-beam or Girder","lengthFt":73.2},{"id":"NH-002801040014100","state":"NH","stateName":"New Hampshire","countyFips":"013","facilityCarried":"JOHNSON HILL ROAD","featuresIntersected":"WEST BRANCH BROOK","location":"1.5 MI MARSHALL HILL RD","lat":44.507222,"lon":-72.534444,"lowestRating":2,"yearBuilt":1950,"adt":90,"conditionCategory":"poor","structurallyDeficient":true,"materialName":"Steel","designTypeName":"Stringer/Multi-beam or Girder","lengthFt":26.9},{"id":"NH-007401660008200","state":"NH","stateName":"New Hampshire","countyFips":"003","facilityCarried":"GRANITE ROAD","featuresIntersected":"SOUTH RIVER","location":"0.3MI. RTE 153","lat":44.065556,"lon":-71.240833,"lowestRating":2,"yearBuilt":1920,"adt":90,"conditionCategory":"poor","structurallyDeficient":true,"materialName":"Steel Continuous","designTypeName":"Stringer/Multi-beam or Girder","lengthFt":36.1},{"id":"NH-008501470008000","state":"NH","stateName":"New Hampshire","countyFips":"005","facilityCarried":"TEMPLETON TURNPIKE","featuresIntersected":"PRIEST BROOK","location":"1.9MI. RTE 119","lat":43.232222,"lon":-73.187778,"lowestRating":2,"yearBuilt":1984,"adt":86,"conditionCategory":"poor","structurallyDeficient":true,"materialName":"Steel","designTypeName":"Culvert","lengthFt":21.0},{"id":"NH-005201500010700","state":"NH","stateName":"New Hampshire","countyFips":"013","facilityCarried":"US202","featuresIntersected":"NHRR CONSTITUTION AV.","location":".1 MI WEST JCT I-93","lat":44.7625,"lon":-71.897778,"lowestRating":3,"yearBuilt":1958,"adt":44531,"conditionCategory":"poor","structurallyDeficient":true,"materialName":"Steel","designTypeName":"Stringer/Multi-beam or Girder","lengthFt":155.8},{"id":"NH-005201630011100","state":"NH","stateName":"New Hampshire","countyFips":"013","facilityCarried":"NH  9(LOUDON ROAD)","featuresIntersected":"MERRIMACK RIVER","location":"0.1 MI EAST JCT I-93","lat":44.098333,"lon":-72.884444,"lowestRating":3,"yearBuilt":1966,"adt":23188,"conditionCategory":"poor","structurallyDeficient":true,"materialName":"Steel Continuous","designTypeName":"Stringer/Multi-beam or Girder","lengthFt":524.9},{"id":"NH-011101630018400","state":"NH","stateName":"New Hampshire","countyFips":"015","facilityCarried":"US  1","featuresIntersected":"CSX(ABD)","location":"0.1 MI FROM N HAMPTON TL","lat":43.678333,"lon":-70.866111,"lowestRating":3,"yearBuilt":1936,"adt":16112,"conditionCategory":"poor","structurallyDeficient":true,"materialName":"Steel Continuous","designTypeName":"Girder and Floorbeam","lengthFt":120.1},{"id":"NH-019701480013200","state":"NH","stateName":"New Hampshire","countyFips":"015","facilityCarried":"US  1","featuresIntersected":"CSX","location":"1.1MI FROM RYE TL","lat":43.528333,"lon":-71.469444,"lowestRating":3,"yearBuilt":1935,"adt":15098,"conditionCategory":"poor","structurallyDeficient":true,"materialName":"Concrete","designTypeName":"Tee Beam","lengthFt":42.0},{"id":"NH-025800890011400","state":"NH","stateName":"New Hampshire","countyFips":"005","facilityCarried":"NH 12","featuresIntersected":"S BRANCH ASHUELOT RIVER","location":"1.5 MI S TO TROY CENTER","lat":44.054167,"lon":-72.879722,"lowestRating":3,"yearBuilt":1941,"adt":8843,"conditionCategory":"poor","structurallyDeficient":true,"materialName":"Concrete","designTypeName":"Frame","lengthFt":36.1},{"id":"NH-021702310010300","state":"NH","stateName":"New Hampshire","countyFips":"015","facilityCarried":"MAPLEWOOD AVENUE","featuresIntersected":"NORTH MILL POND","location":"0.2 MI E JCT US 1 BYPASS","lat":44.368889,"lon":-72.293056,"lowestRating":3,"yearBuilt":1940,"adt":6472,"conditionCategory":"poor","structurallyDeficient":true,"materialName":"Masonry","designTypeName":"Culvert","lengthFt":24.9},{"id":"NH-020101410012700","state":"NH","stateName":"New Hampshire","countyFips":"015","facilityCarried":"NH152","featuresIntersected":"NORTH RIVER","location":"5.15MI. NW LEE TL","lat":44.655833,"lon":-72.421389,"lowestRating":3,"yearBuilt":1925,"adt":3415,"conditionCategory":"poor","structurallyDeficient":true,"materialName":"Steel","designTypeName":"Stringer/Multi-beam or Girder","lengthFt":23.0},{"id":"NH-018100660007100","state":"NH","stateName":"New Hampshire","countyFips":"015","facilityCarried":"NH  1B","featuresIntersected":"LITTLE HARBOR","location":"1.1 MI JCT RT 1-A","lat":43.895833,"lon":-71.961667,"lowestRating":3,"yearBuilt":1942,"adt":3283,"conditionCategory":"poor","structurallyDeficient":true,"materialName":"Steel","designTypeName":"Movable - Bascule","lengthFt":253.6},{"id":"NH-013600900010100","state":"NH","stateName":"New Hampshire","countyFips":"005","facilityCarried":"MAPLE AVE","featuresIntersected":"BLACK BROOK","location":"DOWNTOWN KEENE","lat":44.593333,"lon":-72.963056,"lowestRating":3,"yearBuilt":1961,"adt":3140,"conditionCategory":"poor","structurallyDeficient":true,"materialName":"Steel","designTypeName":"Culvert","lengthFt":23.0},{"id":"NH-025101490007200","state":"NH","stateName":"New Hampshire","countyFips":"005","facilityCarried":"NH 32","featuresIntersected":"MARTIN BROOK","location":"1.48 MI. N. RICHMOND TL","lat":43.0775,"lon":-72.879167,"lowestRating":3,"yearBuilt":1929,"adt":2912,"conditionCategory":"poor","structurallyDeficient":true,"materialName":"Concrete","designTypeName":"Slab","lengthFt":26.9},{"id":"NH-005201470002800","state":"NH","stateName":"New Hampshire","countyFips":"013","facilityCarried":"US202 NH 9","featuresIntersected":"ASH BROOK","location":"1 MI FROM CURRIER RD","lat":44.181111,"lon":-72.024722,"lowestRating":3,"yearBuilt":1970,"adt":2807,"conditionCategory":"poor","structurallyDeficient":true,"materialName":"Steel","designTypeName":"Culvert","lengthFt":29.9},{"id":"NH-000802080013700","state":"NH","stateName":"New Hampshire","countyFips":"013","facilityCarried":"NH 11","featuresIntersected":"SUCKER BROOK","location":"0.4 MI FROM FRANKLIN T.L.","lat":43.610278,"lon":-73.257778,"lowestRating":3,"yearBuilt":1929,"adt":2622,"conditionCategory":"poor","structurallyDeficient":true,"materialName":"Concrete","designTypeName":"Culvert","lengthFt":27.9},{"id":"NH-000801430007700","state":"NH","stateName":"New Hampshire","countyFips":"013","facilityCarried":"US  4","featuresIntersected":"BLACKWATER RIVER","location":"0.3 MI FROM SALISBURY TL","lat":43.931944,"lon":-72.784444,"lowestRating":3,"yearBuilt":1933,"adt":2600,"conditionCategory":"poor","structurallyDeficient":true,"materialName":"Steel","designTypeName":"Girder and Floorbeam","lengthFt":75.1},{"id":"NH-015700530011200","state":"NH","stateName":"New Hampshire","countyFips":"009","facilityCarried":"EAST THETFORD ROAD","featuresIntersected":"CONNECTICUT RIVER","location":"0.1 MI FROM VERMONT SL","lat":45.014722,"lon":-73.800833,"lowestRating":3,"yearBuilt":1937,"adt":2118,"conditionCategory":"poor","structurallyDeficient":true,"materialName":"Steel","designTypeName":"Truss - Thru","lengthFt":471.1},{"id":"NH-026701100015000","state":"NH","stateName":"New Hampshire","countyFips":"011","facilityCarried":"RIVER ROAD","featuresIntersected":"PISCATAQUOG RIVER","location":"0.5 MI FROM NH 77","lat":44.298333,"lon":-72.425278,"lowestRating":3,"yearBuilt":1940,"adt":1824,"conditionCategory":"poor","structurallyDeficient":true,"materialName":"Steel","designTypeName":"Other","lengthFt":117.1},{"id":"NH-026302540018000","state":"NH","stateName":"New Hampshire","countyFips":"013","facilityCarried":"NH127","featuresIntersected":"WARNER RIVER","location":".5 MI WEBSTER T.L.","lat":43.350833,"lon":-73.315556,"lowestRating":3,"yearBuilt":1937,"adt":1550,"conditionCategory":"poor","structurallyDeficient":true,"materialName":"Steel Continuous","designTypeName":"Stringer/Multi-beam or Girder","lengthFt":123.0},{"id":"NH-027700630010500","state":"NH","stateName":"New Hampshire","countyFips":"011","facilityCarried":"TEMPLE ROAD","featuresIntersected":"BLOOD BROOK","location":"0.02 MI SW JCT NH101","lat":44.199167,"lon":-72.367222,"lowestRating":3,"yearBuilt":1901,"adt":1214,"conditionCategory":"poor","structurallyDeficient":true,"materialName":"Masonry","designTypeName":"Arch - Deck","lengthFt":48.9},{"id":"NH-014400660005900","state":"NH","stateName":"New Hampshire","countyFips":"009","facilityCarried":"TRUES BROOK ROAD","featuresIntersected":"BLOODS BROOK","location":"0.4 MI FR PLAINFIELD TL","lat":43.798889,"lon":-73.043056,"lowestRating":3,"yearBuilt":1952,"adt":1068,"conditionCategory":"poor","structurallyDeficient":true,"materialName":"Steel","designTypeName":"Stringer/Multi-beam or Girder","lengthFt":65.0},{"id":"NH-004700720012700","state":"NH","stateName":"New Hampshire","countyFips":"019","facilityCarried":"NH 12A","featuresIntersected":"SUGAR RIVER","location":".1 MI. FROM JCT. RTE. 103","lat":44.876389,"lon":-73.408889,"lowestRating":3,"yearBuilt":1967,"adt":1051,"conditionCategory":"poor","structurallyDeficient":true,"materialName":"Steel Continuous","designTypeName":"Stringer/Multi-beam or Girder","lengthFt":280.8},{"id":"NH-028401770014800","state":"NH","stateName":"New Hampshire","countyFips":"009","facilityCarried":"NH175","featuresIntersected":"PEMIGEWASSET RIVER","location":"0.05 MI FROM JCT RTE 3","lat":44.548889,"lon":-73.194444,"lowestRating":3,"yearBuilt":1939,"adt":664,"conditionCategory":"poor","structurallyDeficient":true,"materialName":"Steel","designTypeName":"Arch - Thru","lengthFt":183.1},{"id":"NH-003601470005500","state":"NH","stateName":"New Hampshire","countyFips":"009","facilityCarried":"POTATO ROAD","featuresIntersected":"INDIAN RIVER","location":"1.5 MI FROMENFIELD TL","lat":44.624444,"lon":-72.204722,"lowestRating":3,"yearBuilt":1930,"adt":624,"conditionCategory":"poor","structurallyDeficient":true,"materialName":"Steel","designTypeName":"Stringer/Multi-beam or Girder","lengthFt":54.1},{"id":"NH-019300640010700","state":"NH","stateName":"New Hampshire","countyFips":"015","facilityCarried":"POND ROAD","featuresIntersected":"CSX","location":"0.6 MI. KINGSTON TL","lat":43.081111,"lon":-71.3325,"lowestRating":3,"yearBuilt":1920,"adt":470,"conditionCategory":"poor","structurallyDeficient":true,"materialName":"Wood or Timber","designTypeName":"Stringer/Multi-beam or Girder","lengthFt":41.0},{"id":"NH-005201420011600","state":"NH","stateName":"New Hampshire","countyFips":"013","facilityCarried":"DELTA DRIVE","featuresIntersected":"I-93 US  4","location":".6 MI NORTH OF JCT. US 4","lat":43.918611,"lon":-71.654444,"lowestRating":3,"yearBuilt":1958,"adt":465,"conditionCategory":"poor","structurallyDeficient":true,"materialName":"Steel Continuous","designTypeName":"Stringer/Multi-beam or Girder","lengthFt":191.9},{"id":"NH-003601720007000","state":"NH","stateName":"New Hampshire","countyFips":"009","facilityCarried":"GRIST MILL HILL RD","featuresIntersected":"INDIAN RIVER","location":"2.01 MI FROM GRAFTON TL","lat":44.899444,"lon":-72.6025,"lowestRating":3,"yearBuilt":1956,"adt":404,"conditionCategory":"poor","structurallyDeficient":true,"materialName":"Steel","designTypeName":"Stringer/Multi-beam or Girder","lengthFt":50.9},{"id":"NH-024400980006400","state":"NH","stateName":"New Hampshire","countyFips":"007","facilityCarried":"BOG ROAD","featuresIntersected":"CONNECTICUT RIVER","location":"0.02 MILE EAST OF VT. S L","lat":44.843889,"lon":-72.814444,"lowestRating":3,"yearBuilt":1893,"adt":300,"conditionCategory":"poor","structurallyDeficient":true,"materialName":"Steel","designTypeName":"Truss - Thru","lengthFt":194.9},{"id":"NH-009001060007600","state":"NH","stateName":"New Hampshire","countyFips":"015","facilityCarried":"SCRIBNER ROAD","featuresIntersected":"EXETER RIVER","location":"0.59MI. RTE 107","lat":44.009167,"lon":-71.171667,"lowestRating":3,"yearBuilt":1941,"adt":238,"conditionCategory":"poor","structurallyDeficient":true,"materialName":"Steel","designTypeName":"Stringer/Multi-beam or Girder","lengthFt":46.9},{"id":"NH-000301090013500","state":"NH","stateName":"New Hampshire","countyFips":"009","facilityCarried":"FOWLER RIVER ROAD","featuresIntersected":"FOWLER RIVER","location":"5.2MI FR TUFTONBORO TL","lat":44.881667,"lon":-73.403889,"lowestRating":3,"yearBuilt":1930,"adt":234,"conditionCategory":"poor","structurallyDeficient":true,"materialName":"Steel","designTypeName":"Stringer/Multi-beam or Girder","lengthFt":41.0},{"id":"NH-008400800010800","state":"NH","stateName":"New Hampshire","countyFips":"017","facilityCarried":"RIVER ROAD","featuresIntersected":"MAD RIVER","location":"0.63MI. RTE 111","lat":44.455,"lon":-72.094167,"lowestRating":3,"yearBuilt":1986,"adt":108,"conditionCategory":"poor","structurallyDeficient":true,"materialName":"Steel","designTypeName":"Stringer/Multi-beam or Girder","lengthFt":35.1},{"id":"NH-008600910014200","state":"NH","stateName":"New Hampshire","countyFips":"011","facilityCarried":"OLD COUNTY RD N","featuresIntersected":"COLLINS BROOK","location":"2.4 MI. DEERING TL","lat":44.216667,"lon":-73.142222,"lowestRating":3,"yearBuilt":1981,"adt":90,"conditionCategory":"poor","structurallyDeficient":true,"materialName":"Steel","designTypeName":"Culvert","lengthFt":29.9},{"id":"NH-013901260016300","state":"NH","stateName":"New Hampshire","countyFips":"001","facilityCarried":"CENTENARY AVENUE","featuresIntersected":"NHRR","location":"TOWN RD","lat":44.546389,"lon":-72.556389,"lowestRating":3,"yearBuilt":1940,"adt":90,"conditionCategory":"poor","structurallyDeficient":true,"materialName":"Wood or Timber","designTypeName":"Stringer/Multi-beam or Girder","lengthFt":121.1},{"id":"NH-017002190012600","state":"NH","stateName":"New Hampshire","countyFips":"007","facilityCarried":"CHICKWOLNEPY ROAD","featuresIntersected":"CHICKWOLNEPY STREAM","location":"1.2 M FR E. SIDE RIVER RD","lat":45.651389,"lon":-72.51,"lowestRating":3,"yearBuilt":1950,"adt":90,"conditionCategory":"poor","structurallyDeficient":true,"materialName":"Steel","designTypeName":"Stringer/Multi-beam or Girder","lengthFt":38.7},{"id":"NH-024000680017300","state":"NH","stateName":"New Hampshire","countyFips":"007","facilityCarried":"LEIGHTON MEADOW RD","featuresIntersected":"PHILLIPS BROOK","location":"100 FT FR SULLIVAN RD 61","lat":45.026944,"lon":-72.445556,"lowestRating":3,"yearBuilt":1940,"adt":90,"conditionCategory":"poor","structurallyDeficient":true,"materialName":"Prestressed Concrete","designTypeName":"Tee Beam","lengthFt":40.0},{"id":"NH-025301160013900","state":"NH","stateName":"New Hampshire","countyFips":"011","facilityCarried":"PUTNAM ROAD","featuresIntersected":"BROOK","location":"TOWN RD","lat":43.963056,"lon":-73.466667,"lowestRating":3,"yearBuilt":1930,"adt":90,"conditionCategory":"poor","structurallyDeficient":true,"materialName":"Steel","designTypeName":"Stringer/Multi-beam or Girder","lengthFt":24.9},{"id":"NH-092205000001069","state":"NH","stateName":"New Hampshire","countyFips":"003","facilityCarried":"FDR 35","featuresIntersected":"DOUGLAS BROOK","location":"MAP 32","lat":44.439722,"lon":-71.901389,"lowestRating":3,"yearBuilt":1950,"adt":50,"conditionCategory":"poor","structurallyDeficient":true,"materialName":"Wood or Timber","designTypeName":"Stringer/Multi-beam or Girder","lengthFt":27.9},{"id":"NH-026401200005800","state":"NH","stateName":"New Hampshire","countyFips":"009","facilityCarried":"FISH HATCHERY ROAD","featuresIntersected":"PATCH BROOK","location":"0.17MI NH25","lat":44.829444,"lon":-72.336944,"lowestRating":3,"yearBuilt":1930,"adt":44,"conditionCategory":"poor","structurallyDeficient":true,"materialName":"Steel","designTypeName":"Stringer/Multi-beam or Girder","lengthFt":33.1},{"id":"NH-AFNHRNGF00243","state":"NH","stateName":"New Hampshire","countyFips":"011","facilityCarried":"ON-ORBIT DRIVE","featuresIntersected":"GARDNER-JOE ENGLISH STRE","location":"1.2 MILES FROM MAIN GATE.","lat":43.447222,"lon":-72.391667,"lowestRating":3,"yearBuilt":1959,"adt":10,"conditionCategory":"poor","structurallyDeficient":true,"materialName":"Steel","designTypeName":"Culvert","lengthFt":27.9},{"id":"NH-002701320016000","state":"NH","stateName":"New Hampshire","countyFips":"013","facilityCarried":"I-89","featuresIntersected":"SOUTH STREET","location":"BOW INTERCHANGE","lat":43.379722,"lon":-71.597222,"lowestRating":4,"yearBuilt":1959,"adt":46769,"conditionCategory":"poor","structurallyDeficient":true,"materialName":"Concrete","designTypeName":"Frame","lengthFt":55.1},{"id":"NH-016100910006300","state":"NH","stateName":"New Hampshire","countyFips":"011","facilityCarried":"I-293 FEE TPK","featuresIntersected":"STARK WAY","location":"1.9MI S HOOKSETT T.L.","lat":44.233611,"lon":-72.613889,"lowestRating":4,"yearBuilt":1956,"adt":45069,"conditionCategory":"poor","structurallyDeficient":true,"materialName":"Concrete","designTypeName":"Frame","lengthFt":29.9},{"id":"NH-005201520010800","state":"NH","stateName":"New Hampshire","countyFips":"013","facilityCarried":"I-393 US  4 US202","featuresIntersected":"I-93","location":"0.4 MI. E. JCT US 3","lat":44.850556,"lon":-71.576389,"lowestRating":4,"yearBuilt":1958,"adt":44531,"conditionCategory":"poor","structurallyDeficient":true,"materialName":"Steel","designTypeName":"Stringer/Multi-beam or Girder","lengthFt":167.0},{"id":"NH-016801060004200","state":"NH","stateName":"New Hampshire","countyFips":"011","facilityCarried":"FEE TPK SB","featuresIntersected":"PENNICHUCK BROOK","location":"NASHUA-MERRIMACK T.L.","lat":43.264722,"lon":-73.047222,"lowestRating":4,"yearBuilt":1954,"adt":43368,"conditionCategory":"poor","structurallyDeficient":true,"materialName":"Steel","designTypeName":"Stringer/Multi-beam or Girder","lengthFt":89.9},{"id":"NH-005201540012100","state":"NH","stateName":"New Hampshire","countyFips":"013","facilityCarried":"I-393 US  4 US202","featuresIntersected":"FORT EDDY RD","location":"0.2MI E JCT I-93","lat":43.455556,"lon":-72.338611,"lowestRating":4,"yearBuilt":1980,"adt":39922,"conditionCategory":"poor","structurallyDeficient":true,"materialName":"Steel","designTypeName":"Stringer/Multi-beam or Girder","lengthFt":69.9},{"id":"NH-016101510006500","state":"NH","stateName":"New Hampshire","countyFips":"011","facilityCarried":"US  3 NH  3A","featuresIntersected":"I-293 NH  3A CSX MERR R","location":"0.7 MI BEDFORD TL","lat":43.718611,"lon":-71.980833,"lowestRating":4,"yearBuilt":1923,"adt":23677,"conditionCategory":"poor","structurallyDeficient":true,"materialName":"Steel","designTypeName":"Truss - Deck","lengthFt":1186.0},{"id":"NH-016100990006700","state":"NH","stateName":"New Hampshire","countyFips":"011","facilityCarried":"I-293 NH  3A TPK N","featuresIntersected":"BLACK BROOK","location":"2.5 S HOOKSETT TL","lat":43.974167,"lon":-72.463611,"lowestRating":4,"yearBuilt":1956,"adt":23559,"conditionCategory":"poor","structurallyDeficient":true,"materialName":"Steel","designTypeName":"Stringer/Multi-beam or Girder","lengthFt":74.1},{"id":"NH-006501050013300","state":"NH","stateName":"New Hampshire","countyFips":"017","facilityCarried":"NH 16 SP TPK SB","featuresIntersected":"COCHECO RIVER","location":"3.6 MI. FROM ROCHESTER TL","lat":43.878611,"lon":-72.209167,"lowestRating":4,"yearBuilt":1957,"adt":23076,"conditionCategory":"poor","structurallyDeficient":true,"materialName":"Steel Continuous","designTypeName":"Stringer/Multi-beam or Girder","lengthFt":267.1},{"id":"NH-014400930010900","state":"NH","stateName":"New Hampshire","countyFips":"009","facilityCarried":"I-89 NB","featuresIntersected":"US  4 NH 10","location":"2.6 MI FROM VT SL","lat":44.088611,"lon":-73.718333,"lowestRating":4,"yearBuilt":1966,"adt":22282,"conditionCategory":"poor","structurallyDeficient":true,"materialName":"Steel","designTypeName":"Stringer/Multi-beam or Girder","lengthFt":115.2},{"id":"NH-006501060013300","state":"NH","stateName":"New Hampshire","countyFips":"017","facilityCarried":"NH 16 SP TPK NB","featuresIntersected":"COCHECO RIVER","location":"3.6 MI FROM ROCHESTER TL.","lat":43.873889,"lon":-72.191111,"lowestRating":4,"yearBuilt":1957,"adt":22053,"conditionCategory":"poor","structurallyDeficient":true,"materialName":"Steel Continuous","designTypeName":"Stringer/Multi-beam or Girder","lengthFt":267.1},{"id":"NH-014400440010400","state":"NH","stateName":"New Hampshire","countyFips":"009","facilityCarried":"I-89 NB","featuresIntersected":"CONNECTICUT RIVER NECRR","location":"0.04 MI FROM VT SL.","lat":43.782778,"lon":-73.585833,"lowestRating":4,"yearBuilt":1966,"adt":21851,"conditionCategory":"poor","structurallyDeficient":true,"materialName":"Steel Continuous","designTypeName":"Stringer/Multi-beam or Girder","lengthFt":847.1},{"id":"NH-006501320010200","state":"NH","stateName":"New Hampshire","countyFips":"017","facilityCarried":"NH 16 SP TPK NB","featuresIntersected":"NH108 CSX(ABD)","location":"0.2 MI FROM JCT. RTE 16","lat":44.654444,"lon":-71.883611,"lowestRating":4,"yearBuilt":1957,"adt":21665,"conditionCategory":"poor","structurallyDeficient":true,"materialName":"Steel Continuous","designTypeName":"Stringer/Multi-beam or Girder","lengthFt":206.0},{"id":"NH-016100990006600","state":"NH","stateName":"New Hampshire","countyFips":"011","facilityCarried":"I-293 NH  3A TPK S","featuresIntersected":"BLACK BROOK","location":"2.5MI S HOOKSETT T.L.","lat":43.976389,"lon":-72.481667,"lowestRating":4,"yearBuilt":1956,"adt":21510,"conditionCategory":"poor","structurallyDeficient":true,"materialName":"Steel","designTypeName":"Stringer/Multi-beam or Girder","lengthFt":74.1},{"id":"NH-014400440010300","state":"NH","stateName":"New Hampshire","countyFips":"009","facilityCarried":"I-89 SB","featuresIntersected":"CONNECTICUT RIVER NECRR","location":"0.04 MI FROM VT. SL.","lat":43.757778,"lon":-73.596667,"lowestRating":4,"yearBuilt":1966,"adt":20851,"conditionCategory":"poor","structurallyDeficient":true,"materialName":"Steel Continuous","designTypeName":"Stringer/Multi-beam or Girder","lengthFt":846.1},{"id":"NH-006501320010100","state":"NH","stateName":"New Hampshire","countyFips":"017","facilityCarried":"NH 16 SP TPK SB","featuresIntersected":"NH108 CSX(ABD)","location":"0.2 MI FROM JCT. RT 16","lat":44.641111,"lon":-71.898889,"lowestRating":4,"yearBuilt":1957,"adt":20752,"conditionCategory":"poor","structurallyDeficient":true,"materialName":"Steel Continuous","designTypeName":"Stringer/Multi-beam or Girder","lengthFt":299.9},{"id":"NH-005201650002900","state":"NH","stateName":"New Hampshire","countyFips":"013","facilityCarried":"I-89 SB","featuresIntersected":"TURKEY POND","location":"1.5 MI NW JCT RT 13","lat":44.754722,"lon":-72.675278,"lowestRating":4,"yearBuilt":1959,"adt":19873,"conditionCategory":"poor","structurallyDeficient":true,"materialName":"Steel","designTypeName":"Stringer/Multi-beam or Girder","lengthFt":240.2},{"id":"NH-005201660002900","state":"NH","stateName":"New Hampshire","countyFips":"013","facilityCarried":"I-89 NB","featuresIntersected":"TURKEY POND","location":"1.5 MI NW OF JCT RT 13","lat":44.772778,"lon":-72.685556,"lowestRating":4,"yearBuilt":1959,"adt":19523,"conditionCategory":"poor","structurallyDeficient":true,"materialName":"Steel","designTypeName":"Stringer/Multi-beam or Girder","lengthFt":240.2},{"id":"NH-020800870007700","state":"NH","stateName":"New Hampshire","countyFips":"011","facilityCarried":"US202 NH101","featuresIntersected":"CONTOOCOOK RIVER","location":"2.5 MI. W. DUBLIN TL","lat":43.094722,"lon":-73.555,"lowestRating":4,"yearBuilt":1958,"adt":18347,"conditionCategory":"poor","structurallyDeficient":true,"materialName":"Steel Continuous","designTypeName":"Stringer/Multi-beam or Girder","lengthFt":194.9},{"id":"NH-016801180013500","state":"NH","stateName":"New Hampshire","countyFips":"011","facilityCarried":"US  3","featuresIntersected":"BABOOSIC BROOK","location":"5.9 MI N NASHUA TL","lat":43.260278,"lon":-72.4375,"lowestRating":4,"yearBuilt":1933,"adt":14709,"conditionCategory":"poor","structurallyDeficient":true,"materialName":"Concrete","designTypeName":"Culvert","lengthFt":29.9},{"id":"NH-022202060011000","state":"NH","stateName":"New Hampshire","countyFips":"017","facilityCarried":"NH125","featuresIntersected":"ISINGLASS RIVER","location":".1 MI BARRINGTON T.L.","lat":44.7475,"lon":-72.505556,"lowestRating":4,"yearBuilt":1951,"adt":14083,"conditionCategory":"poor","structurallyDeficient":true,"materialName":"Steel","designTypeName":"Stringer/Multi-beam or Girder","lengthFt":119.1},{"id":"NH-016101070007200","state":"NH","stateName":"New Hampshire","countyFips":"011","facilityCarried":"SALMON STREET EB","featuresIntersected":"MERRIMACK R CSX RD RAMP","location":"0.3MI W OF JCT RT 3","lat":43.357778,"lon":-71.771667,"lowestRating":4,"yearBuilt":1970,"adt":12854,"conditionCategory":"poor","structurallyDeficient":true,"materialName":"Steel Continuous","designTypeName":"Stringer/Multi-beam or Girder","lengthFt":1023.0},{"id":"NH-016801160012000","state":"NH","stateName":"New Hampshire","countyFips":"011","facilityCarried":"US  3","featuresIntersected":"SOUHEGAN RIVER","location":"0.03 MI FROM RAILROAD AVE","lat":43.916111,"lon":-72.463056,"lowestRating":4,"yearBuilt":1921,"adt":12781,"conditionCategory":"poor","structurallyDeficient":true,"materialName":"Masonry","designTypeName":"Arch - Deck","lengthFt":112.9},{"id":"NH-014401000011000","state":"NH","stateName":"New Hampshire","countyFips":"009","facilityCarried":"US  4 MECHANIC ST","featuresIntersected":"MASCOMA RIVER","location":"5.4 MI FROM HANOVER TL","lat":44.089722,"lon":-73.0075,"lowestRating":4,"yearBuilt":1977,"adt":12552,"conditionCategory":"poor","structurallyDeficient":true,"materialName":"Steel","designTypeName":"Stringer/Multi-beam or Girder","lengthFt":88.9},{"id":"NH-017201230013300","state":"NH","stateName":"New Hampshire","countyFips":"011","facilityCarried":"NH 13","featuresIntersected":"SOUHEGAN RIVER","location":"0.1 MI FROM MAPLE ST","lat":43.151389,"lon":-73.253056,"lowestRating":4,"yearBuilt":1931,"adt":12511,"conditionCategory":"poor","structurallyDeficient":true,"materialName":"Masonry","designTypeName":"Arch - Deck","lengthFt":111.9},{"id":"NH-013601660005000","state":"NH","stateName":"New Hampshire","countyFips":"005","facilityCarried":"NH101","featuresIntersected":"OTTER BROOK","location":"1.5 MI FROM MARLBORO TL","lat":44.451389,"lon":-73.721667,"lowestRating":4,"yearBuilt":1933,"adt":11367,"conditionCategory":"poor","structurallyDeficient":true,"materialName":"Concrete","designTypeName":"Frame","lengthFt":82.0},{"id":"NH-000601630018400","state":"NH","stateName":"New Hampshire","countyFips":"001","facilityCarried":"NH 11","featuresIntersected":"MERRYMEETING RIVER","location":"8.5 MI FROM GILFORD TL","lat":43.808889,"lon":-71.301667,"lowestRating":4,"yearBuilt":1934,"adt":10193,"conditionCategory":"poor","structurallyDeficient":true,"materialName":"Concrete","designTypeName":"Frame","lengthFt":35.1},{"id":"NH-000401070009800","state":"NH","stateName":"New Hampshire","countyFips":"013","facilityCarried":"NH 28","featuresIntersected":"SUNCOOK RIVER","location":"AT PEMBROKE TL","lat":44.134444,"lon":-71.993333,"lowestRating":4,"yearBuilt":1958,"adt":9436,"conditionCategory":"poor","structurallyDeficient":true,"materialName":"Steel Continuous","designTypeName":"Stringer/Multi-beam or Girder","lengthFt":213.9},{"id":"NH-011102350002500","state":"NH","stateName":"New Hampshire","countyFips":"015","facilityCarried":"NH  1A","featuresIntersected":"HAMPTON RIVER","location":"0.1 MI FROM SEABROOK TL","lat":44.191389,"lon":-72.439444,"lowestRating":4,"yearBuilt":1949,"adt":9293,"conditionCategory":"poor","structurallyDeficient":true,"materialName":"Steel","designTypeName":"Movable - Bascule","lengthFt":1199.1},{"id":"NH-012500410004000","state":"NH","stateName":"New Hampshire","countyFips":"005","facilityCarried":"NH119","featuresIntersected":"CONNECTICUT RIVER","location":"AT VERMONT STATE LINE","lat":43.0325,"lon":-73.085278,"lowestRating":4,"yearBuilt":1920,"adt":8409,"conditionCategory":"poor","structurallyDeficient":true,"materialName":"Steel","designTypeName":"Truss - Thru","lengthFt":338.9},{"id":"NH-012500420004400","state":"NH","stateName":"New Hampshire","countyFips":"005","facilityCarried":"NH119","featuresIntersected":"CONNECTICUT RIVER","location":"0.3 MI E VERMONT SL","lat":42.937778,"lon":-72.62,"lowestRating":4,"yearBuilt":1920,"adt":8409,"conditionCategory":"poor","structurallyDeficient":true,"materialName":"Steel","designTypeName":"Truss - Thru","lengthFt":296.9},{"id":"NH-014400620011700","state":"NH","stateName":"New Hampshire","countyFips":"009","facilityCarried":"NH 12A","featuresIntersected":"NHRR","location":"100 FT FROM JCT RTE 10","lat":44.700278,"lon":-73.318611,"lowestRating":4,"yearBuilt":1949,"adt":8338,"conditionCategory":"poor","structurallyDeficient":true,"materialName":"Steel Continuous","designTypeName":"Stringer/Multi-beam or Girder","lengthFt":145.0},{"id":"NH-025800960009100","state":"NH","stateName":"New Hampshire","countyFips":"005","facilityCarried":"NH 12","featuresIntersected":"NHRR(ABD)","location":"0.3MI TO TROY CENTER","lat":43.926667,"lon":-72.235833,"lowestRating":4,"yearBuilt":1957,"adt":7947,"conditionCategory":"poor","structurallyDeficient":true,"materialName":"Steel","designTypeName":"Stringer/Multi-beam or Girder","lengthFt":70.9},{"id":"NH-014401210011700","state":"NH","stateName":"New Hampshire","countyFips":"009","facilityCarried":"NH120 PARK LOT PED","featuresIntersected":"NHRR(ABD)","location":".1 MI FROM JCT RTE 4","lat":44.555556,"lon":-72.67,"lowestRating":4,"yearBuilt":1969,"adt":7709,"conditionCategory":"poor","structurallyDeficient":true,"materialName":"Prestressed Concrete","designTypeName":"Slab","lengthFt":27.9},{"id":"NH-020801080011600","state":"NH","stateName":"New Hampshire","countyFips":"011","facilityCarried":"US202 NH123","featuresIntersected":"CONTOOCOOK RIVER","location":"2.2 MI TO GREENFIELD TL","lat":44.488889,"lon":-72.463333,"lowestRating":4,"yearBuilt":1942,"adt":6878,"conditionCategory":"poor","structurallyDeficient":true,"materialName":"Steel","designTypeName":"Stringer/Multi-beam or Girder","lengthFt":175.9},{"id":"NH-028401700015900","state":"NH","stateName":"New Hampshire","countyFips":"009","facilityCarried":"NH112 KANCAMAGUS","featuresIntersected":"PEMIGEWASSET RIVER","location":"0.1 MI E JCT ROUTE 3","lat":45.346111,"lon":-71.841111,"lowestRating":4,"yearBuilt":1933,"adt":6813,"conditionCategory":"poor","structurallyDeficient":true,"materialName":"Concrete","designTypeName":"Frame","lengthFt":87.9},{"id":"NH-003201000008200","state":"NH","stateName":"New Hampshire","countyFips":"009","facilityCarried":"NH  3A","featuresIntersected":"NEWFOUND RIVER","location":"1.2 MI N OF JCT RTE 104","lat":44.123333,"lon":-72.646111,"lowestRating":4,"yearBuilt":1924,"adt":6806,"conditionCategory":"poor","structurallyDeficient":true,"materialName":"Concrete","designTypeName":"Tee Beam","lengthFt":60.0},{"id":"NH-027201590012500","state":"NH","stateName":"New Hampshire","countyFips":"005","facilityCarried":"NH 12","featuresIntersected":"MILL BROOK","location":"4.3 MI TO WALPOLE TL","lat":43.775278,"lon":-73.653889,"lowestRating":4,"yearBuilt":1941,"adt":6382,"conditionCategory":"poor","structurallyDeficient":true,"materialName":"Concrete","designTypeName":"Culvert","lengthFt":21.3},{"id":"NH-016801070013100","state":"NH","stateName":"New Hampshire","countyFips":"011","facilityCarried":"BABOOSIC LAKE ROAD","featuresIntersected":"FEE TPK","location":".8 MI FROM SOUHEGAN R","lat":43.026667,"lon":-71.713333,"lowestRating":4,"yearBuilt":1954,"adt":6216,"conditionCategory":"poor","structurallyDeficient":true,"materialName":"Steel Continuous","designTypeName":"Stringer/Multi-beam or Girder","lengthFt":167.0},{"id":"NH-006501820012300","state":"NH","stateName":"New Hampshire","countyFips":"017","facilityCarried":"GULF ROAD","featuresIntersected":"SALMON FALLS RIVER","location":"0.1 MI FROM MAINE SL","lat":43.89,"lon":-71.659167,"lowestRating":4,"yearBuilt":1950,"adt":5994,"conditionCategory":"poor","structurallyDeficient":true,"materialName":"Steel Continuous","designTypeName":"Stringer/Multi-beam or Girder","lengthFt":488.8},{"id":"NH-020501100009000","state":"NH","stateName":"New Hampshire","countyFips":"011","facilityCarried":"MAIN STREET","featuresIntersected":"BEAVER BROOK","location":"1.75 MI JCT 128","lat":44.366111,"lon":-71.503889,"lowestRating":4,"yearBuilt":1900,"adt":5974,"conditionCategory":"poor","structurallyDeficient":true,"materialName":"Masonry","designTypeName":"Arch - Deck","lengthFt":45.9},{"id":"NH-022801150009700","state":"NH","stateName":"New Hampshire","countyFips":"015","facilityCarried":"BRIDGE STREET","featuresIntersected":"SPICKET RIVER","location":"1.0MI MASS SL","lat":43.242778,"lon":-72.830278,"lowestRating":4,"yearBuilt":1900,"adt":5463,"conditionCategory":"poor","structurallyDeficient":true,"materialName":"Steel","designTypeName":"Stringer/Multi-beam or Girder","lengthFt":28.9},{"id":"NH-009101150014700","state":"NH","stateName":"New Hampshire","countyFips":"001","facilityCarried":"NH 11","featuresIntersected":"POOR FARM BROOK","location":"1.7 MI S ALTON TL","lat":44.121389,"lon":-71.901944,"lowestRating":4,"yearBuilt":1966,"adt":5454,"conditionCategory":"poor","structurallyDeficient":true,"materialName":"Prestressed Concrete","designTypeName":"Box Beam - Multiple","lengthFt":29.9},{"id":"NH-023600490008900","state":"NH","stateName":"New Hampshire","countyFips":"007","facilityCarried":"US  2","featuresIntersected":"PEA BROOK","location":"0.8 MI FROM GORHAM TL","lat":44.683333,"lon":-72.1525,"lowestRating":4,"yearBuilt":1932,"adt":4291,"conditionCategory":"poor","structurallyDeficient":true,"materialName":"Concrete","designTypeName":"Tee Beam","lengthFt":27.9},{"id":"NH-004201810005800","state":"NH","stateName":"New Hampshire","countyFips":"019","facilityCarried":"NH 12","featuresIntersected":"NECRR","location":"4.9 MI. FROM WALPOLE TL","lat":44.325278,"lon":-73.088611,"lowestRating":4,"yearBuilt":1959,"adt":3766,"conditionCategory":"poor","structurallyDeficient":true,"materialName":"Concrete","designTypeName":"Frame","lengthFt":66.9},{"id":"NH-027700940016200","state":"NH","stateName":"New Hampshire","countyFips":"011","facilityCarried":"NH 31","featuresIntersected":"STONY BROOK","location":"0.1 MI FM LYNDEBOROUGH TL","lat":43.008889,"lon":-72.553889,"lowestRating":4,"yearBuilt":1929,"adt":3444,"conditionCategory":"poor","structurallyDeficient":true,"materialName":"Concrete","designTypeName":"Frame","lengthFt":23.0},{"id":"NH-003201090006100","state":"NH","stateName":"New Hampshire","countyFips":"009","facilityCarried":"NH  3A","featuresIntersected":"NEWFOUND RIVER","location":"2.0 MI. FROM HILL T.L.","lat":44.320556,"lon":-72.003889,"lowestRating":4,"yearBuilt":1949,"adt":3364,"conditionCategory":"poor","structurallyDeficient":true,"materialName":"Steel Continuous","designTypeName":"Stringer/Multi-beam or Girder","lengthFt":71.9},{"id":"NH-009001190006400","state":"NH","stateName":"New Hampshire","countyFips":"015","facilityCarried":"NH111A","featuresIntersected":"EXETER RIVER","location":"0.6 MI DANVILLE T.L.","lat":44.587778,"lon":-71.521944,"lowestRating":4,"yearBuilt":1978,"adt":3186,"conditionCategory":"poor","structurallyDeficient":true,"materialName":"Steel","designTypeName":"Stringer/Multi-beam or Girder","lengthFt":79.1},{"id":"NH-025402390015200","state":"NH","stateName":"New Hampshire","countyFips":"009","facilityCarried":"NH 49","featuresIntersected":"MAD RIVER","location":"1.9 MI SW WATERVILLE T L","lat":45.381389,"lon":-72.861389,"lowestRating":4,"yearBuilt":1979,"adt":2786,"conditionCategory":"poor","structurallyDeficient":true,"materialName":"Steel Continuous","designTypeName":"Stringer/Multi-beam or Girder","lengthFt":540.0},{"id":"NH-005500640010800","state":"NH","stateName":"New Hampshire","countyFips":"019","facilityCarried":"CORNISH TOLL BR RD","featuresIntersected":"CONNECTICUT RIVER","location":"VERMONT STATE LINE","lat":44.170278,"lon":-72.440556,"lowestRating":4,"yearBuilt":1866,"adt":2682,"conditionCategory":"poor","structurallyDeficient":true,"materialName":"Wood or Timber","designTypeName":"Truss - Thru","lengthFt":449.1},{"id":"NH-028401710015300","state":"NH","stateName":"New Hampshire","countyFips":"009","facilityCarried":"US  3","featuresIntersected":"LOST RIVER","location":"5.6 MI FROM THORNTON TL","lat":44.925,"lon":-71.856667,"lowestRating":4,"yearBuilt":1931,"adt":2669,"conditionCategory":"poor","structurallyDeficient":true,"materialName":"Concrete","designTypeName":"Arch - Deck","lengthFt":68.9},{"id":"NH-009101210010200","state":"NH","stateName":"New Hampshire","countyFips":"001","facilityCarried":"NH 11B","featuresIntersected":"GUNSTOCK RIVER","location":"0.6 MI N JCT NH 11-A","lat":44.951111,"lon":-72.848333,"lowestRating":4,"yearBuilt":1941,"adt":2650,"conditionCategory":"poor","structurallyDeficient":true,"materialName":"Concrete","designTypeName":"Slab","lengthFt":24.9},{"id":"NH-000802060013700","state":"NH","stateName":"New Hampshire","countyFips":"013","facilityCarried":"NH 11","featuresIntersected":"NHRR(ABD)","location":"0.6 MI FROM FRANKLIN TL","lat":43.628056,"lon":-71.750556,"lowestRating":4,"yearBuilt":1929,"adt":2622,"conditionCategory":"poor","structurallyDeficient":true,"materialName":"Steel","designTypeName":"Stringer/Multi-beam or Girder","lengthFt":179.1},{"id":"NH-000802120013800","state":"NH","stateName":"New Hampshire","countyFips":"013","facilityCarried":"NH 11","featuresIntersected":"SUCKER BROOK","location":".3 MI FROM FRANKLIN T.L.","lat":43.527778,"lon":-72.845833,"lowestRating":4,"yearBuilt":1929,"adt":2622,"conditionCategory":"poor","structurallyDeficient":true,"materialName":"Concrete","designTypeName":"Culvert","lengthFt":27.9},{"id":"NH-002100950009300","state":"NH","stateName":"New Hampshire","countyFips":"011","facilityCarried":"ANTRIM ROAD","featuresIntersected":"MONADNOCK MILL CANAL","location":"0.39 MI FR CONTOOCOOK VA","lat":43.615278,"lon":-72.913333,"lowestRating":4,"yearBuilt":1922,"adt":2291,"conditionCategory":"poor","structurallyDeficient":true,"materialName":"Concrete","designTypeName":"Tee Beam","lengthFt":27.9},{"id":"NH-005801380009400","state":"NH","stateName":"New Hampshire","countyFips":"013","facilityCarried":"US  4","featuresIntersected":"SMITH RIVER","location":"4.6 MI FROM WILMOT TL","lat":44.839722,"lon":-72.188889,"lowestRating":4,"yearBuilt":1929,"adt":2046,"conditionCategory":"poor","structurallyDeficient":true,"materialName":"Steel","designTypeName":"Girder and Floorbeam","lengthFt":69.9},{"id":"NH-003501240012900","state":"NH","stateName":"New Hampshire","countyFips":"009","facilityCarried":"NH 49","featuresIntersected":"PEMIGEWASSET RIVER","location":"0.25 MI E JCT US 3","lat":45.313611,"lon":-72.68,"lowestRating":4,"yearBuilt":1928,"adt":1968,"conditionCategory":"poor","structurallyDeficient":true,"materialName":"Steel","designTypeName":"Girder and Floorbeam","lengthFt":216.9},{"id":"NH-015400700013500","state":"NH","stateName":"New Hampshire","countyFips":"015","facilityCarried":"HALL ROAD","featuresIntersected":"LITTLE COHAS BROOK","location":"0.73 MI FR HARVEY RD","lat":43.594444,"lon":-71.9725,"lowestRating":4,"yearBuilt":1974,"adt":1920,"conditionCategory":"poor","structurallyDeficient":true,"materialName":"Concrete","designTypeName":"Slab","lengthFt":24.0},{"id":"NH-010400750011400","state":"NH","stateName":"New Hampshire","countyFips":"011","facilityCarried":"WILTON ROAD","featuresIntersected":"SOUHEGAN RIVER","location":"260FT RTE 31","lat":43.719167,"lon":-72.441111,"lowestRating":4,"yearBuilt":1938,"adt":1824,"conditionCategory":"poor","structurallyDeficient":true,"materialName":"Steel","designTypeName":"Truss - Thru","lengthFt":172.9},{"id":"NH-013401590009400","state":"NH","stateName":"New Hampshire","countyFips":"005","facilityCarried":"NUTTING ROAD","featuresIntersected":"CONTOOCOOK RIVER","location":"0.4 MI FR CROSS ST","lat":43.431667,"lon":-72.242222,"lowestRating":4,"yearBuilt":1905,"adt":1777,"conditionCategory":"poor","structurallyDeficient":true,"materialName":"Masonry","designTypeName":"Arch - Deck","lengthFt":43.0},{"id":"NH-008401210014100","state":"NH","stateName":"New Hampshire","countyFips":"017","facilityCarried":"COCHECO ROAD","featuresIntersected":"COCHECO RIVER","location":"0.15MI. RTE 75","lat":44.2975,"lon":-71.848056,"lowestRating":4,"yearBuilt":1953,"adt":1747,"conditionCategory":"poor","structurallyDeficient":true,"materialName":"Steel","designTypeName":"Stringer/Multi-beam or Girder","lengthFt":64.0},{"id":"NH-015000630007800","state":"NH","stateName":"New Hampshire","countyFips":"009","facilityCarried":"SCHOOL STREET","featuresIntersected":"AMMONOOSUC RIVER","location":"214 FT FROM NH RTE 112","lat":45.627778,"lon":-72.996389,"lowestRating":4,"yearBuilt":1960,"adt":1702,"conditionCategory":"poor","structurallyDeficient":true,"materialName":"Steel","designTypeName":"Stringer/Multi-beam or Girder","lengthFt":222.1},{"id":"NH-004401700013500","state":"NH","stateName":"New Hampshire","countyFips":"015","facilityCarried":"HANSON ROAD","featuresIntersected":"EXETER RIVER","location":"75FT. NH102","lat":43.621389,"lon":-72.353889,"lowestRating":4,"yearBuilt":1932,"adt":1690,"conditionCategory":"poor","structurallyDeficient":true,"materialName":"Steel","designTypeName":"Stringer/Multi-beam or Girder","lengthFt":30.8},{"id":"NH-011500560005800","state":"NH","stateName":"New Hampshire","countyFips":"005","facilityCarried":"CHESHAM ROAD","featuresIntersected":"MINNEWAWA BROOK","location":"0.3 MI FR DUBLIN TL","lat":43.981667,"lon":-72.324722,"lowestRating":4,"yearBuilt":1939,"adt":1549,"conditionCategory":"poor","structurallyDeficient":true,"materialName":"Concrete Continuous","designTypeName":"Slab","lengthFt":89.9},{"id":"NH-015301090013400","state":"NH","stateName":"New Hampshire","countyFips":"009","facilityCarried":"NH 18","featuresIntersected":"CONNECTICUT RIVER","location":"NH-VT SL","lat":45.263611,"lon":-72.44,"lowestRating":4,"yearBuilt":1934,"adt":1486,"conditionCategory":"poor","structurallyDeficient":true,"materialName":"Steel","designTypeName":"Girder and Floorbeam","lengthFt":533.1},{"id":"NH-026800990012300","state":"NH","stateName":"New Hampshire","countyFips":"013","facilityCarried":"NH127","featuresIntersected":"BLACKWATER RIVER","location":"4.8 MI FROM WARNER TL","lat":44.844167,"lon":-72.001944,"lowestRating":4,"yearBuilt":1941,"adt":1443,"conditionCategory":"poor","structurallyDeficient":true,"materialName":"Concrete Continuous","designTypeName":"Frame","lengthFt":166.0},{"id":"NH-003601770012300","state":"NH","stateName":"New Hampshire","countyFips":"009","facilityCarried":"NH118","featuresIntersected":"INDIAN RIVER","location":"2.3 MI FROM DORCHESTER TL","lat":44.891944,"lon":-73.2975,"lowestRating":4,"yearBuilt":1948,"adt":1408,"conditionCategory":"poor","structurallyDeficient":true,"materialName":"Concrete","designTypeName":"Frame","lengthFt":35.1},{"id":"NH-004700910011800","state":"NH","stateName":"New Hampshire","countyFips":"019","facilityCarried":"PLAINS ROAD","featuresIntersected":"SUGAR RIVER","location":"0.1 MI JCT RTE 12","lat":44.108611,"lon":-73.317222,"lowestRating":4,"yearBuilt":1974,"adt":1356,"conditionCategory":"poor","structurallyDeficient":true,"materialName":"Steel Continuous","designTypeName":"Stringer/Multi-beam or Girder","lengthFt":193.9},{"id":"NH-026302040013600","state":"NH","stateName":"New Hampshire","countyFips":"013","facilityCarried":"NH103","featuresIntersected":"I-89 SB WARNER RIVER","location":"3.6 MI N HOPKINTON T.L.","lat":43.858333,"lon":-72.706667,"lowestRating":4,"yearBuilt":1966,"adt":1345,"conditionCategory":"poor","structurallyDeficient":true,"materialName":"Steel Continuous","designTypeName":"Stringer/Multi-beam or Girder","lengthFt":245.1},{"id":"NH-003501080005800","state":"NH","stateName":"New Hampshire","countyFips":"009","facilityCarried":"US  3","featuresIntersected":"BOG BROOK","location":"1.2 MI FROM PLYMOUTH TL","lat":45.2725,"lon":-72.386389,"lowestRating":4,"yearBuilt":1929,"adt":1326,"conditionCategory":"poor","structurallyDeficient":true,"materialName":"Steel","designTypeName":"Stringer/Multi-beam or Girder","lengthFt":40.0},{"id":"NH-009501620014100","state":"NH","stateName":"New Hampshire","countyFips":"011","facilityCarried":"TIRRELL HILL ROAD","featuresIntersected":"BLACK BROOK","location":"1.9MI Fr Goffstwn Back RD","lat":43.972222,"lon":-72.239444,"lowestRating":4,"yearBuilt":1994,"adt":1273,"conditionCategory":"poor","structurallyDeficient":true,"materialName":"Steel","designTypeName":"Stringer/Multi-beam or Girder","lengthFt":42.0},{"id":"NH-002400990015200","state":"NH","stateName":"New Hampshire","countyFips":"009","facilityCarried":"NH142","featuresIntersected":"AMMONOOSUC RIVER","location":"2.2 MI FROM WHITEFIELD TL","lat":45.331944,"lon":-72.413333,"lowestRating":4,"yearBuilt":1927,"adt":1214,"conditionCategory":"poor","structurallyDeficient":true,"materialName":"Steel","designTypeName":"Truss - Thru","lengthFt":124.0},{"id":"NH-027200890010000","state":"NH","stateName":"New Hampshire","countyFips":"005","facilityCarried":"RIVER ROAD SOUTH","featuresIntersected":"PARTRIDGE BROOK","location":"0.72 MI NH63","lat":43.745278,"lon":-73.901944,"lowestRating":4,"yearBuilt":1937,"adt":1214,"conditionCategory":"poor","structurallyDeficient":true,"materialName":"Wood or Timber","designTypeName":"Slab","lengthFt":147.3},{"id":"NH-015701020009900","state":"NH","stateName":"New Hampshire","countyFips":"009","facilityCarried":"DORCHESTER ROAD","featuresIntersected":"GRANT BROOK","location":"2.1 MI FROM JCT RTE 10","lat":44.038056,"lon":-72.446389,"lowestRating":4,"yearBuilt":1952,"adt":1110,"conditionCategory":"poor","structurallyDeficient":true,"materialName":"Steel","designTypeName":"Stringer/Multi-beam or Girder","lengthFt":41.0},{"id":"NH-002200580005200","state":"NH","stateName":"New Hampshire","countyFips":"009","facilityCarried":"NH 25","featuresIntersected":"OLIVERIAN BROOK","location":"1.0 MI HAVERHILL T.L.","lat":44.990833,"lon":-72.511944,"lowestRating":4,"yearBuilt":1960,"adt":1051,"conditionCategory":"poor","structurallyDeficient":true,"materialName":"Steel","designTypeName":"Stringer/Multi-beam or Girder","lengthFt":54.1},{"id":"NH-001702440013800","state":"NH","stateName":"New Hampshire","countyFips":"003","facilityCarried":"NH 16A","featuresIntersected":"E BR SACO RIVER","location":"1.9 MI CONWAY TL","lat":44.165556,"lon":-72.738611,"lowestRating":4,"yearBuilt":1928,"adt":1041,"conditionCategory":"poor","structurallyDeficient":true,"materialName":"Steel","designTypeName":"Girder and Floorbeam","lengthFt":80.1},{"id":"NH-013600790008000","state":"NH","stateName":"New Hampshire","countyFips":"005","facilityCarried":"WHITCOMB MILLS RD","featuresIntersected":"WHITE BROOK","location":"0.06 MI FR ARCH ST","lat":43.143333,"lon":-73.890556,"lowestRating":4,"yearBuilt":1940,"adt":814,"conditionCategory":"poor","structurallyDeficient":true,"materialName":"Concrete","designTypeName":"Tee Beam","lengthFt":23.0},{"id":"NH-020302170011200","state":"NH","stateName":"New Hampshire","countyFips":"009","facilityCarried":"NH 25A","featuresIntersected":"BRACKETT BROOK","location":"9.9 MI FROM VERMONT SL","lat":44.089167,"lon":-72.552222,"lowestRating":4,"yearBuilt":1929,"adt":805,"conditionCategory":"poor","structurallyDeficient":true,"materialName":"Concrete Continuous","designTypeName":"Slab","lengthFt":40.0},{"id":"NH-020302190011200","state":"NH","stateName":"New Hampshire","countyFips":"009","facilityCarried":"NH 25A","featuresIntersected":"BAKER POND BROOK","location":"10.2 MI FROM VERMONT SL","lat":44.041944,"lon":-72.009167,"lowestRating":4,"yearBuilt":1929,"adt":805,"conditionCategory":"poor","structurallyDeficient":true,"materialName":"Concrete","designTypeName":"Slab","lengthFt":24.0},{"id":"NH-004201520005300","state":"NH","stateName":"New Hampshire","countyFips":"019","facilityCarried":"BRIDGE STREET","featuresIntersected":"NECRR","location":"100 FT FROM NH RTE 12","lat":43.993333,"lon":-73.340556,"lowestRating":4,"yearBuilt":1992,"adt":759,"conditionCategory":"poor","structurallyDeficient":true,"materialName":"Steel","designTypeName":"Stringer/Multi-beam or Girder","lengthFt":71.9},{"id":"NH-008400760013500","state":"NH","stateName":"New Hampshire","countyFips":"017","facilityCarried":"SPRING STREET","featuresIntersected":"COCHECO RIVER","location":"1.38MI RTE 11","lat":44.435278,"lon":-72.424444,"lowestRating":4,"yearBuilt":1926,"adt":759,"conditionCategory":"poor","structurallyDeficient":true,"materialName":"Concrete","designTypeName":"Tee Beam","lengthFt":39.0},{"id":"NH-021300960007900","state":"NH","stateName":"New Hampshire","countyFips":"019","facilityCarried":"STAGE ROAD","featuresIntersected":"BLOW-ME-DOWN BROOK","location":"2.0 MI SE JCT 12A","lat":44.279444,"lon":-73.404444,"lowestRating":4,"yearBuilt":1954,"adt":736,"conditionCategory":"poor","structurallyDeficient":true,"materialName":"Steel","designTypeName":"Stringer/Multi-beam or Girder","lengthFt":73.2},{"id":"NH-012201710006400","state":"NH","stateName":"New Hampshire","countyFips":"011","facilityCarried":"CONTOOCOOK FALLS R","featuresIntersected":"CONTOOCOOK RIVER","location":"0.3 MI. HENNIKER TL","lat":43.438333,"lon":-72.645556,"lowestRating":4,"yearBuilt":1933,"adt":701,"conditionCategory":"poor","structurallyDeficient":true,"materialName":"Steel","designTypeName":"Girder and Floorbeam","lengthFt":224.1},{"id":"NH-017501420008900","state":"NH","stateName":"New Hampshire","countyFips":"011","facilityCarried":"BEAVER BROOK ROAD","featuresIntersected":"BEAVER BROOK","location":"0.4 MI. AMHERST TL","lat":43.576111,"lon":-72.426111,"lowestRating":4,"yearBuilt":1932,"adt":687,"conditionCategory":"poor","structurallyDeficient":true,"materialName":"Concrete","designTypeName":"Slab","lengthFt":29.9},{"id":"NH-028401950009300","state":"NH","stateName":"New Hampshire","countyFips":"009","facilityCarried":"NH175","featuresIntersected":"PEMIGEWASSET RIVER","location":"0.6 MI EAST JCT US 3","lat":45.272222,"lon":-72.989444,"lowestRating":4,"yearBuilt":1976,"adt":672,"conditionCategory":"poor","structurallyDeficient":true,"materialName":"Steel Continuous","designTypeName":"Stringer/Multi-beam or Girder","lengthFt":319.9},{"id":"NH-027901510006200","state":"NH","stateName":"New Hampshire","countyFips":"005","facilityCarried":"SCOTLAND ROAD","featuresIntersected":"ROARING BROOK","location":"0.23MI NH119","lat":43.704444,"lon":-73.110556,"lowestRating":4,"yearBuilt":1955,"adt":598,"conditionCategory":"poor","structurallyDeficient":true,"materialName":"Concrete","designTypeName":"Frame","lengthFt":34.1},{"id":"NH-008700570008300","state":"NH","stateName":"New Hampshire","countyFips":"009","facilityCarried":"LAFAYETTE ROAD","featuresIntersected":"HAM BRANCH","location":"0.12MI. RTE 116","lat":44.495,"lon":-72.406944,"lowestRating":4,"yearBuilt":1920,"adt":574,"conditionCategory":"poor","structurallyDeficient":true,"materialName":"Steel","designTypeName":"Stringer/Multi-beam or Girder","lengthFt":51.8},{"id":"NH-023800990006200","state":"NH","stateName":"New Hampshire","countyFips":"015","facilityCarried":"WHITEHALL ROAD","featuresIntersected":"POWWOW RIVER","location":"0.8 MI FR MASS SL","lat":43.466667,"lon":-72.0775,"lowestRating":4,"yearBuilt":1976,"adt":573,"conditionCategory":"poor","structurallyDeficient":true,"materialName":"Steel","designTypeName":"Stringer/Multi-beam or Girder","lengthFt":33.1},{"id":"NH-001901050005500","state":"NH","stateName":"New Hampshire","countyFips":"011","facilityCarried":"BEALS ROAD","featuresIntersected":"BABOOSIC BROOK","location":"33 FT FR MERRIMACK TL","lat":44.369444,"lon":-72.091944,"lowestRating":4,"yearBuilt":1928,"adt":481,"conditionCategory":"poor","structurallyDeficient":true,"materialName":"Concrete","designTypeName":"Slab","lengthFt":23.0},{"id":"NH-021701910011000","state":"NH","stateName":"New Hampshire","countyFips":"015","facilityCarried":"COAKLEY ROAD","featuresIntersected":"HODGSON BROOK","location":"1 MI. WEST OF BYPASS 1","lat":43.348611,"lon":-72.156944,"lowestRating":4,"yearBuilt":1940,"adt":469,"conditionCategory":"poor","structurallyDeficient":true,"materialName":"Concrete","designTypeName":"Culvert","lengthFt":36.1},{"id":"NH-004401690012200","state":"NH","stateName":"New Hampshire","countyFips":"015","facilityCarried":"SHEPARD HOME ROAD","featuresIntersected":"EXETER RIVER","location":"0.8MI. NH102","lat":44.239722,"lon":-72.473611,"lowestRating":4,"yearBuilt":1986,"adt":446,"conditionCategory":"poor","structurallyDeficient":true,"materialName":"Aluminum/Wrought Iron/Cast Iron","designTypeName":"Culvert","lengthFt":27.9},{"id":"NH-003400650008500","state":"NH","stateName":"New Hampshire","countyFips":"011","facilityCarried":"DUPAW GOULD ROAD","featuresIntersected":"LANCY BROOK","location":"1.4 MI FR MCINTOSH RD","lat":43.534167,"lon":-71.989167,"lowestRating":4,"yearBuilt":1987,"adt":443,"conditionCategory":"poor","structurallyDeficient":true,"materialName":"Aluminum/Wrought Iron/Cast Iron","designTypeName":"Culvert","lengthFt":22.0},{"id":"NH-005001020008300","state":"NH","stateName":"New Hampshire","countyFips":"007","facilityCarried":"CARLETON HILL ROAD","featuresIntersected":"MOHAWK RIVER","location":"0.15 MI SE JCT NH 26","lat":44.996667,"lon":-72.401667,"lowestRating":4,"yearBuilt":1935,"adt":425,"conditionCategory":"poor","structurallyDeficient":true,"materialName":"Concrete","designTypeName":"Tee Beam","lengthFt":56.1},{"id":"NH-022500790009200","state":"NH","stateName":"New Hampshire","countyFips":"009","facilityCarried":"SAND HILL ROAD","featuresIntersected":"BAKER RIVER","location":".06 MI FROM NH RTE 25","lat":45.2225,"lon":-72.016667,"lowestRating":4,"yearBuilt":1928,"adt":402,"conditionCategory":"poor","structurallyDeficient":true,"materialName":"Steel","designTypeName":"Girder and Floorbeam","lengthFt":102.0},{"id":"NH-015500540006500","state":"NH","stateName":"New Hampshire","countyFips":"013","facilityCarried":"WALES BRIDGE ROAD","featuresIntersected":"SOUCOOK RIVER","location":"1.3 MI FROM CONCORD TL","lat":43.564722,"lon":-72.558333,"lowestRating":4,"yearBuilt":1934,"adt":352,"conditionCategory":"poor","structurallyDeficient":true,"materialName":"Concrete","designTypeName":"Frame","lengthFt":146.0},{"id":"NH-000301600010900","state":"NH","stateName":"New Hampshire","countyFips":"009","facilityCarried":"WASHBURN ROAD","featuresIntersected":"PATTEN BROOK","location":"8.11 MI FROM E HILL RD","lat":44.485278,"lon":-72.794722,"lowestRating":4,"yearBuilt":1950,"adt":314,"conditionCategory":"poor","structurallyDeficient":true,"materialName":"Concrete","designTypeName":"Slab","lengthFt":29.9},{"id":"NH-023600750011300","state":"NH","stateName":"New Hampshire","countyFips":"007","facilityCarried":"NORTH ROAD","featuresIntersected":"ANDROSCOGGIN RIVER","location":"0.32 MI N JCT US 2","lat":44.8325,"lon":-72.578889,"lowestRating":4,"yearBuilt":1900,"adt":278,"conditionCategory":"poor","structurallyDeficient":true,"materialName":"Steel","designTypeName":"Stringer/Multi-beam or Girder","lengthFt":182.1},{"id":"NH-011201000004600","state":"NH","stateName":"New Hampshire","countyFips":"011","facilityCarried":"WINDY ROW ROAD","featuresIntersected":"MCDOWELL RESERVOIR","location":"0.6 MI FR PETERBORO TL","lat":43.598611,"lon":-73.030833,"lowestRating":4,"yearBuilt":1950,"adt":243,"conditionCategory":"poor","structurallyDeficient":true,"materialName":"Steel","designTypeName":"Stringer/Multi-beam or Girder","lengthFt":224.1},{"id":"NH-020300800012000","state":"NH","stateName":"New Hampshire","countyFips":"009","facilityCarried":"ARCHERTOWN ROAD","featuresIntersected":"JACOBS BROOK","location":".3 Mi.From NH10","lat":44.454722,"lon":-72.724167,"lowestRating":4,"yearBuilt":1930,"adt":239,"conditionCategory":"poor","structurallyDeficient":true,"materialName":"Steel","designTypeName":"Stringer/Multi-beam or Girder","lengthFt":51.8},{"id":"NH-021001340005700","state":"NH","stateName":"New Hampshire","countyFips":"007","facilityCarried":"HILL ROAD","featuresIntersected":"PERRY STREAM","location":"0.2 MI FROM US RTE 3","lat":45.174167,"lon":-72.638333,"lowestRating":4,"yearBuilt":1860,"adt":220,"conditionCategory":"poor","structurallyDeficient":true,"materialName":"Steel","designTypeName":"Stringer/Multi-beam or Girder","lengthFt":78.1},{"id":"NH-026901600014800","state":"NH","stateName":"New Hampshire","countyFips":"009","facilityCarried":"EASTSIDE ROAD","featuresIntersected":"MARTINS BROOK","location":"0.77MI WARREN TL","lat":45.448889,"lon":-72.015278,"lowestRating":4,"yearBuilt":1940,"adt":215,"conditionCategory":"poor","structurallyDeficient":true,"materialName":"Steel","designTypeName":"Stringer/Multi-beam or Girder","lengthFt":27.9},{"id":"NH-003701510012300","state":"NH","stateName":"New Hampshire","countyFips":"015","facilityCarried":"OLD DEERFIELD ROAD","featuresIntersected":"BROOK","location":"185 FT FROM NH RTE 43","lat":43.803611,"lon":-72.469167,"lowestRating":4,"yearBuilt":1920,"adt":190,"conditionCategory":"poor","structurallyDeficient":true,"materialName":"Masonry","designTypeName":"Slab","lengthFt":24.0},{"id":"NH-023800690006600","state":"NH","stateName":"New Hampshire","countyFips":"015","facilityCarried":"HILLDALE AVE","featuresIntersected":"POWWOW RIVER","location":"0.8 MI FR NEWTON TL","lat":43.794722,"lon":-71.768056,"lowestRating":4,"yearBuilt":1920,"adt":187,"conditionCategory":"poor","structurallyDeficient":true,"materialName":"Steel","designTypeName":"Stringer/Multi-beam or Girder","lengthFt":30.8},{"id":"NH-005501750014300","state":"NH","stateName":"New Hampshire","countyFips":"019","facilityCarried":"LEAVITT HILL ROAD","featuresIntersected":"BLOW-ME-DOWN-BROOK","location":"1.4 MI FR CORBIN PARK","lat":44.856944,"lon":-72.995833,"lowestRating":4,"yearBuilt":1950,"adt":110,"conditionCategory":"poor","structurallyDeficient":true,"materialName":"Steel","designTypeName":"Stringer/Multi-beam or Girder","lengthFt":23.0},{"id":"NH-000202130009400","state":"NH","stateName":"New Hampshire","countyFips":"003","facilityCarried":"DRAKE HILL ROAD","featuresIntersected":"MEADOW BROOK","location":"SE NH 16","lat":44.889722,"lon":-71.989167,"lowestRating":4,"yearBuilt":1930,"adt":107,"conditionCategory":"poor","structurallyDeficient":true,"materialName":"Concrete","designTypeName":"Slab","lengthFt":24.0},{"id":"NH-092205000001063","state":"NH","stateName":"New Hampshire","countyFips":"003","facilityCarried":"FDR 17","featuresIntersected":"BURNT KNOLL","location":"MAP 24","lat":44.375556,"lon":-72.083333,"lowestRating":4,"yearBuilt":1975,"adt":100,"conditionCategory":"poor","structurallyDeficient":true,"materialName":"Wood or Timber","designTypeName":"Stringer/Multi-beam or Girder","lengthFt":24.0},{"id":"NH-000301360013100","state":"NH","stateName":"New Hampshire","countyFips":"009","facilityCarried":"COLE HILL ROAD","featuresIntersected":"FOWLER RIVER","location":"0.5 MI FROM SHIN VALLEY","lat":45.181111,"lon":-73.146667,"lowestRating":4,"yearBuilt":1930,"adt":90,"conditionCategory":"poor","structurallyDeficient":true,"materialName":"Steel","designTypeName":"Stringer/Multi-beam or Girder","lengthFt":43.0},{"id":"NH-000800830009800","state":"NH","stateName":"New Hampshire","countyFips":"013","facilityCarried":"BRIDGE ROAD","featuresIntersected":"BLACKWATER RIVER","location":"0.1 MI S NH 11","lat":43.598333,"lon":-72.115556,"lowestRating":4,"yearBuilt":1882,"adt":90,"conditionCategory":"poor","structurallyDeficient":true,"materialName":"Wood or Timber","designTypeName":"Truss - Thru","lengthFt":65.0},{"id":"NH-000802160013900","state":"NH","stateName":"New Hampshire","countyFips":"013","facilityCarried":"LAST STREET","featuresIntersected":"SUCKER BROOK","location":"0.03 MI NH 11","lat":43.540833,"lon":-72.361389,"lowestRating":4,"yearBuilt":1936,"adt":90,"conditionCategory":"poor","structurallyDeficient":true,"materialName":"Wood or Timber","designTypeName":"Stringer/Multi-beam or Girder","lengthFt":26.6},{"id":"NH-000901130014300","state":"NH","stateName":"New Hampshire","countyFips":"011","facilityCarried":"LIBERTY FARM ROAD","featuresIntersected":"NORTH BRANCH RIVER","location":"0.13MI. NH9","lat":44.2725,"lon":-73.040833,"lowestRating":4,"yearBuilt":1991,"adt":90,"conditionCategory":"poor","structurallyDeficient":true,"materialName":"Prestressed Concrete","designTypeName":"Slab","lengthFt":32.2},{"id":"NH-003001560017200","state":"NH","stateName":"New Hampshire","countyFips":"009","facilityCarried":"RIVER ROAD","featuresIntersected":"CLAY BROOK","location":".23 MI  S. PLYMOUTH T.L.","lat":44.817778,"lon":-73.069722,"lowestRating":4,"yearBuilt":1900,"adt":90,"conditionCategory":"poor","structurallyDeficient":true,"materialName":"Concrete Continuous","designTypeName":"Culvert","lengthFt":21.0},{"id":"NH-003501700007500","state":"NH","stateName":"New Hampshire","countyFips":"009","facilityCarried":"PERCH POND ROAD","featuresIntersected":"RYAN BROOK","location":"1.9 MI FR HOLDERNESS TL","lat":44.769444,"lon":-73.010556,"lowestRating":4,"yearBuilt":1940,"adt":90,"conditionCategory":"poor","structurallyDeficient":true,"materialName":"Concrete","designTypeName":"Slab","lengthFt":25.9},{"id":"NH-008601190005900","state":"NH","stateName":"New Hampshire","countyFips":"011","facilityCarried":"CRESSY HILL ROAD","featuresIntersected":"RAND BROOK","location":"0.4MI. LYNDEBORO TL","lat":43.740556,"lon":-72.411667,"lowestRating":4,"yearBuilt":1940,"adt":90,"conditionCategory":"poor","structurallyDeficient":true,"materialName":"Steel","designTypeName":"Stringer/Multi-beam or Girder","lengthFt":30.8},{"id":"NH-011500610006000","state":"NH","stateName":"New Hampshire","countyFips":"005","facilityCarried":"SOUTH ROAD","featuresIntersected":"MINNEWAWA BROOK","location":"0.9 MI FR DUBLIN TL","lat":44.043889,"lon":-73.3475,"lowestRating":4,"yearBuilt":1950,"adt":90,"conditionCategory":"poor","structurallyDeficient":true,"materialName":"Prestressed Concrete","designTypeName":"Tee Beam","lengthFt":30.8},{"id":"NH-012200880009300","state":"NH","stateName":"New Hampshire","countyFips":"011","facilityCarried":"GLEASON FALLS ROAD","featuresIntersected":"BEARDS BROOK","location":"2.6 MILE FR NH RTE 9","lat":44.299444,"lon":-72.889722,"lowestRating":4,"yearBuilt":1900,"adt":90,"conditionCategory":"poor","structurallyDeficient":true,"materialName":"Masonry","designTypeName":"Culvert","lengthFt":34.1},{"id":"NH-012201000007000","state":"NH","stateName":"New Hampshire","countyFips":"011","facilityCarried":"JONES ROAD","featuresIntersected":"BEARDS BROOK","location":"1.3 MI FR NH RTE 31","lat":44.476389,"lon":-73.071944,"lowestRating":4,"yearBuilt":1900,"adt":90,"conditionCategory":"poor","structurallyDeficient":true,"materialName":"Masonry","designTypeName":"Culvert","lengthFt":44.9},{"id":"NH-015000880012500","state":"NH","stateName":"New Hampshire","countyFips":"009","facilityCarried":"PLAINS ROAD","featuresIntersected":"MILL BROOK","location":"1.0 MI FROM LYMAN TL","lat":45.367222,"lon":-72.378333,"lowestRating":4,"yearBuilt":1975,"adt":90,"conditionCategory":"poor","structurallyDeficient":true,"materialName":"Steel","designTypeName":"Stringer/Multi-beam or Girder","lengthFt":26.9},{"id":"NH-017002540003800","state":"NH","stateName":"New Hampshire","countyFips":"007","facilityCarried":"STEARNS BROOK ROAD","featuresIntersected":"STEARNS BROOK","location":"0.4 MI FR SUCCESS TL","lat":46.018889,"lon":-72.187222,"lowestRating":4,"yearBuilt":1950,"adt":90,"conditionCategory":"poor","structurallyDeficient":true,"materialName":"Steel","designTypeName":"Stringer/Multi-beam or Girder","lengthFt":39.0},{"id":"NH-021000990003400","state":"NH","stateName":"New Hampshire","countyFips":"007","facilityCarried":"MURPHY DAM ROAD","featuresIntersected":"DAM SPILLWAY","location":"0.2 MI FROM US RT 3","lat":46.601389,"lon":-72.963889,"lowestRating":4,"yearBuilt":1938,"adt":90,"conditionCategory":"poor","structurallyDeficient":true,"materialName":"Steel","designTypeName":"Girder and Floorbeam","lengthFt":38.1},{"id":"NH-023101180008900","state":"NH","stateName":"New Hampshire","countyFips":"001","facilityCarried":"BROOK ROAD","featuresIntersected":"SALMON BROOK","location":"0.1 MI FROM HALE RD","lat":44.938611,"lon":-72.090833,"lowestRating":4,"yearBuilt":1900,"adt":90,"conditionCategory":"poor","structurallyDeficient":true,"materialName":"Concrete","designTypeName":"Slab","lengthFt":35.1},{"id":"NH-024552020012800","state":"NH","stateName":"New Hampshire","countyFips":"009","facilityCarried":"CRANE HILL ROAD","featuresIntersected":"GALE RIVER","location":"TOWN RD","lat":45.639722,"lon":-72.405833,"lowestRating":4,"yearBuilt":1928,"adt":90,"conditionCategory":"poor","structurallyDeficient":true,"materialName":"Steel","designTypeName":"Truss - Thru","lengthFt":107.9},{"id":"NH-005801780005700","state":"NH","stateName":"New Hampshire","countyFips":"013","facilityCarried":"WALKER BROOK ROAD","featuresIntersected":"FRAZIER BROOK","location":"0.5 MI FR WILMOT T/L","lat":43.818889,"lon":-72.936111,"lowestRating":4,"yearBuilt":1950,"adt":74,"conditionCategory":"poor","structurallyDeficient":true,"materialName":"Steel","designTypeName":"Stringer/Multi-beam or Girder","lengthFt":27.9},{"id":"NH-005802240007400","state":"NH","stateName":"New Hampshire","countyFips":"013","facilityCarried":"JACK WELLS ROAD","featuresIntersected":"FRAZIER BROOK","location":"0.1 MI FR WILMOT T/L","lat":43.829167,"lon":-73.087778,"lowestRating":4,"yearBuilt":1950,"adt":72,"conditionCategory":"poor","structurallyDeficient":true,"materialName":"Steel","designTypeName":"Stringer/Multi-beam or Girder","lengthFt":24.9},{"id":"NH-007200840005600","state":"NH","stateName":"New Hampshire","countyFips":"009","facilityCarried":"TUNNEL BROOK ROAD","featuresIntersected":"WILD AMMONOOSUC RIVER","location":"0.6 MI N. BENTON T.L.","lat":44.939167,"lon":-72.824722,"lowestRating":4,"yearBuilt":1900,"adt":57,"conditionCategory":"poor","structurallyDeficient":true,"materialName":"Steel","designTypeName":"Stringer/Multi-beam or Girder","lengthFt":35.1},{"id":"NH-092201000001014","state":"NH","stateName":"New Hampshire","countyFips":"009","facilityCarried":"FDR 304","featuresIntersected":"LITTLE RIVER","location":"MAP 10","lat":44.707222,"lon":-73.008333,"lowestRating":4,"yearBuilt":1975,"adt":50,"conditionCategory":"poor","structurallyDeficient":true,"materialName":"Steel","designTypeName":"Stringer/Multi-beam or Girder","lengthFt":75.1},{"id":"NH-092203000001031","state":"NH","stateName":"New Hampshire","countyFips":"007","facilityCarried":"FDR 12","featuresIntersected":"BURNT MILL BROOK","location":"MAP 14","lat":45.795556,"lon":-72.09,"lowestRating":4,"yearBuilt":1947,"adt":50,"conditionCategory":"poor","structurallyDeficient":true,"materialName":"Concrete","designTypeName":"Tee Beam","lengthFt":31.2},{"id":"NH-092204000001046","state":"NH","stateName":"New Hampshire","countyFips":"009","facilityCarried":"NFSR XH22","featuresIntersected":"HUBBARD BROOK","location":"MAP 36","lat":44.076111,"lon":-72.925556,"lowestRating":4,"yearBuilt":1961,"adt":50,"conditionCategory":"poor","structurallyDeficient":true,"materialName":"Wood or Timber","designTypeName":"Stringer/Multi-beam or Girder","lengthFt":36.1},{"id":"NH-092204000001050","state":"NH","stateName":"New Hampshire","countyFips":"009","facilityCarried":"FDR 29","featuresIntersected":"WALKER BROOK","location":"MAP 29","lat":45.291944,"lon":-73.228611,"lowestRating":4,"yearBuilt":1975,"adt":50,"conditionCategory":"poor","structurallyDeficient":true,"materialName":"Wood or Timber","designTypeName":"Stringer/Multi-beam or Girder","lengthFt":32.2},{"id":"NH-CEPNEDNH3310009","state":"NH","stateName":"New Hampshire","countyFips":"005","facilityCarried":"REC AREA ACCESS RD","featuresIntersected":"OTTER BROOK","location":"8.05 KM N OF KEENE","lat":44.501389,"lon":-72.28,"lowestRating":4,"yearBuilt":1967,"adt":50,"conditionCategory":"poor","structurallyDeficient":true,"materialName":"Prestressed Concrete","designTypeName":"Slab","lengthFt":44.6},{"id":"NH-CEPNEDNH3310010","state":"NH","stateName":"New Hampshire","countyFips":"005","facilityCarried":"REC AREA ACCESS RD","featuresIntersected":"OTTER BROOK","location":"8.05 KM N OF KEENE","lat":44.600833,"lon":-73.453333,"lowestRating":4,"yearBuilt":1967,"adt":50,"conditionCategory":"poor","structurallyDeficient":true,"materialName":"Prestressed Concrete","designTypeName":"Slab","lengthFt":45.3},{"id":"NH-023601140010400","state":"NH","stateName":"New Hampshire","countyFips":"007","facilityCarried":"VILLAGE ROAD","featuresIntersected":"CLEMENT BROOK","location":"0.5 MI. US2","lat":45.969444,"lon":-71.779444,"lowestRating":4,"yearBuilt":1929,"adt":47,"conditionCategory":"poor","structurallyDeficient":true,"materialName":"Concrete Continuous","designTypeName":"Slab","lengthFt":44.9},{"id":"NH-025201680007000","state":"NH","stateName":"New Hampshire","countyFips":"003","facilityCarried":"MOUNTAIN ROAD","featuresIntersected":"COLD BROOK","location":"0.7 MI. RTE.25","lat":45.416111,"lon":-72.640833,"lowestRating":4,"yearBuilt":1900,"adt":41,"conditionCategory":"poor","structurallyDeficient":true,"materialName":"Steel","designTypeName":"Stringer/Multi-beam or Girder","lengthFt":38.1},{"id":"NH-027700800014500","state":"NH","stateName":"New Hampshire","countyFips":"011","facilityCarried":"FRYE MILL ROAD","featuresIntersected":"BURTON POND OUTLET","location":"1.2Mi.Fr.Issac Frye Hwy.","lat":43.509444,"lon":-72.273333,"lowestRating":4,"yearBuilt":1920,"adt":35,"conditionCategory":"poor","structurallyDeficient":true,"materialName":"Concrete","designTypeName":"Slab","lengthFt":27.9},{"id":"NH-027900630010100","state":"NH","stateName":"New Hampshire","countyFips":"005","facilityCarried":"RECYCLE WAY","featuresIntersected":"ASHUELOT RIVER","location":"0.04MI NH119","lat":43.211389,"lon":-73.103611,"lowestRating":4,"yearBuilt":1947,"adt":25,"conditionCategory":"poor","structurallyDeficient":true,"materialName":"Steel","designTypeName":"Stringer/Multi-beam or Girder","lengthFt":131.9},{"id":"NH-008401420005000","state":"NH","stateName":"New Hampshire","countyFips":"017","facilityCarried":"SHEEPBORO ROAD","featuresIntersected":"BERRYS RIVER","location":"1.22 MI ROCHESTER TL","lat":44.964444,"lon":-72.574167,"lowestRating":4,"yearBuilt":1983,"adt":20,"conditionCategory":"poor","structurallyDeficient":true,"materialName":"Steel","designTypeName":"Stringer/Multi-beam or Girder","lengthFt":21.7},{"id":"NH-092205000019094","state":"NH","stateName":"New Hampshire","countyFips":"003","facilityCarried":"NO DATA ENTERED","featuresIntersected":"NO DATA ENTERED","location":"NO DATA ENTERED","lat":44.85,"lon":-71.3,"lowestRating":4,"yearBuilt":1990,"adt":10,"conditionCategory":"poor","structurallyDeficient":true,"materialName":"Wood or Timber","designTypeName":"Stringer/Multi-beam or Girder","lengthFt":26.6},{"id":"NH-020950820008700","state":"NH","stateName":"New Hampshire","countyFips":"007","facilityCarried":"OLD NH 16","featuresIntersected":"THOMPSON BROOK","location":"0.2 MI EAST JCT NH 16","lat":44.364722,"lon":-71.393889,"lowestRating":4,"yearBuilt":1931,"adt":5,"conditionCategory":"poor","structurallyDeficient":true,"materialName":"Steel","designTypeName":"Stringer/Multi-beam or Girder","lengthFt":38.4}],"mostTrafficked":[{"id":"NH-017701220007300","state":"NH","stateName":"New Hampshire","countyFips":"011","facilityCarried":"FEE TPK N&S RAMPS","featuresIntersected":"SALMON BROOK","location":"3.3 MI N MASS SL","lat":44.373889,"lon":-72.006389,"adt":125991,"yearBuilt":1955,"lowestRating":7,"conditionCategory":"good","structurallyDeficient":false,"materialName":"Concrete","designTypeName":"Culvert","lengthFt":2.0},{"id":"NH-011101150015700","state":"NH","stateName":"New Hampshire","countyFips":"015","facilityCarried":"I-95","featuresIntersected":"ACCESS ROAD","location":".3 MI FROM JCT RT 101","lat":43.176667,"lon":-71.685833,"adt":84486,"yearBuilt":1950,"lowestRating":5,"conditionCategory":"fair","structurallyDeficient":false,"materialName":"Concrete","designTypeName":"Frame","lengthFt":3.5},{"id":"NH-012800710013400","state":"NH","stateName":"New Hampshire","countyFips":"013","facilityCarried":"I-93 FEE TPK RAMP","featuresIntersected":"HACKETT HILL ROAD","location":"2.5 MI N. MANCHESTER T.L","lat":44.711667,"lon":-72.120833,"adt":81752,"yearBuilt":1978,"lowestRating":6,"conditionCategory":"fair","structurallyDeficient":false,"materialName":"Steel","designTypeName":"Stringer/Multi-beam or Girder","lengthFt":6.9},{"id":"NH-012800710011400","state":"NH","stateName":"New Hampshire","countyFips":"013","facilityCarried":"I-93 FEE TPK","featuresIntersected":"CROSS ROAD","location":"2.2 MI NO. MANCHESTER TL","lat":43.311111,"lon":-71.974722,"adt":80184,"yearBuilt":1956,"lowestRating":5,"conditionCategory":"fair","structurallyDeficient":false,"materialName":"Concrete","designTypeName":"Frame","lengthFt":3.3},{"id":"NH-016801130008900","state":"NH","stateName":"New Hampshire","countyFips":"011","facilityCarried":"FEE TPK","featuresIntersected":"GREELEY STREET","location":"AT MERRIMACK INTERCHANGE","lat":43.409444,"lon":-72.606667,"adt":76308,"yearBuilt":1993,"lowestRating":7,"conditionCategory":"good","structurallyDeficient":false,"materialName":"Steel","designTypeName":"Stringer/Multi-beam or Girder","lengthFt":11.1},{"id":"NH-002701580013700","state":"NH","stateName":"New Hampshire","countyFips":"013","facilityCarried":"I-93 FEE TPK","featuresIntersected":"DOW ROAD","location":"1.7 MI JCT I-89","lat":43.556111,"lon":-72.210278,"adt":75591,"yearBuilt":1957,"lowestRating":5,"conditionCategory":"fair","structurallyDeficient":false,"materialName":"Concrete","designTypeName":"Culvert","lengthFt":3.0},{"id":"NH-002701680012000","state":"NH","stateName":"New Hampshire","countyFips":"013","facilityCarried":"I-93 FEE TPK","featuresIntersected":"ROBINSON ROAD","location":"2.6 MI JCT RT 89","lat":44.1125,"lon":-72.971944,"adt":75591,"yearBuilt":1957,"lowestRating":5,"conditionCategory":"fair","structurallyDeficient":false,"materialName":"Concrete","designTypeName":"Frame","lengthFt":3.3},{"id":"NH-012800710013800","state":"NH","stateName":"New Hampshire","countyFips":"013","facilityCarried":"I-93 FEE TPK","featuresIntersected":"RAMP A-B","location":"2.7 MI NO MANCHESTER TL","lat":43.377778,"lon":-72.193611,"adt":75522,"yearBuilt":1957,"lowestRating":5,"conditionCategory":"fair","structurallyDeficient":false,"materialName":"Concrete","designTypeName":"Frame","lengthFt":4.7},{"id":"NH-021702220012100","state":"NH","stateName":"New Hampshire","countyFips":"015","facilityCarried":"I-95","featuresIntersected":"MAPLEWOOD AVENUE","location":".6 MI FROM JCT NH 16","lat":44.512778,"lon":-71.584722,"adt":74746,"yearBuilt":1970,"lowestRating":6,"conditionCategory":"fair","structurallyDeficient":false,"materialName":"Concrete","designTypeName":"Frame","lengthFt":7.2},{"id":"NH-005201840010300","state":"NH","stateName":"New Hampshire","countyFips":"013","facilityCarried":"I-93 FEE TPK","featuresIntersected":"US  3 MANCHESTER STREET","location":"1.2 MI NO OF JCT RT 3-A","lat":44.196944,"lon":-72.436389,"adt":73528,"yearBuilt":2000,"lowestRating":7,"conditionCategory":"good","structurallyDeficient":false,"materialName":"Steel","designTypeName":"Stringer/Multi-beam or Girder","lengthFt":24.1}]}