{"total":26729,"good":16319,"fair":9143,"poor":1267,"structurallyDeficient":1267,"goodPct":61.1,"fairPct":34.2,"poorPct":4.7,"sdPct":4.7,"materials":{"Steel":11035,"Prestressed Concrete":8535,"Concrete":6874,"Wood/Timber":117,"Metal (Other)":94,"Masonry":54,"Other":20},"designTypes":{"Stringer/Multi-beam or Girder":10305,"Box Beam - Multiple":8587,"Slab":3511,"Culvert":1826,"Truss - Thru":930,"Frame":683,"Tee Beam":299,"Arch - Deck":261,"Girder and Floorbeam":232,"Box Beam - Single/Spread":32,"Arch - Thru":17,"Truss - Deck":14,"Cable-Stayed":9,"Other":6,"Movable - Bascule":5,"Movable - Lift":5,"Suspension":4,"Segmental Box Girder":2,"Movable - Swing":1},"ageDistribution":{"41-60 years":7002,"21-40 years":7422,"61-80 years":4496,"0-20 years":4940,"80+ years":2869},"owners":{"County Highway Agency":14507,"State Highway Agency":10201,"City/Municipal":1381,"State Toll Authority":439,"Local Park/Forest":63,"State Park/Forest":60,"Private":23,"Railroad":18,"Other Local":13,"Unknown":10,"Other State":6,"National Park Service":4,"Town/Township":2,"Corps of Engineers":2},"avgAdt":6484,"totalDailyCrossings":173192290,"avgYearBuilt":1977,"oldestYear":1828,"newestYear":2024,"avgLengthFt":12.2,"ratingDistribution":{"0":9,"1":17,"2":35,"3":226,"4":980,"5":2770,"6":6373,"7":8432,"8":5640,"9":2247},"state":"OH","stateName":"Ohio","countyCount":88,"cityCount":1931,"topCounties":[{"fips":"049","total":922,"poor":18,"poorPct":2.0,"avgAdt":28210},{"fips":"035","total":871,"poor":84,"poorPct":9.6,"avgAdt":24996},{"fips":"061","total":783,"poor":23,"poorPct":2.9,"avgAdt":21785},{"fips":"113","total":632,"poor":17,"poorPct":2.7,"avgAdt":16912},{"fips":"153","total":563,"poor":13,"poorPct":2.3,"avgAdt":18132},{"fips":"173","total":508,"poor":22,"poorPct":4.3,"avgAdt":5714},{"fips":"037","total":463,"poor":2,"poorPct":0.4,"avgAdt":993},{"fips":"089","total":439,"poor":34,"poorPct":7.7,"avgAdt":5136},{"fips":"095","total":418,"poor":8,"poorPct":1.9,"avgAdt":14612},{"fips":"151","total":415,"poor":23,"poorPct":5.5,"avgAdt":9992},{"fips":"169","total":391,"poor":27,"poorPct":6.9,"avgAdt":2921},{"fips":"155","total":383,"poor":39,"poorPct":10.2,"avgAdt":6056},{"fips":"017","total":377,"poor":18,"poorPct":4.8,"avgAdt":7537},{"fips":"145","total":376,"poor":19,"poorPct":5.1,"avgAdt":2465},{"fips":"003","total":367,"poor":36,"poorPct":9.8,"avgAdt":3116},{"fips":"093","total":366,"poor":20,"poorPct":5.5,"avgAdt":9814},{"fips":"119","total":363,"poor":36,"poorPct":9.9,"avgAdt":4062},{"fips":"063","total":357,"poor":5,"poorPct":1.4,"avgAdt":3285},{"fips":"135","total":357,"poor":39,"poorPct":10.9,"avgAdt":1795},{"fips":"139","total":356,"poor":22,"poorPct":6.2,"avgAdt":4550}],"worstBridges":[{"id":"OH-8332568","state":"OH","stateName":"Ohio","countyFips":"165","facilityCarried":"COLD SPRINGS ROAD","featuresIntersected":"TRIB L. MIAMI R (CLOSED)","location":"0.67 mi E of TR 83","lat":40.176111,"lon":-84.5,"lowestRating":0,"yearBuilt":1910,"adt":336,"conditionCategory":"poor","structurallyDeficient":true,"materialName":"Masonry","designTypeName":"Culvert","lengthFt":24.9},{"id":"OH-0760002","state":"OH","stateName":"Ohio","countyFips":"013","facilityCarried":"REDDINGTON HILL RD","featuresIntersected":"TRAIL RUN","location":"300 FT S OF SR331","lat":41.275,"lon":-81.373889,"lowestRating":0,"yearBuilt":1910,"adt":200,"conditionCategory":"poor","structurallyDeficient":true,"materialName":"Wood or Timber","designTypeName":"Stringer/Multi-beam or Girder","lengthFt":42.7},{"id":"OH-5931665","state":"OH","stateName":"Ohio","countyFips":"117","facilityCarried":"CR125","featuresIntersected":"CLOSED","location":".10 MI.E.OF INT.OF SR42","lat":41.446111,"lon":-83.953889,"lowestRating":0,"yearBuilt":1888,"adt":150,"conditionCategory":"poor","structurallyDeficient":true,"materialName":"Aluminum/Wrought Iron/Cast Iron","designTypeName":"Truss - Thru","lengthFt":90.9},{"id":"OH-5060524","state":"OH","stateName":"Ohio","countyFips":"099","facilityCarried":"WEST AVENUE","featuresIntersected":"CLOSED (MAHONING RIVER)","location":"0.2 MI. N. OF MAHONING AV","lat":41.573889,"lon":-82.038056,"lowestRating":0,"yearBuilt":1929,"adt":120,"conditionCategory":"poor","structurallyDeficient":true,"materialName":"Steel","designTypeName":"Truss - Thru","lengthFt":286.1},{"id":"OH-3035077","state":"OH","stateName":"Ohio","countyFips":"059","facilityCarried":"TOWNSHIP RD 9435","featuresIntersected":"STREAM","location":".2 MI S OF STATE HWY 265","lat":41.328056,"lon":-82.055,"lowestRating":0,"yearBuilt":1930,"adt":96,"conditionCategory":"poor","structurallyDeficient":true,"materialName":"Steel","designTypeName":"Stringer/Multi-beam or Girder","lengthFt":36.1},{"id":"OH-6334245","state":"OH","stateName":"Ohio","countyFips":"125","facilityCarried":"TOWNSHIP ROAD 99","featuresIntersected":"GORDON CREEK","location":"0.1 MI N OF JCT C230","lat":42.566944,"lon":-85.766944,"lowestRating":0,"yearBuilt":1895,"adt":30,"conditionCategory":"poor","structurallyDeficient":true,"materialName":"Steel","designTypeName":"Truss - Thru","lengthFt":49.9},{"id":"OH-3530876","state":"OH","stateName":"Ohio","countyFips":"069","facilityCarried":"Twp. Rd. H1","featuresIntersected":"BEAVER CREEK (CLOSED)","location":"0.1 mi. west of Rd. 2","lat":42.266944,"lon":-84.371944,"lowestRating":0,"yearBuilt":1925,"adt":20,"conditionCategory":"poor","structurallyDeficient":true,"materialName":"Steel","designTypeName":"Stringer/Multi-beam or Girder","lengthFt":30.8},{"id":"OH-3532755","state":"OH","stateName":"Ohio","countyFips":"069","facilityCarried":"Twp. Rd. 8C","featuresIntersected":"1157 N TURKEY FOOT(CLOSE","location":"0.20 mi. north of CR 424","lat":41.556111,"lon":-85.156111,"lowestRating":0,"yearBuilt":1900,"adt":10,"conditionCategory":"poor","structurallyDeficient":true,"materialName":"Steel","designTypeName":"Other","lengthFt":62.0},{"id":"OH-3533530","state":"OH","stateName":"Ohio","countyFips":"069","facilityCarried":"Twp. Rd. 16B","featuresIntersected":"DITCH 1179 (CLOSED)","location":"0.05 mi. south of Rd. N","lat":41.85,"lon":-85.443889,"lowestRating":0,"yearBuilt":1916,"adt":10,"conditionCategory":"poor","structurallyDeficient":true,"materialName":"Steel","designTypeName":"Other","lengthFt":35.1},{"id":"OH-1330004","state":"OH","stateName":"Ohio","countyFips":"025","facilityCarried":"Stonelick Williams","featuresIntersected":"STONELICK CREEK","location":"Stonelick Williams Corner","lat":40.261111,"lon":-84.485,"lowestRating":1,"yearBuilt":1904,"adt":870,"conditionCategory":"poor","structurallyDeficient":true,"materialName":"Steel","designTypeName":"Truss - Thru","lengthFt":137.1},{"id":"OH-5930111","state":"OH","stateName":"Ohio","countyFips":"117","facilityCarried":"CR156","featuresIntersected":"CLOSED","location":".4 MI.N.INT.SR746 & CR156","lat":41.45,"lon":-83.116944,"lowestRating":1,"yearBuilt":1930,"adt":600,"conditionCategory":"poor","structurallyDeficient":true,"materialName":"Concrete","designTypeName":"Tee Beam","lengthFt":28.9},{"id":"OH-1866389","state":"OH","stateName":"Ohio","countyFips":"035","facilityCarried":"STONES LEVEE","featuresIntersected":"B&O RAILROAD - CLOSED","location":"E OFF W 3 ST (U)EAGLE AVE","lat":42.535,"lon":-82.301944,"lowestRating":1,"yearBuilt":1908,"adt":500,"conditionCategory":"poor","structurallyDeficient":true,"materialName":"Steel","designTypeName":"Other","lengthFt":126.0},{"id":"OH-3930610","state":"OH","stateName":"Ohio","countyFips":"077","facilityCarried":"SANDHILL RD 040","featuresIntersected":"SANDHILL / FRINK RUN","location":"0.1 MI S OF EVERINGIN RD","lat":41.258056,"lon":-83.008056,"lowestRating":1,"yearBuilt":1944,"adt":361,"conditionCategory":"poor","structurallyDeficient":true,"materialName":"Steel","designTypeName":"Truss - Thru","lengthFt":131.9},{"id":"OH-5931134","state":"OH","stateName":"Ohio","countyFips":"117","facilityCarried":"TR122","featuresIntersected":"CLOSED","location":".6 MI. E INT.CR20 & TR122","lat":40.596944,"lon":-83.0,"lowestRating":1,"yearBuilt":1900,"adt":250,"conditionCategory":"poor","structurallyDeficient":true,"materialName":"Aluminum/Wrought Iron/Cast Iron","designTypeName":"Truss - Thru","lengthFt":52.2},{"id":"OH-5930529","state":"OH","stateName":"Ohio","countyFips":"117","facilityCarried":"CR149","featuresIntersected":"WHETSTONE CREEK-CLOSED","location":".7 MI.E.INT.TR152 & CR149","lat":40.491944,"lon":-83.098056,"lowestRating":1,"yearBuilt":1915,"adt":161,"conditionCategory":"poor","structurallyDeficient":true,"materialName":"Aluminum/Wrought Iron/Cast Iron","designTypeName":"Truss - Thru","lengthFt":127.0},{"id":"OH-5930197","state":"OH","stateName":"Ohio","countyFips":"117","facilityCarried":"TR127","featuresIntersected":"CLOSED","location":".7 MI.E.INT.TR126 & TR127","lat":41.366944,"lon":-83.666944,"lowestRating":1,"yearBuilt":1900,"adt":150,"conditionCategory":"poor","structurallyDeficient":true,"materialName":"Aluminum/Wrought Iron/Cast Iron","designTypeName":"Truss - Thru","lengthFt":104.0},{"id":"OH-1877003","state":"OH","stateName":"Ohio","countyFips":"035","facilityCarried":"GREEN HURST DRIVE","featuresIntersected":"MILL CREEK","location":"0.17 MI N OF","lat":42.121944,"lon":-82.293889,"lowestRating":1,"yearBuilt":1939,"adt":100,"conditionCategory":"poor","structurallyDeficient":true,"materialName":"Concrete","designTypeName":"Tee Beam","lengthFt":33.1},{"id":"OH-4460057","state":"OH","stateName":"Ohio","countyFips":"087","facilityCarried":"NORTH 5TH STREET","featuresIntersected":"STORMS CREEK","location":"0.15 MI NORTH JCT ELM ST","lat":39.976111,"lon":-83.691111,"lowestRating":1,"yearBuilt":1900,"adt":100,"conditionCategory":"poor","structurallyDeficient":true,"materialName":"Steel","designTypeName":"Truss - Thru","lengthFt":127.0},{"id":"OH-5930839","state":"OH","stateName":"Ohio","countyFips":"117","facilityCarried":"TR62","featuresIntersected":"FLAT RUN","location":".20 MILES N.OF INT. CR59","lat":40.643889,"lon":-83.851111,"lowestRating":1,"yearBuilt":1883,"adt":100,"conditionCategory":"poor","structurallyDeficient":true,"materialName":"Aluminum/Wrought Iron/Cast Iron","designTypeName":"Truss - Thru","lengthFt":61.0},{"id":"OH-6760000","state":"OH","stateName":"Ohio","countyFips":"133","facilityCarried":"MATS ROAD","featuresIntersected":"CUYAHOGA RIVER","location":"0.18 MI EAST OF LINE STR","lat":42.366944,"lon":-82.261111,"lowestRating":1,"yearBuilt":1900,"adt":100,"conditionCategory":"poor","structurallyDeficient":true,"materialName":"Steel","designTypeName":"Stringer/Multi-beam or Girder","lengthFt":230.0},{"id":"OH-6838235","state":"OH","stateName":"Ohio","countyFips":"135","facilityCarried":"FUDGE RD","featuresIntersected":"AUKERMAN CREEK","location":".25 N OF CH 58","lat":40.653889,"lon":-84.893056,"lowestRating":1,"yearBuilt":1913,"adt":70,"conditionCategory":"poor","structurallyDeficient":true,"materialName":"Steel","designTypeName":"Truss - Thru","lengthFt":90.9},{"id":"OH-3030709","state":"OH","stateName":"Ohio","countyFips":"059","facilityCarried":"TR 364 OLDHAM RD","featuresIntersected":"WILLS CREEK","location":"5 MI N CAMBRIDGE","lat":41.301111,"lon":-82.178889,"lowestRating":1,"yearBuilt":1935,"adt":50,"conditionCategory":"poor","structurallyDeficient":true,"materialName":"Steel","designTypeName":"Girder and Floorbeam","lengthFt":133.9},{"id":"OH-6334474","state":"OH","stateName":"Ohio","countyFips":"125","facilityCarried":"TOWNSHIP ROAD 135","featuresIntersected":"SIX MILE CREEK","location":"1.2 MI N OF JCT SR111","lat":42.366944,"lon":-85.0,"lowestRating":1,"yearBuilt":1950,"adt":30,"conditionCategory":"poor","structurallyDeficient":true,"materialName":"Steel","designTypeName":"Stringer/Multi-beam or Girder","lengthFt":30.8},{"id":"OH-6832377","state":"OH","stateName":"Ohio","countyFips":"135","facilityCarried":"BRUBAKER RD;","featuresIntersected":"SAMS CREEK","location":".60 MI.W. OF SR 122","lat":39.806944,"lon":-85.605,"lowestRating":1,"yearBuilt":1887,"adt":30,"conditionCategory":"poor","structurallyDeficient":true,"materialName":"Wood or Timber","designTypeName":"Truss - Thru","lengthFt":86.9},{"id":"OH-0432644","state":"OH","stateName":"Ohio","countyFips":"007","facilityCarried":"HORTON ROAD","featuresIntersected":"CONNEAUT CREEK","location":".5 MI. N. OF HATCHES COR.","lat":42.363056,"lon":-80.918056,"lowestRating":1,"yearBuilt":1900,"adt":null,"conditionCategory":"poor","structurallyDeficient":true,"materialName":"Steel","designTypeName":"Truss - Thru","lengthFt":128.9},{"id":"OH-1332864","state":"OH","stateName":"Ohio","countyFips":"025","facilityCarried":"LITTLE INDIAN RD","featuresIntersected":"LITTLE INDIAN","location":"Little Indian Rd","lat":40.401111,"lon":-85.26,"lowestRating":1,"yearBuilt":1933,"adt":null,"conditionCategory":"poor","structurallyDeficient":true,"materialName":"Steel","designTypeName":"Stringer/Multi-beam or Girder","lengthFt":26.9},{"id":"OH-5736080","state":"OH","stateName":"Ohio","countyFips":"113","facilityCarried":"Shoup Mill Rd.","featuresIntersected":"storm sewer","location":"100 East of SR48","lat":41.088056,"lon":-85.183889,"lowestRating":2,"yearBuilt":1968,"adt":26981,"conditionCategory":"poor","structurallyDeficient":true,"materialName":"Steel","designTypeName":"Culvert","lengthFt":22.0},{"id":"OH-8629595","state":"OH","stateName":"Ohio","countyFips":"171","facilityCarried":"SR15/USR 20A","featuresIntersected":"I80 OHIO TPK","location":"0.2MI WEST OF EXIT 13","lat":43.018056,"lon":-84.998889,"lowestRating":2,"yearBuilt":1954,"adt":7090,"conditionCategory":"poor","structurallyDeficient":true,"materialName":"Steel Continuous","designTypeName":"Stringer/Multi-beam or Girder","lengthFt":202.1},{"id":"OH-1869604","state":"OH","stateName":"Ohio","countyFips":"035","facilityCarried":"EAGLE AVE (FLATS)","featuresIntersected":"CUYAHOGA RIVER (FLATS)","location":"E OF SCRANTON AVE (FLATS)","lat":42.488056,"lon":-82.581111,"lowestRating":2,"yearBuilt":1930,"adt":7000,"conditionCategory":"poor","structurallyDeficient":true,"materialName":"Steel","designTypeName":"Movable - Lift","lengthFt":312.0},{"id":"OH-4563301","state":"OH","stateName":"Ohio","countyFips":"089","facilityCarried":"HEADLEYS MILL ROAD","featuresIntersected":"BIG HOLLOW HEADLEYS MILL","location":"0.16 mile NW MR 00987","lat":40.156944,"lon":-83.98,"lowestRating":2,"yearBuilt":1994,"adt":1295,"conditionCategory":"poor","structurallyDeficient":true,"materialName":"Steel","designTypeName":"Stringer/Multi-beam or Girder","lengthFt":40.0},{"id":"OH-5029864","state":"OH","stateName":"Ohio","countyFips":"099","facilityCarried":"BEARD RD","featuresIntersected":"I76 OHIO TPK","location":"2MI WEST OF EXIT 17","lat":41.683889,"lon":-81.818056,"lowestRating":2,"yearBuilt":1954,"adt":1110,"conditionCategory":"poor","structurallyDeficient":true,"materialName":"Steel Continuous","designTypeName":"Stringer/Multi-beam or Girder","lengthFt":201.1},{"id":"OH-1890891","state":"OH","stateName":"Ohio","countyFips":"035","facilityCarried":"HAWTHORNE PARKWAY","featuresIntersected":"OmniTrax RR","location":"1500 NORTH OF AURORA RD","lat":41.928056,"lon":-82.273056,"lowestRating":2,"yearBuilt":1960,"adt":1000,"conditionCategory":"poor","structurallyDeficient":true,"materialName":"Prestressed Concrete","designTypeName":"Box Beam - Multiple","lengthFt":137.8},{"id":"OH-4741420","state":"OH","stateName":"Ohio","countyFips":"093","facilityCarried":"CLOSED-HISTORICAL","featuresIntersected":"WB BLACK RV(CLOSED HIST)","location":"5.25 MI. E. OF","lat":41.696111,"lon":-82.571944,"lowestRating":2,"yearBuilt":1923,"adt":1000,"conditionCategory":"poor","structurallyDeficient":true,"materialName":"Concrete","designTypeName":"Arch - Deck","lengthFt":125.0},{"id":"OH-6733646","state":"OH","stateName":"Ohio","countyFips":"133","facilityCarried":"RANDOLPH RD","featuresIntersected":"POTTER CREEK","location":"POTTER CREEK","lat":42.391111,"lon":-82.521111,"lowestRating":2,"yearBuilt":1975,"adt":860,"conditionCategory":"poor","structurallyDeficient":true,"materialName":"Steel","designTypeName":"Stringer/Multi-beam or Girder","lengthFt":25.9},{"id":"OH-1630628","state":"OH","stateName":"Ohio","countyFips":"031","facilityCarried":"COUNTY ROAD 106","featuresIntersected":"WILLS CREEK","location":"2.5 MI. E OF PLAINFIELD","lat":41.303889,"lon":-82.301944,"lowestRating":2,"yearBuilt":1915,"adt":797,"conditionCategory":"poor","structurallyDeficient":true,"materialName":"Steel","designTypeName":"Truss - Thru","lengthFt":146.0},{"id":"OH-8759650","state":"OH","stateName":"Ohio","countyFips":"173","facilityCarried":"WATER STREET","featuresIntersected":"ROCKY FORD RIVER","location":"0.10 ML W OF TILE YARD RD","lat":42.406111,"lon":-85.255,"lowestRating":2,"yearBuilt":1924,"adt":765,"conditionCategory":"poor","structurallyDeficient":true,"materialName":"Steel","designTypeName":"Stringer/Multi-beam or Girder","lengthFt":54.1},{"id":"OH-1832212","state":"OH","stateName":"Ohio","countyFips":"035","facilityCarried":"HEMLOCK ROAD","featuresIntersected":"HEMLOCK CREEK","location":"925 FT SW OF STONE ROAD","lat":42.666944,"lon":-82.461111,"lowestRating":2,"yearBuilt":1905,"adt":619,"conditionCategory":"poor","structurallyDeficient":true,"materialName":"Prestressed Concrete","designTypeName":"Box Beam - Multiple","lengthFt":35.8},{"id":"OH-1890956","state":"OH","stateName":"Ohio","countyFips":"035","facilityCarried":"OLD HIGHLAND RD","featuresIntersected":"Euclid Creek","location":"500 E.OF EUCLID CRK PWY","lat":42.67,"lon":-83.001111,"lowestRating":2,"yearBuilt":1938,"adt":500,"conditionCategory":"poor","structurallyDeficient":true,"materialName":"Concrete","designTypeName":"Tee Beam","lengthFt":38.1},{"id":"OH-3433137","state":"OH","stateName":"Ohio","countyFips":"067","facilityCarried":"COUNTY RD 13","featuresIntersected":"NORTH FORK OF SHORTCREEK","location":"1 MI N OF ADENA VILLAGE","lat":41.266944,"lon":-82.131111,"lowestRating":2,"yearBuilt":1927,"adt":448,"conditionCategory":"poor","structurallyDeficient":true,"materialName":"Steel","designTypeName":"Stringer/Multi-beam or Girder","lengthFt":50.9},{"id":"OH-2742322","state":"OH","stateName":"Ohio","countyFips":"053","facilityCarried":"FARMVIEW RD","featuresIntersected":"RACCOON CREEK","location":".03 M E OF CANOE LIVERY","lat":39.703056,"lon":-82.833056,"lowestRating":2,"yearBuilt":1922,"adt":385,"conditionCategory":"poor","structurallyDeficient":true,"materialName":"Concrete","designTypeName":"Girder and Floorbeam","lengthFt":133.9},{"id":"OH-7844778","state":"OH","stateName":"Ohio","countyFips":"155","facilityCarried":"YORK STREET","featuresIntersected":"STREAM - FLOWS SOUTH","location":"1100 FT WEST OF SR46","lat":42.275,"lon":-80.836111,"lowestRating":2,"yearBuilt":1971,"adt":385,"conditionCategory":"poor","structurallyDeficient":true,"materialName":"Steel","designTypeName":"Stringer/Multi-beam or Girder","lengthFt":26.9},{"id":"OH-4133048","state":"OH","stateName":"Ohio","countyFips":"081","facilityCarried":"JEFF. CR6","featuresIntersected":"SHORT CREEK","location":"CR6 @ HARRISON CNTY LINE","lat":41.296944,"lon":-82.121944,"lowestRating":2,"yearBuilt":1927,"adt":339,"conditionCategory":"poor","structurallyDeficient":true,"materialName":"Steel","designTypeName":"Stringer/Multi-beam or Girder","lengthFt":52.2},{"id":"OH-7333013","state":"OH","stateName":"Ohio","countyFips":"145","facilityCarried":"POND RUN ROAD","featuresIntersected":"POND RUN RD (POND RUN)","location":"01.50 MI. E OF SF1","lat":39.063056,"lon":-83.54,"lowestRating":2,"yearBuilt":1928,"adt":339,"conditionCategory":"poor","structurallyDeficient":true,"materialName":"Steel Continuous","designTypeName":"Stringer/Multi-beam or Girder","lengthFt":74.1},{"id":"OH-7840101","state":"OH","stateName":"Ohio","countyFips":"155","facilityCarried":"COUNTY ROAD 190","featuresIntersected":"STREAM","location":"0.2 N. S.R.609","lat":41.666944,"lon":-81.35,"lowestRating":2,"yearBuilt":1965,"adt":339,"conditionCategory":"poor","structurallyDeficient":true,"materialName":"Steel","designTypeName":"Stringer/Multi-beam or Girder","lengthFt":32.2},{"id":"OH-6533167","state":"OH","stateName":"Ohio","countyFips":"129","facilityCarried":"MCLEAN MILL ROAD","featuresIntersected":"BIG DARBY CREEK","location":"1.3MI EAST OF LONDON ROAD","lat":40.3,"lon":-84.5,"lowestRating":2,"yearBuilt":1912,"adt":210,"conditionCategory":"poor","structurallyDeficient":true,"materialName":"Steel","designTypeName":"Truss - Thru","lengthFt":257.9},{"id":"OH-2830008","state":"OH","stateName":"Ohio","countyFips":"055","facilityCarried":"Westwoods Park Rd","featuresIntersected":"Trib. to silver creek","location":".32 miles south of SR 87","lat":42.311944,"lon":-81.658056,"lowestRating":2,"yearBuilt":1999,"adt":200,"conditionCategory":"poor","structurallyDeficient":true,"materialName":"Steel","designTypeName":"Truss - Thru","lengthFt":33.1},{"id":"OH-3030997","state":"OH","stateName":"Ohio","countyFips":"059","facilityCarried":"CR 33 EIGHTH ST RD","featuresIntersected":"WILLS CREEK","location":"1 MI N SR 541  2 MI W I77","lat":41.118056,"lon":-82.546944,"lowestRating":2,"yearBuilt":1959,"adt":200,"conditionCategory":"poor","structurallyDeficient":true,"materialName":"Steel","designTypeName":"Truss - Thru","lengthFt":166.0},{"id":"OH-8758948","state":"OH","stateName":"Ohio","countyFips":"173","facilityCarried":"BRIDGE STREET","featuresIntersected":"MID BR POR RIV BRIDGE ST","location":"0.15 ML W OF P-VILLE RD","lat":42.313889,"lon":-84.153056,"lowestRating":2,"yearBuilt":1947,"adt":175,"conditionCategory":"poor","structurallyDeficient":true,"materialName":"Steel Continuous","designTypeName":"Stringer/Multi-beam or Girder","lengthFt":160.1},{"id":"OH-4237617","state":"OH","stateName":"Ohio","countyFips":"083","facilityCarried":"MILE CREEK ROAD","featuresIntersected":"MILE CREEK","location":"0.1 MI SOUTH OF SPARTA RD","lat":41.178056,"lon":-83.395,"lowestRating":2,"yearBuilt":1926,"adt":155,"conditionCategory":"poor","structurallyDeficient":true,"materialName":"Steel","designTypeName":"Truss - Thru","lengthFt":52.2},{"id":"OH-0540951","state":"OH","stateName":"Ohio","countyFips":"009","facilityCarried":"MADISON STREET","featuresIntersected":"W.BCH SUNDAY CREEK","location":"0.04 MI. SOUTH OF C.R.13","lat":39.763889,"lon":-83.561111,"lowestRating":2,"yearBuilt":1954,"adt":150,"conditionCategory":"poor","structurallyDeficient":true,"materialName":"Steel","designTypeName":"Truss - Thru","lengthFt":91.2},{"id":"OH-4740785","state":"OH","stateName":"Ohio","countyFips":"093","facilityCarried":"WATERFALL DR.","featuresIntersected":"BRENTWOOD LK WATERFALL","location":".17MI.WEST OF SR","lat":41.513056,"lon":-82.686944,"lowestRating":2,"yearBuilt":1900,"adt":100,"conditionCategory":"poor","structurallyDeficient":true,"materialName":"Concrete","designTypeName":"Slab","lengthFt":27.9},{"id":"OH-1631306","state":"OH","stateName":"Ohio","countyFips":"031","facilityCarried":"TOWNSHIP ROAD 1500","featuresIntersected":"EVANS CREEK","location":"0.1 mile W jct CR93","lat":41.351944,"lon":-83.298056,"lowestRating":2,"yearBuilt":1967,"adt":96,"conditionCategory":"poor","structurallyDeficient":true,"materialName":"Steel","designTypeName":"Stringer/Multi-beam or Girder","lengthFt":33.1},{"id":"OH-3034291","state":"OH","stateName":"Ohio","countyFips":"059","facilityCarried":"TOWNSHIP RD 7659","featuresIntersected":"BRUSHY FORK","location":".3MI S OF STATE HWY 22","lat":40.665,"lon":-82.295,"lowestRating":2,"yearBuilt":1940,"adt":96,"conditionCategory":"poor","structurallyDeficient":true,"materialName":"Steel Continuous","designTypeName":"Stringer/Multi-beam or Girder","lengthFt":43.0},{"id":"OH-6335217","state":"OH","stateName":"Ohio","countyFips":"125","facilityCarried":"TOWNSHIP ROAD 54","featuresIntersected":"HAGERMAN CREEK","location":"2.7 MI E OF US127","lat":41.866944,"lon":-84.85,"lowestRating":2,"yearBuilt":1900,"adt":96,"conditionCategory":"poor","structurallyDeficient":true,"materialName":"Steel","designTypeName":"Girder and Floorbeam","lengthFt":50.9},{"id":"OH-5933188","state":"OH","stateName":"Ohio","countyFips":"117","facilityCarried":"RICE CEMETERY RD.","featuresIntersected":"TRIB. OF FLAT RUN","location":".7 MI NORTH INTX. CR61","lat":41.616944,"lon":-83.283056,"lowestRating":2,"yearBuilt":1900,"adt":90,"conditionCategory":"poor","structurallyDeficient":true,"materialName":"Steel","designTypeName":"Truss - Thru","lengthFt":43.0},{"id":"OH-8637253","state":"OH","stateName":"Ohio","countyFips":"171","facilityCarried":"CR 230 (5/I)","featuresIntersected":"BEAR CREEK","location":"09600 RD 5/I","lat":41.681111,"lon":-84.733889,"lowestRating":2,"yearBuilt":1920,"adt":70,"conditionCategory":"poor","structurallyDeficient":true,"materialName":"Steel","designTypeName":"Truss - Thru","lengthFt":43.0},{"id":"OH-3035883","state":"OH","stateName":"Ohio","countyFips":"059","facilityCarried":"TOWNSHIP RD 3266","featuresIntersected":"BUFFALO FORK","location":"500FT S OF STATE HWY 146","lat":40.256944,"lon":-81.948056,"lowestRating":2,"yearBuilt":1959,"adt":50,"conditionCategory":"poor","structurallyDeficient":true,"materialName":"Steel","designTypeName":"Truss - Thru","lengthFt":68.9},{"id":"OH-4236580","state":"OH","stateName":"Ohio","countyFips":"083","facilityCarried":"COOKE ROAD","featuresIntersected":"TRIB. N. BR. KOKOSING","location":"0.3 MI SOUTH OF BLAIR RD","lat":41.705,"lon":-84.051944,"lowestRating":2,"yearBuilt":1896,"adt":40,"conditionCategory":"poor","structurallyDeficient":true,"materialName":"Concrete","designTypeName":"Arch - Deck","lengthFt":52.2},{"id":"OH-3433471","state":"OH","stateName":"Ohio","countyFips":"067","facilityCarried":"TOWNSHIP RD 136","featuresIntersected":"IRISH CREEK","location":"0.2MI S OF CR 32","lat":41.233056,"lon":-82.033056,"lowestRating":2,"yearBuilt":1982,"adt":30,"conditionCategory":"poor","structurallyDeficient":true,"materialName":"Steel","designTypeName":"Culvert","lengthFt":32.2},{"id":"OH-3031705","state":"OH","stateName":"Ohio","countyFips":"059","facilityCarried":"TR 186 BRIDGE RD","featuresIntersected":"WILLS CREEK","location":"0.1 MI S SR 541","lat":40.578056,"lon":-82.668889,"lowestRating":2,"yearBuilt":1894,"adt":null,"conditionCategory":"poor","structurallyDeficient":true,"materialName":"Steel","designTypeName":"Truss - Thru","lengthFt":162.1},{"id":"OH-3560015","state":"OH","stateName":"Ohio","countyFips":"069","facilityCarried":"RYE ST. (CLOSED)","featuresIntersected":"OBERHAUS CREEK","location":"430 FEET N OF YEAGER STR","lat":42.86,"lon":-85.083056,"lowestRating":2,"yearBuilt":1900,"adt":null,"conditionCategory":"poor","structurallyDeficient":true,"materialName":"Steel","designTypeName":"Stringer/Multi-beam or Girder","lengthFt":27.9},{"id":"OH-2500639","state":"OH","stateName":"Ohio","countyFips":"049","facilityCarried":"FOURTH ST (US23)","featuresIntersected":"S 4TH ST(US-23) OVER I-7","location":"1.59 MI S OF IR-670","lat":40.26,"lon":-84.088889,"lowestRating":3,"yearBuilt":1964,"adt":18223,"conditionCategory":"poor","structurallyDeficient":true,"materialName":"Steel Continuous","designTypeName":"Stringer/Multi-beam or Girder","lengthFt":214.6},{"id":"OH-3103811","state":"OH","stateName":"Ohio","countyFips":"061","facilityCarried":"US50","featuresIntersected":"NSRR;DUCKCRK;RED BANK RD","location":"1.4 MI E OF SR561","lat":39.425,"lon":-84.791111,"lowestRating":3,"yearBuilt":1962,"adt":17030,"conditionCategory":"poor","structurallyDeficient":true,"materialName":"Steel","designTypeName":"Girder and Floorbeam","lengthFt":432.1},{"id":"OH-4740483","state":"OH","stateName":"Ohio","countyFips":"093","facilityCarried":"SUGAR RIDGE RD.","featuresIntersected":"CREEK     SUGAR RIDGE","location":".07MI.WEST OF","lat":42.121111,"lon":-83.67,"lowestRating":3,"yearBuilt":1991,"adt":14095,"conditionCategory":"poor","structurallyDeficient":true,"materialName":"Prestressed Concrete","designTypeName":"Box Beam - Multiple","lengthFt":24.0},{"id":"OH-0900214","state":"OH","stateName":"Ohio","countyFips":"017","facilityCarried":"SR 4","featuresIntersected":"COLDWATER CREEK","location":".90 MI S OF SR 63","lat":39.626944,"lon":-84.556944,"lowestRating":3,"yearBuilt":1930,"adt":12964,"conditionCategory":"poor","structurallyDeficient":true,"materialName":"Prestressed Concrete","designTypeName":"Box Beam - Multiple","lengthFt":53.1},{"id":"OH-7834551","state":"OH","stateName":"Ohio","countyFips":"155","facilityCarried":"COUNTY ROAD 1127","featuresIntersected":"MAHONING RIVER","location":"TOD AVE. TO MAHONING AVE.","lat":42.116111,"lon":-81.185,"lowestRating":3,"yearBuilt":1966,"adt":10763,"conditionCategory":"poor","structurallyDeficient":true,"materialName":"Steel Continuous","designTypeName":"Stringer/Multi-beam or Girder","lengthFt":371.1},{"id":"OH-4351576","state":"OH","stateName":"Ohio","countyFips":"085","facilityCarried":"BISHOP ROAD","featuresIntersected":"STREAM","location":"0.59 MI. N/ CUYAHOGA CTY.","lat":42.773056,"lon":-82.65,"lowestRating":3,"yearBuilt":1978,"adt":9626,"conditionCategory":"poor","structurallyDeficient":true,"materialName":"Concrete","designTypeName":"Slab","lengthFt":35.1},{"id":"OH-1887122","state":"OH","stateName":"Ohio","countyFips":"035","facilityCarried":"FOSDICK ROAD","featuresIntersected":"OHIO CANAL","location":"60 FT W OF CANAL ROAD","lat":41.811111,"lon":-82.658889,"lowestRating":3,"yearBuilt":1965,"adt":9331,"conditionCategory":"poor","structurallyDeficient":true,"materialName":"Steel","designTypeName":"Stringer/Multi-beam or Girder","lengthFt":82.3},{"id":"OH-5060745","state":"OH","stateName":"Ohio","countyFips":"099","facilityCarried":"SOUTH AVENUE","featuresIntersected":"YOUNGSTOWN & SOUTHERN RR","location":"1/8 MI. S. OF WILLIAMSON","lat":41.213889,"lon":-81.933056,"lowestRating":3,"yearBuilt":1957,"adt":9100,"conditionCategory":"poor","structurallyDeficient":true,"materialName":"Steel","designTypeName":"Stringer/Multi-beam or Girder","lengthFt":43.0},{"id":"OH-2504596","state":"OH","stateName":"Ohio","countyFips":"049","facilityCarried":"THIRD ST","featuresIntersected":"S 3RD (US-33) OVER I-70","location":"0.82 E OF SR 3","lat":40.298056,"lon":-84.275,"lowestRating":3,"yearBuilt":1963,"adt":9065,"conditionCategory":"poor","structurallyDeficient":true,"materialName":"Steel Continuous","designTypeName":"Stringer/Multi-beam or Girder","lengthFt":126.6},{"id":"OH-5835712","state":"OH","stateName":"Ohio","countyFips":"115","facilityCarried":"COUNTY ROAD 203","featuresIntersected":"MUSKINGUM RIVER","location":"MCCONNELSVILLE VILLAGE","lat":41.096944,"lon":-82.723056,"lowestRating":3,"yearBuilt":1913,"adt":8919,"conditionCategory":"poor","structurallyDeficient":true,"materialName":"Steel","designTypeName":"Truss - Thru","lengthFt":565.9},{"id":"OH-0701599","state":"OH","stateName":"Ohio","countyFips":"013","facilityCarried":"US 40","featuresIntersected":"WHLNG CR CR.10 & ABND.RR","location":"0.9 MI.E.OF CR 214","lat":41.711111,"lon":-81.283056,"lowestRating":3,"yearBuilt":1932,"adt":7734,"conditionCategory":"poor","structurallyDeficient":true,"materialName":"Concrete","designTypeName":"Arch - Deck","lengthFt":753.9},{"id":"OH-4100964","state":"OH","stateName":"Ohio","countyFips":"081","facilityCarried":"MARKET ST-WVA2SPUR","featuresIntersected":"SR-7  RR & OHIO RIVER","location":".7 MI N OF CONRAIL RR","lat":41.271111,"lon":-81.848889,"lowestRating":3,"yearBuilt":1905,"adt":6845,"conditionCategory":"poor","structurallyDeficient":true,"materialName":"Steel","designTypeName":"Suspension","lengthFt":1794.3},{"id":"OH-1833987","state":"OH","stateName":"Ohio","countyFips":"035","facilityCarried":"LEE ROAD CR 8","featuresIntersected":"MILL CREEK","location":"2485 NORTH OF LIBBY RD","lat":42.111944,"lon":-83.048889,"lowestRating":3,"yearBuilt":1971,"adt":6035,"conditionCategory":"poor","structurallyDeficient":true,"materialName":"Prestressed Concrete","designTypeName":"Stringer/Multi-beam or Girder","lengthFt":34.4},{"id":"OH-6040241","state":"OH","stateName":"Ohio","countyFips":"119","facilityCarried":"ADAMS LANE","featuresIntersected":"JOES RUN","location":"0.42 MI N OF SR 146","lat":41.31,"lon":-82.873889,"lowestRating":3,"yearBuilt":1989,"adt":5933,"conditionCategory":"poor","structurallyDeficient":true,"materialName":"Steel","designTypeName":"Stringer/Multi-beam or Girder","lengthFt":36.1},{"id":"OH-8704716","state":"OH","stateName":"Ohio","countyFips":"173","facilityCarried":"LIME CITY ROAD","featuresIntersected":"IR 75","location":"1.1 Mi. NE of IR 80","lat":43.041111,"lon":-83.646111,"lowestRating":3,"yearBuilt":1967,"adt":3849,"conditionCategory":"poor","structurallyDeficient":true,"materialName":"Steel Continuous","designTypeName":"Stringer/Multi-beam or Girder","lengthFt":475.1},{"id":"OH-7732155","state":"OH","stateName":"Ohio","countyFips":"153","facilityCarried":"GRANGER RD","featuresIntersected":"YELLOW CREEK","location":"1000 FT E OF SHAW RD","lat":42.215,"lon":-83.211111,"lowestRating":3,"yearBuilt":1913,"adt":3703,"conditionCategory":"poor","structurallyDeficient":true,"materialName":"Prestressed Concrete","designTypeName":"Box Beam - Multiple","lengthFt":65.0},{"id":"OH-7732120","state":"OH","stateName":"Ohio","countyFips":"153","facilityCarried":"IRA ROAD","featuresIntersected":"NORTH FORK YELLOW CREEK","location":"3500 FT E OF HAMETOWN RD","lat":41.738889,"lon":-81.976111,"lowestRating":3,"yearBuilt":1959,"adt":3651,"conditionCategory":"poor","structurallyDeficient":true,"materialName":"Steel","designTypeName":"Culvert","lengthFt":27.2},{"id":"OH-4770536","state":"OH","stateName":"Ohio","countyFips":"093","facilityCarried":"EAST FOURTH STREET","featuresIntersected":"EB BLACK RIVER E FOURTH","location":"EAST OF EAST AVE","lat":42.763056,"lon":-82.461944,"lowestRating":3,"yearBuilt":1998,"adt":3500,"conditionCategory":"poor","structurallyDeficient":true,"materialName":"Prestressed Concrete Continuous","designTypeName":"Stringer/Multi-beam or Girder","lengthFt":194.9},{"id":"OH-7749023","state":"OH","stateName":"Ohio","countyFips":"153","facilityCarried":"WHEATLEY RD","featuresIntersected":"RIDING  RUN","location":"4200 FT N OF OAKHILL RD","lat":42.821944,"lon":-82.506111,"lowestRating":3,"yearBuilt":1940,"adt":3170,"conditionCategory":"poor","structurallyDeficient":true,"materialName":"Concrete","designTypeName":"Slab","lengthFt":35.4},{"id":"OH-3946711","state":"OH","stateName":"Ohio","countyFips":"077","facilityCarried":"BASELINE RD CR 11","featuresIntersected":"BASELINE / ASHLAND  RAIL","location":"0.1 MI WEST OF SR 61","lat":42.173056,"lon":-82.808056,"lowestRating":3,"yearBuilt":1950,"adt":2803,"conditionCategory":"poor","structurallyDeficient":true,"materialName":"Wood or Timber","designTypeName":"Stringer/Multi-beam or Girder","lengthFt":62.0},{"id":"OH-4861175","state":"OH","stateName":"Ohio","countyFips":"095","facilityCarried":"E. CENTRAL AVENUE","featuresIntersected":"BUCKEYE ST AND TTRR","location":"2.0 MI E OF CHERRY STREET","lat":42.911944,"lon":-83.54,"lowestRating":3,"yearBuilt":1958,"adt":2613,"conditionCategory":"poor","structurallyDeficient":true,"materialName":"Steel Continuous","designTypeName":"Stringer/Multi-beam or Girder","lengthFt":86.0},{"id":"OH-1831402","state":"OH","stateName":"Ohio","countyFips":"035","facilityCarried":"JEFFERSON RD","featuresIntersected":"W & LE RR","location":".4MI W OF INDEPENDENCE RD","lat":43.033889,"lon":-82.888056,"lowestRating":3,"yearBuilt":1908,"adt":2553,"conditionCategory":"poor","structurallyDeficient":true,"materialName":"Steel","designTypeName":"Girder and Floorbeam","lengthFt":98.1},{"id":"OH-8332991","state":"OH","stateName":"Ohio","countyFips":"165","facilityCarried":"TOWNSHIP LINE ROAD","featuresIntersected":"NEWMANS RUN","location":"0.61 mi S of SR 73","lat":39.91,"lon":-84.558889,"lowestRating":3,"yearBuilt":1920,"adt":2477,"conditionCategory":"poor","structurallyDeficient":true,"materialName":"Masonry","designTypeName":"Culvert","lengthFt":24.0},{"id":"OH-7146116","state":"OH","stateName":"Ohio","countyFips":"141","facilityCarried":"CHARLESTON PIKE","featuresIntersected":"CSX RAILROAD","location":"1.60 MI SE OF BLACKSMITH","lat":39.521111,"lon":-84.428889,"lowestRating":3,"yearBuilt":1927,"adt":2231,"conditionCategory":"poor","structurallyDeficient":true,"materialName":"Steel","designTypeName":"Girder and Floorbeam","lengthFt":193.9},{"id":"OH-1890565","state":"OH","stateName":"Ohio","countyFips":"035","facilityCarried":"Royalview Lane","featuresIntersected":"Mill Stream Run","location":"2000 S. of Valley Pkwy","lat":42.273889,"lon":-83.033889,"lowestRating":3,"yearBuilt":1900,"adt":2000,"conditionCategory":"poor","structurallyDeficient":true,"materialName":"Steel","designTypeName":"Culvert","lengthFt":23.0},{"id":"OH-7830165","state":"OH","stateName":"Ohio","countyFips":"155","facilityCarried":"ARLINGTON BLVD","featuresIntersected":"MAHONING RIVER E BRANCH","location":"200 FT WEST OF MILTON","lat":41.655,"lon":-81.456944,"lowestRating":3,"yearBuilt":1831,"adt":2000,"conditionCategory":"poor","structurallyDeficient":true,"materialName":"Wood or Timber","designTypeName":"Truss - Thru","lengthFt":121.1},{"id":"OH-7937857","state":"OH","stateName":"Ohio","countyFips":"157","facilityCarried":"1ST ST & DENN CORP","featuresIntersected":"LITTLE STILLWATER CREEK","location":"UHRICHSVILLE CORP LINE","lat":41.1,"lon":-81.576944,"lowestRating":3,"yearBuilt":1941,"adt":1957,"conditionCategory":"poor","structurallyDeficient":true,"materialName":"Steel","designTypeName":"Truss - Thru","lengthFt":102.0},{"id":"OH-7840551","state":"OH","stateName":"Ohio","countyFips":"155","facilityCarried":"TOWNSHIP ROAD 84","featuresIntersected":"LITTLE DUCK CREEK","location":"0.5 MI. E. CR 81","lat":41.511111,"lon":-81.746111,"lowestRating":3,"yearBuilt":1990,"adt":1949,"conditionCategory":"poor","structurallyDeficient":true,"materialName":"Steel","designTypeName":"Stringer/Multi-beam or Girder","lengthFt":32.2},{"id":"OH-7839200","state":"OH","stateName":"Ohio","countyFips":"155","facilityCarried":"LORDS; FKA CH72-E","featuresIntersected":"MUD CREEK","location":"0.55 MI. E. OF C.H. 98","lat":42.775,"lon":-81.023056,"lowestRating":3,"yearBuilt":1940,"adt":1935,"conditionCategory":"poor","structurallyDeficient":true,"materialName":"Concrete","designTypeName":"Tee Beam","lengthFt":36.1},{"id":"OH-7030185","state":"OH","stateName":"Ohio","countyFips":"139","facilityCarried":"STATE ST.","featuresIntersected":"BLACK FORK RIVER","location":"0.2 MI EAST OF SR. 61","lat":42.208056,"lon":-83.426111,"lowestRating":3,"yearBuilt":1955,"adt":1889,"conditionCategory":"poor","structurallyDeficient":true,"materialName":"Steel Continuous","designTypeName":"Stringer/Multi-beam or Girder","lengthFt":131.9},{"id":"OH-6740383","state":"OH","stateName":"Ohio","countyFips":"133","facilityCarried":"Judson Road","featuresIntersected":"Wheeling & Lake Erie RR","location":"1.0 Mi NW of Hudson Road","lat":42.211111,"lon":-82.7,"lowestRating":3,"yearBuilt":2000,"adt":1886,"conditionCategory":"poor","structurallyDeficient":true,"materialName":"Steel","designTypeName":"Truss - Thru","lengthFt":151.9},{"id":"OH-7661126","state":"OH","stateName":"Ohio","countyFips":"151","facilityCarried":"FOURTH ST. S.E.","featuresIntersected":"EAST BR NIMISHILLEN CREE","location":"OVER E. BR. NIMISHILLEN","lat":41.715,"lon":-82.22,"lowestRating":3,"yearBuilt":1974,"adt":1845,"conditionCategory":"poor","structurallyDeficient":true,"materialName":"Steel Continuous","designTypeName":"Stringer/Multi-beam or Girder","lengthFt":110.9},{"id":"OH-3940624","state":"OH","stateName":"Ohio","countyFips":"077","facilityCarried":"SECTION LINE 30","featuresIntersected":"SEC LN 30 / SLATE RUN","location":"0.2 MI N OF OLD MILITARY","lat":42.78,"lon":-83.021111,"lowestRating":3,"yearBuilt":1960,"adt":1804,"conditionCategory":"poor","structurallyDeficient":true,"materialName":"Steel","designTypeName":"Truss - Thru","lengthFt":57.1},{"id":"OH-7842309","state":"OH","stateName":"Ohio","countyFips":"155","facilityCarried":"COUNTY ROAD 201-C","featuresIntersected":"WALNUT CREEK AT MOSQUITO","location":"0.6 MI. N. OF C.H.330-B","lat":41.771944,"lon":-81.521944,"lowestRating":3,"yearBuilt":1940,"adt":1794,"conditionCategory":"poor","structurallyDeficient":true,"materialName":"Steel","designTypeName":"Stringer/Multi-beam or Girder","lengthFt":40.0},{"id":"OH-6040330","state":"OH","stateName":"Ohio","countyFips":"119","facilityCarried":"KOPCHAK ROAD","featuresIntersected":"TIMBER RUN","location":"0.06 MI S OF US 40","lat":40.216944,"lon":-83.403056,"lowestRating":3,"yearBuilt":1900,"adt":1695,"conditionCategory":"poor","structurallyDeficient":true,"materialName":"Steel","designTypeName":"Stringer/Multi-beam or Girder","lengthFt":47.9},{"id":"OH-6036023","state":"OH","stateName":"Ohio","countyFips":"119","facilityCarried":"FIRST ST ROSEVILLE","featuresIntersected":"MOXAHALA CREEK","location":"0.09 MI E OF MAIN ST","lat":40.186111,"lon":-82.521111,"lowestRating":3,"yearBuilt":1908,"adt":1666,"conditionCategory":"poor","structurallyDeficient":true,"materialName":"Steel","designTypeName":"Truss - Thru","lengthFt":108.9},{"id":"OH-7230567","state":"OH","stateName":"Ohio","countyFips":"143","facilityCarried":"CR 201","featuresIntersected":"SANDUSKY RIVER","location":".2 MI. EAST OF CR 132","lat":42.108889,"lon":-84.556944,"lowestRating":3,"yearBuilt":1983,"adt":1589,"conditionCategory":"poor","structurallyDeficient":true,"materialName":"Prestressed Concrete","designTypeName":"Box Beam - Multiple","lengthFt":288.1},{"id":"OH-6734111","state":"OH","stateName":"Ohio","countyFips":"133","facilityCarried":"Old Forge Road","featuresIntersected":"Breakneck Creek","location":"Breakneck Creek","lat":41.483056,"lon":-81.461111,"lowestRating":3,"yearBuilt":1950,"adt":1583,"conditionCategory":"poor","structurallyDeficient":true,"materialName":"Steel","designTypeName":"Truss - Thru","lengthFt":48.9},{"id":"OH-7142862","state":"OH","stateName":"Ohio","countyFips":"141","facilityCarried":"ROZELLE CREEK RD","featuresIntersected":"ROZELLE CREEK","location":"3.76 MI. E OF SR-772","lat":40.64,"lon":-83.598056,"lowestRating":3,"yearBuilt":1900,"adt":1517,"conditionCategory":"poor","structurallyDeficient":true,"materialName":"Steel","designTypeName":"Stringer/Multi-beam or Girder","lengthFt":49.9},{"id":"OH-7033044","state":"OH","stateName":"Ohio","countyFips":"139","facilityCarried":"LONDON WEST","featuresIntersected":"BLACK FORK MOHICAN RIVER","location":"0.1 MI W. OF BROADWAY","lat":41.746111,"lon":-83.335,"lowestRating":3,"yearBuilt":1970,"adt":1497,"conditionCategory":"poor","structurallyDeficient":true,"materialName":"Steel","designTypeName":"Stringer/Multi-beam or Girder","lengthFt":87.9},{"id":"OH-4932471","state":"OH","stateName":"Ohio","countyFips":"097","facilityCarried":"SPRING VALLEY RD.","featuresIntersected":"DEER CREEK TRIBUTARY","location":"4.16 MI N OF COUNTY RD 4","lat":40.441944,"lon":-84.946944,"lowestRating":3,"yearBuilt":1958,"adt":1489,"conditionCategory":"poor","structurallyDeficient":true,"materialName":"Prestressed Concrete","designTypeName":"Stringer/Multi-beam or Girder","lengthFt":30.8},{"id":"OH-4333098","state":"OH","stateName":"Ohio","countyFips":"085","facilityCarried":"BOOTH ROAD","featuresIntersected":"STONEY BROOK","location":"0.24 MI. N/ EAGLE ROAD","lat":42.345,"lon":-82.693889,"lowestRating":3,"yearBuilt":1963,"adt":1433,"conditionCategory":"poor","structurallyDeficient":true,"materialName":"Steel","designTypeName":"Stringer/Multi-beam or Girder","lengthFt":24.9},{"id":"OH-1358170","state":"OH","stateName":"Ohio","countyFips":"025","facilityCarried":"Newtonvil Hutchnsn","featuresIntersected":"BRUSHY FORK","location":"Newtonsville Hutchinson","lat":39.896944,"lon":-85.078056,"lowestRating":3,"yearBuilt":1950,"adt":1399,"conditionCategory":"poor","structurallyDeficient":true,"materialName":"Steel","designTypeName":"Stringer/Multi-beam or Girder","lengthFt":23.6},{"id":"OH-1359614","state":"OH","stateName":"Ohio","countyFips":"025","facilityCarried":"COOK ROAD","featuresIntersected":"HORNER RUN","location":"Cook Road","lat":39.733056,"lon":-85.778056,"lowestRating":3,"yearBuilt":1900,"adt":1397,"conditionCategory":"poor","structurallyDeficient":true,"materialName":"Concrete","designTypeName":"Box Beam - Multiple","lengthFt":23.0},{"id":"OH-7141106","state":"OH","stateName":"Ohio","countyFips":"141","facilityCarried":"MT. TABOR RD","featuresIntersected":"TRIBUTARY INDIAN CREEK","location":".05 MI. S OF SKIVER RD","lat":39.248056,"lon":-83.108889,"lowestRating":3,"yearBuilt":1900,"adt":1336,"conditionCategory":"poor","structurallyDeficient":true,"materialName":"Concrete","designTypeName":"Slab","lengthFt":32.2},{"id":"OH-6740448","state":"OH","stateName":"Ohio","countyFips":"133","facilityCarried":"RAVENNA RD","featuresIntersected":"NORFOLK & SOUTHERN R/R","location":"NORFOLK & SOUTHERN R/R","lat":41.721944,"lon":-82.578056,"lowestRating":3,"yearBuilt":1983,"adt":1297,"conditionCategory":"poor","structurallyDeficient":true,"materialName":"Prestressed Concrete","designTypeName":"Box Beam - Multiple","lengthFt":66.9},{"id":"OH-0760110","state":"OH","stateName":"Ohio","countyFips":"013","facilityCarried":"41st STREET","featuresIntersected":"JORDAN RUN","location":"50 NW of Robinson","lat":40.836944,"lon":-82.346111,"lowestRating":3,"yearBuilt":1932,"adt":1295,"conditionCategory":"poor","structurallyDeficient":true,"materialName":"Steel","designTypeName":"Stringer/Multi-beam or Girder","lengthFt":25.9},{"id":"OH-8333475","state":"OH","stateName":"Ohio","countyFips":"165","facilityCarried":"CR 182","featuresIntersected":"LITTLE MIAMI RIVER","location":"0.06 mi W of CR 47","lat":39.946944,"lon":-85.661111,"lowestRating":3,"yearBuilt":1993,"adt":1179,"conditionCategory":"poor","structurallyDeficient":true,"materialName":"Prestressed Concrete","designTypeName":"Box Beam - Multiple","lengthFt":361.9},{"id":"OH-7145071","state":"OH","stateName":"Ohio","countyFips":"141","facilityCarried":"MUSGROVE RD","featuresIntersected":"CSX RAILROAD","location":".02 MI. W OF LANCASTER RD","lat":39.418889,"lon":-83.273889,"lowestRating":3,"yearBuilt":1927,"adt":1173,"conditionCategory":"poor","structurallyDeficient":true,"materialName":"Steel","designTypeName":"Girder and Floorbeam","lengthFt":75.1},{"id":"OH-3931781","state":"OH","stateName":"Ohio","countyFips":"077","facilityCarried":"COUNTY ROAD 228","featuresIntersected":"CO RD 228/E BR HRN RVR","location":"0.1 MI W OF S R 61","lat":42.418056,"lon":-83.835,"lowestRating":3,"yearBuilt":1925,"adt":1158,"conditionCategory":"poor","structurallyDeficient":true,"materialName":"Steel","designTypeName":"Stringer/Multi-beam or Girder","lengthFt":86.0},{"id":"OH-7837216","state":"OH","stateName":"Ohio","countyFips":"155","facilityCarried":"LORDS; FKA CH-98-B","featuresIntersected":"MUD CREEK","location":"0.1 MI. N. OF C.H. 86","lat":42.148056,"lon":-81.841944,"lowestRating":3,"yearBuilt":1983,"adt":1138,"conditionCategory":"poor","structurallyDeficient":true,"materialName":"Steel","designTypeName":"Culvert","lengthFt":27.9},{"id":"OH-0248045","state":"OH","stateName":"Ohio","countyFips":"003","facilityCarried":"BLUFF COLLEGE AVE","featuresIntersected":"LITTLE RILEY COLLEGE AVE","location":"0.13 MI NW OF LAWN AVE","lat":42.053056,"lon":-85.278889,"lowestRating":3,"yearBuilt":1961,"adt":1046,"conditionCategory":"poor","structurallyDeficient":true,"materialName":"Steel","designTypeName":"Stringer/Multi-beam or Girder","lengthFt":44.9},{"id":"OH-0260797","state":"OH","stateName":"Ohio","countyFips":"003","facilityCarried":"CLEVELAND STREET","featuresIntersected":"FLAT FORK CREEK","location":"WEST OF FRANKLIN STREET","lat":41.475,"lon":-84.823889,"lowestRating":3,"yearBuilt":1959,"adt":1000,"conditionCategory":"poor","structurallyDeficient":true,"materialName":"Concrete","designTypeName":"Slab","lengthFt":23.0},{"id":"OH-4453786","state":"OH","stateName":"Ohio","countyFips":"087","facilityCarried":"TOWNSHIP ROAD 205","featuresIntersected":"PADDY CREEK","location":"0.11 MILES WEST OF CR 70","lat":38.96,"lon":-82.703056,"lowestRating":3,"yearBuilt":1929,"adt":983,"conditionCategory":"poor","structurallyDeficient":true,"materialName":"Steel","designTypeName":"Stringer/Multi-beam or Girder","lengthFt":29.9},{"id":"OH-7840470","state":"OH","stateName":"Ohio","countyFips":"155","facilityCarried":"TOWNSHIP RD. 84-A","featuresIntersected":"DUCK CREEK","location":"0.05 MI. W. OF T.H. 95-A","lat":41.5,"lon":-82.153056,"lowestRating":3,"yearBuilt":1972,"adt":983,"conditionCategory":"poor","structurallyDeficient":true,"materialName":"Steel","designTypeName":"Stringer/Multi-beam or Girder","lengthFt":38.1},{"id":"OH-0260096","state":"OH","stateName":"Ohio","countyFips":"003","facilityCarried":"WEST STREET","featuresIntersected":"OTTAWA RIVER","location":"1700 FT S OF MARKET STR","lat":40.893889,"lon":-84.883056,"lowestRating":3,"yearBuilt":1973,"adt":965,"conditionCategory":"poor","structurallyDeficient":true,"materialName":"Prestressed Concrete Continuous","designTypeName":"Box Beam - Multiple","lengthFt":148.0},{"id":"OH-7250274","state":"OH","stateName":"Ohio","countyFips":"143","facilityCarried":"CHERRY ST.","featuresIntersected":"PORTAGE RIVER CHERRY ST","location":"0.01M N of Ft. Findlay Rd","lat":42.933056,"lon":-83.366944,"lowestRating":3,"yearBuilt":1975,"adt":955,"conditionCategory":"poor","structurallyDeficient":true,"materialName":"Prestressed Concrete","designTypeName":"Box Beam - Multiple","lengthFt":152.9},{"id":"OH-4931955","state":"OH","stateName":"Ohio","countyFips":"097","facilityCarried":"CHESELDINE RD","featuresIntersected":"DEER CREEK","location":"0.13 MI E OF COUNTY RD 71","lat":41.426944,"lon":-84.326944,"lowestRating":3,"yearBuilt":1975,"adt":944,"conditionCategory":"poor","structurallyDeficient":true,"materialName":"Prestressed Concrete Continuous","designTypeName":"Box Beam - Multiple","lengthFt":149.0},{"id":"OH-7141351","state":"OH","stateName":"Ohio","countyFips":"141","facilityCarried":"BLAIN HIGHWAY","featuresIntersected":"RALSTON RUN","location":".03 MI. W OF SR-772","lat":40.006944,"lon":-84.051111,"lowestRating":3,"yearBuilt":1939,"adt":933,"conditionCategory":"poor","structurallyDeficient":true,"materialName":"Concrete","designTypeName":"Slab","lengthFt":33.1},{"id":"OH-8759375","state":"OH","stateName":"Ohio","countyFips":"173","facilityCarried":"POE ROAD","featuresIntersected":"DITCH 2315 POE RD","location":"0.20 ML E OF RANGE LN RD","lat":41.74,"lon":-85.181944,"lowestRating":3,"yearBuilt":1910,"adt":874,"conditionCategory":"poor","structurallyDeficient":true,"materialName":"Concrete","designTypeName":"Slab","lengthFt":24.9},{"id":"OH-0934534","state":"OH","stateName":"Ohio","countyFips":"017","facilityCarried":"MINTON RD","featuresIntersected":"BEALS RUN CREEK","location":".6 MI E OF US 27","lat":39.975,"lon":-85.231944,"lowestRating":3,"yearBuilt":1974,"adt":830,"conditionCategory":"poor","structurallyDeficient":true,"materialName":"Steel","designTypeName":"Stringer/Multi-beam or Girder","lengthFt":96.1},{"id":"OH-4237048","state":"OH","stateName":"Ohio","countyFips":"083","facilityCarried":"BECKLEY ROAD","featuresIntersected":"NORTH BRANCH KOKOSING","location":"0.2 MI WEST OF CR 6","lat":41.028056,"lon":-83.605,"lowestRating":3,"yearBuilt":1904,"adt":816,"conditionCategory":"poor","structurallyDeficient":true,"materialName":"Steel Continuous","designTypeName":"Stringer/Multi-beam or Girder","lengthFt":165.0},{"id":"OH-7142595","state":"OH","stateName":"Ohio","countyFips":"141","facilityCarried":"TREGO CREEK RD","featuresIntersected":"TRIB.N.BRANCH INDIAN CR.","location":"1.20 MI. E OF SULLIVAN RD","lat":39.651944,"lon":-84.133056,"lowestRating":3,"yearBuilt":1940,"adt":810,"conditionCategory":"poor","structurallyDeficient":true,"materialName":"Concrete","designTypeName":"Slab","lengthFt":34.1},{"id":"OH-8432082","state":"OH","stateName":"Ohio","countyFips":"167","facilityCarried":"TOWNSHIP ROAD 443","featuresIntersected":"NEWELLS RUN  *   MUD LAN","location":".37 MI N OF JCT SR 7","lat":39.883056,"lon":-82.183056,"lowestRating":3,"yearBuilt":1974,"adt":797,"conditionCategory":"poor","structurallyDeficient":true,"materialName":"Prestressed Concrete","designTypeName":"Box Beam - Multiple","lengthFt":90.9},{"id":"OH-1834290","state":"OH","stateName":"Ohio","countyFips":"035","facilityCarried":"CHAGRIN RIVER C102","featuresIntersected":"DEER LICK CREEK","location":"120 SE OF MILES RD","lat":42.096944,"lon":-81.595,"lowestRating":3,"yearBuilt":1900,"adt":768,"conditionCategory":"poor","structurallyDeficient":true,"materialName":"Steel Continuous","designTypeName":"Stringer/Multi-beam or Girder","lengthFt":102.0},{"id":"OH-0960306","state":"OH","stateName":"Ohio","countyFips":"017","facilityCarried":"S G STREET","featuresIntersected":"C.I. & W. RR","location":"0.15 NE MILLIKIN STR","lat":39.796944,"lon":-85.496944,"lowestRating":3,"yearBuilt":1910,"adt":750,"conditionCategory":"poor","structurallyDeficient":true,"materialName":"Concrete","designTypeName":"Arch - Deck","lengthFt":126.0},{"id":"OH-4960122","state":"OH","stateName":"Ohio","countyFips":"097","facilityCarried":"MAPLE STREET","featuresIntersected":"SWEENEY RUN","location":"0.6 MI. S. OF OHIO 161","lat":40.658889,"lon":-83.451944,"lowestRating":3,"yearBuilt":1928,"adt":740,"conditionCategory":"poor","structurallyDeficient":true,"materialName":"Steel","designTypeName":"Stringer/Multi-beam or Girder","lengthFt":27.9},{"id":"OH-7146922","state":"OH","stateName":"Ohio","countyFips":"141","facilityCarried":"DRY RUN RD","featuresIntersected":"DRY RUN","location":".30 MI. N OF LICK RUN RD","lat":40.048056,"lon":-83.678889,"lowestRating":3,"yearBuilt":1975,"adt":695,"conditionCategory":"poor","structurallyDeficient":true,"materialName":"Steel","designTypeName":"Stringer/Multi-beam or Girder","lengthFt":45.9},{"id":"OH-4738802","state":"OH","stateName":"Ohio","countyFips":"093","facilityCarried":"PECK WADSWORTH","featuresIntersected":"WELLINGTON CR PECKWADSWO","location":".35MI.EAST OF","lat":41.763056,"lon":-82.495,"lowestRating":3,"yearBuilt":1952,"adt":680,"conditionCategory":"poor","structurallyDeficient":true,"materialName":"Steel","designTypeName":"Truss - Thru","lengthFt":54.1},{"id":"OH-3946088","state":"OH","stateName":"Ohio","countyFips":"077","facilityCarried":"BASELINE 014","featuresIntersected":"BASELINE / CO DI 1750","location":"0.2 MI E OF SR 61","lat":42.16,"lon":-83.856944,"lowestRating":3,"yearBuilt":1954,"adt":663,"conditionCategory":"poor","structurallyDeficient":true,"materialName":"Steel","designTypeName":"Truss - Thru","lengthFt":45.9},{"id":"OH-1358154","state":"OH","stateName":"Ohio","countyFips":"025","facilityCarried":"Glancy Corner M","featuresIntersected":"GRASSY FORK","location":"Glancy Corner Marathon Rd","lat":40.733889,"lon":-85.523889,"lowestRating":3,"yearBuilt":1976,"adt":645,"conditionCategory":"poor","structurallyDeficient":true,"materialName":"Prestressed Concrete","designTypeName":"Box Beam - Multiple","lengthFt":32.2},{"id":"OH-6835678","state":"OH","stateName":"Ohio","countyFips":"135","facilityCarried":"OXFORD GERMANTOWN","featuresIntersected":"CAVE RUN","location":".25 W STEPHENS YOUNG RD","lat":40.361111,"lon":-85.128889,"lowestRating":3,"yearBuilt":1942,"adt":645,"conditionCategory":"poor","structurallyDeficient":true,"materialName":"Masonry","designTypeName":"Arch - Deck","lengthFt":27.9},{"id":"OH-6730329","state":"OH","stateName":"Ohio","countyFips":"133","facilityCarried":"PIONEER TRAIL","featuresIntersected":"AURORA BR CHAGRIN RIVER","location":"AURORA BR CHAGRIN RIVER","lat":41.716944,"lon":-82.383056,"lowestRating":3,"yearBuilt":1988,"adt":636,"conditionCategory":"poor","structurallyDeficient":true,"materialName":"Steel","designTypeName":"Culvert","lengthFt":24.0},{"id":"OH-8532281","state":"OH","stateName":"Ohio","countyFips":"169","facilityCarried":"TWP. ROAD 178","featuresIntersected":"KILLBUCK CREEK","location":"1.4 MI. E. OF CR51","lat":41.778056,"lon":-83.093889,"lowestRating":3,"yearBuilt":1980,"adt":585,"conditionCategory":"poor","structurallyDeficient":true,"materialName":"Steel","designTypeName":"Truss - Thru","lengthFt":65.3},{"id":"OH-2741377","state":"OH","stateName":"Ohio","countyFips":"053","facilityCarried":"BLADEN RD","featuresIntersected":"STREAM","location":"2.62 M E OF STATE RT 218","lat":39.253056,"lon":-83.761111,"lowestRating":3,"yearBuilt":1983,"adt":577,"conditionCategory":"poor","structurallyDeficient":true,"materialName":"Steel","designTypeName":"Stringer/Multi-beam or Girder","lengthFt":22.0},{"id":"OH-0137286","state":"OH","stateName":"Ohio","countyFips":"001","facilityCarried":"OLD 32","featuresIntersected":"EAST FK OHIO BRUSH CREEK","location":"2ND TWIN BRIDGES","lat":39.268889,"lon":-84.796111,"lowestRating":3,"yearBuilt":1968,"adt":571,"conditionCategory":"poor","structurallyDeficient":true,"materialName":"Steel","designTypeName":"Stringer/Multi-beam or Girder","lengthFt":49.9},{"id":"OH-0130303","state":"OH","stateName":"Ohio","countyFips":"001","facilityCarried":"LAWSHE ROAD","featuresIntersected":"OHIO BRUSH CREEK","location":"JUST NORTH OF SR 32","lat":39.541111,"lon":-84.246944,"lowestRating":3,"yearBuilt":1997,"adt":547,"conditionCategory":"poor","structurallyDeficient":true,"materialName":"Steel","designTypeName":"Truss - Thru","lengthFt":149.9},{"id":"OH-5235405","state":"OH","stateName":"Ohio","countyFips":"103","facilityCarried":"RD 145 - WALL RD","featuresIntersected":"RIVER STYX","location":"990 E OF RD 18","lat":42.211111,"lon":-83.086944,"lowestRating":3,"yearBuilt":1972,"adt":542,"conditionCategory":"poor","structurallyDeficient":true,"materialName":"Steel","designTypeName":"Stringer/Multi-beam or Girder","lengthFt":56.1},{"id":"OH-7633378","state":"OH","stateName":"Ohio","countyFips":"151","facilityCarried":"LA3608 BEAUMONT","featuresIntersected":"NEWMAN CREEK","location":"0.2 MI. S. OF CR348","lat":41.43,"lon":-81.703889,"lowestRating":3,"yearBuilt":1955,"adt":520,"conditionCategory":"poor","structurallyDeficient":true,"materialName":"Steel","designTypeName":"Truss - Thru","lengthFt":52.2},{"id":"OH-0933252","state":"OH","stateName":"Ohio","countyFips":"017","facilityCarried":"NICHOLS RD","featuresIntersected":"CURLANE RUN","location":".7 MI E OF US 27","lat":40.115,"lon":-85.73,"lowestRating":3,"yearBuilt":1973,"adt":510,"conditionCategory":"poor","structurallyDeficient":true,"materialName":"Steel","designTypeName":"Stringer/Multi-beam or Girder","lengthFt":50.9},{"id":"OH-8541590","state":"OH","stateName":"Ohio","countyFips":"169","facilityCarried":"TWP. ROAD 436","featuresIntersected":"APPLE CREEK","location":"0.1 MI. S. OF US250","lat":42.12,"lon":-82.068889,"lowestRating":3,"yearBuilt":1986,"adt":505,"conditionCategory":"poor","structurallyDeficient":true,"materialName":"Steel","designTypeName":"Truss - Thru","lengthFt":73.2},{"id":"OH-3946371","state":"OH","stateName":"Ohio","countyFips":"077","facilityCarried":"BOUGHTONVILLE 105","featuresIntersected":"BOUGHTNVL/W BR HURON RVR","location":"0.4 MI EAST OF SR 61","lat":41.29,"lon":-83.67,"lowestRating":3,"yearBuilt":1956,"adt":493,"conditionCategory":"poor","structurallyDeficient":true,"materialName":"Steel","designTypeName":"Truss - Thru","lengthFt":87.9},{"id":"OH-7844468","state":"OH","stateName":"Ohio","countyFips":"155","facilityCarried":"TOWNSHIP ROAD 222C","featuresIntersected":"CENTER CREEK","location":"0.1 E. S.R.45","lat":42.705,"lon":-82.133056,"lowestRating":3,"yearBuilt":1991,"adt":492,"conditionCategory":"poor","structurallyDeficient":true,"materialName":"Steel","designTypeName":"Stringer/Multi-beam or Girder","lengthFt":36.1},{"id":"OH-7844433","state":"OH","stateName":"Ohio","countyFips":"155","facilityCarried":"TOWNSHIP ROAD 222B","featuresIntersected":"MUD RUN","location":"0.7 MI. E. CH217","lat":42.345,"lon":-81.125,"lowestRating":3,"yearBuilt":1907,"adt":490,"conditionCategory":"poor","structurallyDeficient":true,"materialName":"Steel","designTypeName":"Stringer/Multi-beam or Girder","lengthFt":30.8},{"id":"OH-0131881","state":"OH","stateName":"Ohio","countyFips":"001","facilityCarried":"MARBLE FURNACE RD.","featuresIntersected":"OHIO BRUSH CREEK","location":"0.37 MI NE OF JCT C100","lat":39.648056,"lon":-84.56,"lowestRating":3,"yearBuilt":1948,"adt":485,"conditionCategory":"poor","structurallyDeficient":true,"materialName":"Steel Continuous","designTypeName":"Stringer/Multi-beam or Girder","lengthFt":190.9},{"id":"OH-3530973","state":"OH","stateName":"Ohio","countyFips":"069","facilityCarried":"Co. Rd. 2","featuresIntersected":"DITCH 270","location":"0.15 mi. east of Rd. 15","lat":42.438889,"lon":-84.233056,"lowestRating":3,"yearBuilt":1970,"adt":477,"conditionCategory":"poor","structurallyDeficient":true,"materialName":"Steel","designTypeName":"Stringer/Multi-beam or Girder","lengthFt":47.9},{"id":"OH-8031401","state":"OH","stateName":"Ohio","countyFips":"159","facilityCarried":"CR67D STRENG RD","featuresIntersected":"BIG DARBY","location":"0.25MI S of SR38","lat":41.061111,"lon":-84.59,"lowestRating":3,"yearBuilt":1914,"adt":474,"conditionCategory":"poor","structurallyDeficient":true,"materialName":"Steel","designTypeName":"Truss - Thru","lengthFt":207.0},{"id":"OH-5765145","state":"OH","stateName":"Ohio","countyFips":"113","facilityCarried":"S CASSEL ROAD","featuresIntersected":"POPLAR CREEK","location":".6 MI N OF LITTLE YORK RD","lat":41.3,"lon":-84.616944,"lowestRating":3,"yearBuilt":1915,"adt":452,"conditionCategory":"poor","structurallyDeficient":true,"materialName":"Steel","designTypeName":"Stringer/Multi-beam or Girder","lengthFt":44.0},{"id":"OH-4035224","state":"OH","stateName":"Ohio","countyFips":"079","facilityCarried":"RAMEY DR","featuresIntersected":"BUCKEYE CREEK","location":"0.1 MI. E. OF T-236","lat":39.755,"lon":-83.583056,"lowestRating":3,"yearBuilt":1960,"adt":451,"conditionCategory":"poor","structurallyDeficient":true,"materialName":"Wood or Timber","designTypeName":"Stringer/Multi-beam or Girder","lengthFt":50.9},{"id":"OH-4035232","state":"OH","stateName":"Ohio","countyFips":"079","facilityCarried":"RAMEY DR","featuresIntersected":"BUCKEYE CK","location":".19 MILE EAST OF T-925","lat":39.29,"lon":-83.435,"lowestRating":3,"yearBuilt":1960,"adt":451,"conditionCategory":"poor","structurallyDeficient":true,"materialName":"Wood or Timber","designTypeName":"Stringer/Multi-beam or Girder","lengthFt":75.1},{"id":"OH-0562335","state":"OH","stateName":"Ohio","countyFips":"009","facilityCarried":"VALLEY STREET","featuresIntersected":"W BRANCH SUNDAY CREEK","location":"0.01 MI. S OF CONGRESS ST","lat":39.591111,"lon":-83.26,"lowestRating":3,"yearBuilt":1900,"adt":450,"conditionCategory":"poor","structurallyDeficient":true,"materialName":"Steel","designTypeName":"Stringer/Multi-beam or Girder","lengthFt":26.9},{"id":"OH-3430383","state":"OH","stateName":"Ohio","countyFips":"067","facilityCarried":"COUNTY RD 13","featuresIntersected":"NORTH FORK OF SHORT CREE","location":"0.1 MI S OF JCT CR 14","lat":41.438056,"lon":-82.286944,"lowestRating":3,"yearBuilt":1960,"adt":448,"conditionCategory":"poor","structurallyDeficient":true,"materialName":"Concrete Continuous","designTypeName":"Slab","lengthFt":54.1},{"id":"OH-8552800","state":"OH","stateName":"Ohio","countyFips":"169","facilityCarried":"COUNTY ROAD 225","featuresIntersected":"S. BRANCH SALT CREEK","location":"150 FEET N. OF CR109","lat":41.571944,"lon":-81.921111,"lowestRating":3,"yearBuilt":1934,"adt":445,"conditionCategory":"poor","structurallyDeficient":true,"materialName":"Concrete","designTypeName":"Tee Beam","lengthFt":49.5},{"id":"OH-4930053","state":"OH","stateName":"Ohio","countyFips":"097","facilityCarried":"Big Plain Circlevi","featuresIntersected":"DEER CREEK","location":"3 MI E. OF COUNTY LINE","lat":40.806111,"lon":-84.271944,"lowestRating":3,"yearBuilt":1964,"adt":444,"conditionCategory":"poor","structurallyDeficient":true,"materialName":"Prestressed Concrete Continuous","designTypeName":"Box Beam - Multiple","lengthFt":183.1},{"id":"OH-8532036","state":"OH","stateName":"Ohio","countyFips":"169","facilityCarried":"COUNTY ROAD 51","featuresIntersected":"BRANCH OF KILLBUCK CK","location":"0.5 MI. N. OF SR604","lat":41.101944,"lon":-82.356944,"lowestRating":3,"yearBuilt":1922,"adt":435,"conditionCategory":"poor","structurallyDeficient":true,"materialName":"Steel","designTypeName":"Stringer/Multi-beam or Girder","lengthFt":40.0},{"id":"OH-3938786","state":"OH","stateName":"Ohio","countyFips":"077","facilityCarried":"COOK 185","featuresIntersected":"COOK / VERMILION RVR","location":"0.3 MI S OF FITCHVILLE RI","lat":42.348056,"lon":-83.7,"lowestRating":3,"yearBuilt":1940,"adt":422,"conditionCategory":"poor","structurallyDeficient":true,"materialName":"Steel","designTypeName":"Truss - Thru","lengthFt":103.0},{"id":"OH-6833268","state":"OH","stateName":"Ohio","countyFips":"135","facilityCarried":"B ROAD","featuresIntersected":"LITTLE CREEK","location":"1ST E OF CH 10","lat":40.086111,"lon":-85.883889,"lowestRating":3,"yearBuilt":1960,"adt":420,"conditionCategory":"poor","structurallyDeficient":true,"materialName":"Concrete","designTypeName":"Slab","lengthFt":24.0},{"id":"OH-7332408","state":"OH","stateName":"Ohio","countyFips":"145","facilityCarried":"RARDEN-HAZELBAKER","featuresIntersected":"RARDEN-HAZELBAKER(BRSH C","location":"07.88 MI. N OF SR348","lat":38.966111,"lon":-84.488889,"lowestRating":3,"yearBuilt":1962,"adt":419,"conditionCategory":"poor","structurallyDeficient":true,"materialName":"Steel","designTypeName":"Truss - Thru","lengthFt":107.0},{"id":"OH-7331142","state":"OH","stateName":"Ohio","countyFips":"145","facilityCarried":"ROCKY FORK ROAD","featuresIntersected":"ROCKY FORK RD (S FORK BC","location":"08.50 MI. N OF SR125","lat":39.121111,"lon":-83.681111,"lowestRating":3,"yearBuilt":1940,"adt":417,"conditionCategory":"poor","structurallyDeficient":true,"materialName":"Steel","designTypeName":"Truss - Thru","lengthFt":149.9},{"id":"OH-0134961","state":"OH","stateName":"Ohio","countyFips":"001","facilityCarried":"NEWMAN RD.","featuresIntersected":"SOUTHFORKSCIOTOBRUSHCREE","location":"0.2 MI. W OF JCT. C-18D","lat":38.813889,"lon":-84.788056,"lowestRating":3,"yearBuilt":1900,"adt":385,"conditionCategory":"poor","structurallyDeficient":true,"materialName":"Steel","designTypeName":"Truss - Thru","lengthFt":91.9},{"id":"OH-1630016","state":"OH","stateName":"Ohio","countyFips":"031","facilityCarried":"COUNTY ROAD 365","featuresIntersected":"MOHICAN RIVER","location":"200 FT WEST OF CAVALLO","lat":41.676111,"lon":-83.393889,"lowestRating":3,"yearBuilt":1912,"adt":385,"conditionCategory":"poor","structurallyDeficient":true,"materialName":"Steel","designTypeName":"Truss - Thru","lengthFt":199.1},{"id":"OH-2740494","state":"OH","stateName":"Ohio","countyFips":"053","facilityCarried":"UP CREEK RD","featuresIntersected":"UP CREEK","location":"053MI.S.CHAMBERLAIN RD.","lat":40.0,"lon":-82.488889,"lowestRating":3,"yearBuilt":1997,"adt":385,"conditionCategory":"poor","structurallyDeficient":true,"materialName":"Steel","designTypeName":"Stringer/Multi-beam or Girder","lengthFt":24.0},{"id":"OH-3436500","state":"OH","stateName":"Ohio","countyFips":"067","facilityCarried":"COUNTY RD 27","featuresIntersected":"SKULL FORK","location":"0.3 MI S OF JCT SR 800","lat":41.615,"lon":-81.638056,"lowestRating":3,"yearBuilt":1900,"adt":385,"conditionCategory":"poor","structurallyDeficient":true,"materialName":"Steel","designTypeName":"Stringer/Multi-beam or Girder","lengthFt":53.1},{"id":"OH-5834449","state":"OH","stateName":"Ohio","countyFips":"115","facilityCarried":"COUNTY ROAD 52","featuresIntersected":"GOSHEN CREEK","location":"300 FT WEST OF CR-73","lat":40.763889,"lon":-83.306111,"lowestRating":3,"yearBuilt":1981,"adt":385,"conditionCategory":"poor","structurallyDeficient":true,"materialName":"Steel","designTypeName":"Girder and Floorbeam","lengthFt":58.1},{"id":"OH-6031374","state":"OH","stateName":"Ohio","countyFips":"119","facilityCarried":"WION RIDGE ROAD","featuresIntersected":"KENT RUN","location":"214FT S OF SUGARGROVE RD","lat":40.253889,"lon":-82.166944,"lowestRating":3,"yearBuilt":1950,"adt":385,"conditionCategory":"poor","structurallyDeficient":true,"materialName":"Steel","designTypeName":"Stringer/Multi-beam or Girder","lengthFt":36.1},{"id":"OH-6631444","state":"OH","stateName":"Ohio","countyFips":"131","facilityCarried":"CO RD 54","featuresIntersected":"MEADOW RUN","location":"01.18 MI S.OF JCT CR-51","lat":39.946111,"lon":-83.723889,"lowestRating":3,"yearBuilt":1981,"adt":385,"conditionCategory":"poor","structurallyDeficient":true,"materialName":"Steel","designTypeName":"Stringer/Multi-beam or Girder","lengthFt":40.0},{"id":"OH-6836232","state":"OH","stateName":"Ohio","countyFips":"135","facilityCarried":"4 MI. ST. LINE RD.","featuresIntersected":"LITTLE FOUR MILE CREEK","location":"1ST W OF CH 41","lat":39.86,"lon":-85.185,"lowestRating":3,"yearBuilt":1900,"adt":385,"conditionCategory":"poor","structurallyDeficient":true,"materialName":"Concrete","designTypeName":"Box Beam - Multiple","lengthFt":32.2},{"id":"OH-7844301","state":"OH","stateName":"Ohio","countyFips":"155","facilityCarried":"PARKS WEST ROAD","featuresIntersected":"ANDREWS CREEK","location":"350 FEET WEST OF CH223","lat":42.356111,"lon":-81.806111,"lowestRating":3,"yearBuilt":1989,"adt":385,"conditionCategory":"poor","structurallyDeficient":true,"materialName":"Steel","designTypeName":"Culvert","lengthFt":28.9},{"id":"OH-3930734","state":"OH","stateName":"Ohio","countyFips":"077","facilityCarried":"SANDHILL 040","featuresIntersected":"SANDHILL / SEYMOUR CRK","location":"0.7 MI S OF SR 20","lat":42.84,"lon":-84.111944,"lowestRating":3,"yearBuilt":1952,"adt":384,"conditionCategory":"poor","structurallyDeficient":true,"materialName":"Steel","designTypeName":"Stringer/Multi-beam or Girder","lengthFt":29.9},{"id":"OH-3930785","state":"OH","stateName":"Ohio","countyFips":"077","facilityCarried":"SANDHILL RD 040","featuresIntersected":"SANDHILL / MEGGINSON CRK","location":"0.2 MI S OF SR 20","lat":42.145,"lon":-84.183056,"lowestRating":3,"yearBuilt":1969,"adt":384,"conditionCategory":"poor","structurallyDeficient":true,"materialName":"Prestressed Concrete","designTypeName":"Box Beam - Multiple","lengthFt":34.1},{"id":"OH-3937453","state":"OH","stateName":"Ohio","countyFips":"077","facilityCarried":"PERU OLEANA  164","featuresIntersected":"PERU OLENA / CO DI 1300","location":"0.1 MI E OF RIDGE RD","lat":42.235,"lon":-84.203056,"lowestRating":3,"yearBuilt":1966,"adt":384,"conditionCategory":"poor","structurallyDeficient":true,"materialName":"Concrete","designTypeName":"Box Beam - Multiple","lengthFt":33.1},{"id":"OH-6037208","state":"OH","stateName":"Ohio","countyFips":"119","facilityCarried":"BAGLEY ROAD","featuresIntersected":"KENT RUN","location":"1.01 MI W OF WESLEY CHAPL","lat":41.381944,"lon":-82.983056,"lowestRating":3,"yearBuilt":1951,"adt":375,"conditionCategory":"poor","structurallyDeficient":true,"materialName":"Steel","designTypeName":"Truss - Thru","lengthFt":55.1},{"id":"OH-0540919","state":"OH","stateName":"Ohio","countyFips":"009","facilityCarried":"TR 315","featuresIntersected":"WEST BRCH SUNDAY CREEK","location":"JCT CR 31","lat":39.736944,"lon":-82.386111,"lowestRating":3,"yearBuilt":1975,"adt":365,"conditionCategory":"poor","structurallyDeficient":true,"materialName":"Steel","designTypeName":"Girder and Floorbeam","lengthFt":65.0},{"id":"OH-6830196","state":"OH","stateName":"Ohio","countyFips":"135","facilityCarried":"ENTERPRISE RD","featuresIntersected":"TWIN CREEK","location":".40 E OF FUDGE RD","lat":40.32,"lon":-85.716111,"lowestRating":3,"yearBuilt":1948,"adt":357,"conditionCategory":"poor","structurallyDeficient":true,"materialName":"Steel Continuous","designTypeName":"Stringer/Multi-beam or Girder","lengthFt":347.1},{"id":"OH-3530752","state":"OH","stateName":"Ohio","countyFips":"069","facilityCarried":"Twp. Rd. G1","featuresIntersected":"WADE CREEK 1566","location":"0.4 mi. west of Rd. 17","lat":42.306111,"lon":-85.656111,"lowestRating":3,"yearBuilt":1958,"adt":351,"conditionCategory":"poor","structurallyDeficient":true,"materialName":"Steel","designTypeName":"Stringer/Multi-beam or Girder","lengthFt":42.0},{"id":"OH-6732879","state":"OH","stateName":"Ohio","countyFips":"133","facilityCarried":"ELLIMAN RD","featuresIntersected":"CUYAHOGA TRIBUTARY","location":"0.5MI S OF FROST RDCH207","lat":41.638889,"lon":-82.866944,"lowestRating":3,"yearBuilt":1940,"adt":351,"conditionCategory":"poor","structurallyDeficient":true,"materialName":"Steel","designTypeName":"Stringer/Multi-beam or Girder","lengthFt":24.9},{"id":"OH-6841333","state":"OH","stateName":"Ohio","countyFips":"135","facilityCarried":"CONCORD FAIRHAVEN","featuresIntersected":"FOUR MILE CREEK","location":".30 S OF CH 45","lat":39.743056,"lon":-84.978889,"lowestRating":3,"yearBuilt":1955,"adt":351,"conditionCategory":"poor","structurallyDeficient":true,"materialName":"Steel","designTypeName":"Truss - Thru","lengthFt":83.0},{"id":"OH-6841430","state":"OH","stateName":"Ohio","countyFips":"135","facilityCarried":"MORNING SUN RD","featuresIntersected":"MORNING SUN BRANCH","location":".15 E OF EATON OXFORD RD","lat":40.906111,"lon":-85.011944,"lowestRating":3,"yearBuilt":1930,"adt":351,"conditionCategory":"poor","structurallyDeficient":true,"materialName":"Concrete","designTypeName":"Slab","lengthFt":24.0},{"id":"OH-0334642","state":"OH","stateName":"Ohio","countyFips":"005","facilityCarried":"TOWNSHIP ROAD 1104","featuresIntersected":"LANG CREEK","location":".23 M E OF SR 511","lat":41.061111,"lon":-83.571111,"lowestRating":3,"yearBuilt":1977,"adt":349,"conditionCategory":"poor","structurallyDeficient":true,"materialName":"Steel Continuous","designTypeName":"Stringer/Multi-beam or Girder","lengthFt":65.0},{"id":"OH-7332998","state":"OH","stateName":"Ohio","countyFips":"145","facilityCarried":"POND RUN ROAD","featuresIntersected":"POND RUN RD (MIDDLE FORK","location":"00.40 MI. E OF SF1","lat":39.811944,"lon":-83.383056,"lowestRating":3,"yearBuilt":1971,"adt":339,"conditionCategory":"poor","structurallyDeficient":true,"materialName":"Steel","designTypeName":"Stringer/Multi-beam or Girder","lengthFt":32.2},{"id":"OH-7333021","state":"OH","stateName":"Ohio","countyFips":"145","facilityCarried":"POND RUN ROAD","featuresIntersected":"POND RUN (POND RUN)","location":"01.70 MI. E OF SF1","lat":39.018889,"lon":-84.026111,"lowestRating":3,"yearBuilt":1900,"adt":339,"conditionCategory":"poor","structurallyDeficient":true,"materialName":"Steel Continuous","designTypeName":"Stringer/Multi-beam or Girder","lengthFt":54.1},{"id":"OH-0540927","state":"OH","stateName":"Ohio","countyFips":"009","facilityCarried":"T302","featuresIntersected":"MODOC RUN","location":"MODOC RD. TRIM 25","lat":39.658056,"lon":-83.433889,"lowestRating":3,"yearBuilt":1971,"adt":324,"conditionCategory":"poor","structurallyDeficient":true,"materialName":"Steel","designTypeName":"Stringer/Multi-beam or Girder","lengthFt":24.9},{"id":"OH-1333518","state":"OH","stateName":"Ohio","countyFips":"025","facilityCarried":"Ireton Trees","featuresIntersected":"NORTH FORK","location":"1.25 MI E. OF INT SR32","lat":40.446944,"lon":-84.361111,"lowestRating":3,"yearBuilt":2004,"adt":324,"conditionCategory":"poor","structurallyDeficient":true,"materialName":"Prestressed Concrete","designTypeName":"Box Beam - Multiple","lengthFt":70.9},{"id":"OH-3939308","state":"OH","stateName":"Ohio","countyFips":"077","facilityCarried":"VESTA  182","featuresIntersected":"VESTA/E BR VERMILION RVR","location":"0.4 MI S OF LEROY ROAD","lat":41.636944,"lon":-83.006944,"lowestRating":3,"yearBuilt":1962,"adt":324,"conditionCategory":"poor","structurallyDeficient":true,"materialName":"Steel","designTypeName":"Truss - Thru","lengthFt":44.0},{"id":"OH-3946479","state":"OH","stateName":"Ohio","countyFips":"077","facilityCarried":"BUCKINGHAN  181","featuresIntersected":"BUCKINGHAM / MARSH RUN","location":"0.4 MI NORTH OF MAY RD","lat":41.673056,"lon":-82.831944,"lowestRating":3,"yearBuilt":1922,"adt":324,"conditionCategory":"poor","structurallyDeficient":true,"materialName":"Steel","designTypeName":"Truss - Thru","lengthFt":59.1},{"id":"OH-4033469","state":"OH","stateName":"Ohio","countyFips":"079","facilityCarried":"BROHARD RD","featuresIntersected":"PIGEON CREEK","location":"0.05 MI E OF CR25","lat":40.338056,"lon":-82.886111,"lowestRating":3,"yearBuilt":1955,"adt":324,"conditionCategory":"poor","structurallyDeficient":true,"materialName":"Steel","designTypeName":"Truss - Thru","lengthFt":53.1},{"id":"OH-6634214","state":"OH","stateName":"Ohio","countyFips":"131","facilityCarried":"612","featuresIntersected":"CSX RAIL TRANSPORT","location":"0.19 MI N OF CR66","lat":40.43,"lon":-83.81,"lowestRating":3,"yearBuilt":1915,"adt":324,"conditionCategory":"poor","structurallyDeficient":true,"materialName":"Steel","designTypeName":"Girder and Floorbeam","lengthFt":161.1},{"id":"OH-6730922","state":"OH","stateName":"Ohio","countyFips":"133","facilityCarried":"WHIPPOORWILL RD","featuresIntersected":"KALE CREEK TRIBUTARY","location":"KALE CREEK TRIBUTARY","lat":42.433056,"lon":-82.556111,"lowestRating":3,"yearBuilt":1973,"adt":324,"conditionCategory":"poor","structurallyDeficient":true,"materialName":"Steel","designTypeName":"Stringer/Multi-beam or Girder","lengthFt":32.2},{"id":"OH-6732909","state":"OH","stateName":"Ohio","countyFips":"133","facilityCarried":"Jones Road","featuresIntersected":"Kale Creek","location":"Kale Creek","lat":42.128056,"lon":-82.278056,"lowestRating":3,"yearBuilt":1978,"adt":324,"conditionCategory":"poor","structurallyDeficient":true,"materialName":"Steel","designTypeName":"Stringer/Multi-beam or Girder","lengthFt":40.0},{"id":"OH-6836178","state":"OH","stateName":"Ohio","countyFips":"135","facilityCarried":"SILVERHART RD.","featuresIntersected":"HOPEWELL CREEK","location":"1ST W. OF EATON OXFORD RD","lat":40.016944,"lon":-85.451944,"lowestRating":3,"yearBuilt":1925,"adt":324,"conditionCategory":"poor","structurallyDeficient":true,"materialName":"Steel","designTypeName":"Stringer/Multi-beam or Girder","lengthFt":25.9},{"id":"OH-7031173","state":"OH","stateName":"Ohio","countyFips":"139","facilityCarried":"COURSEN RD","featuresIntersected":"STEEL RUN","location":"0.8MI E. OF SR 546","lat":41.42,"lon":-83.168889,"lowestRating":3,"yearBuilt":1937,"adt":324,"conditionCategory":"poor","structurallyDeficient":true,"materialName":"Concrete","designTypeName":"Tee Beam","lengthFt":80.1},{"id":"OH-7031785","state":"OH","stateName":"Ohio","countyFips":"139","facilityCarried":"BRUBAKER CREEK RD","featuresIntersected":"FRIENDS CREEK","location":"1.2 MI N OF 5 PTS EAST RD","lat":41.721944,"lon":-83.55,"lowestRating":3,"yearBuilt":1969,"adt":324,"conditionCategory":"poor","structurallyDeficient":true,"materialName":"Steel","designTypeName":"Stringer/Multi-beam or Girder","lengthFt":39.0},{"id":"OH-7033915","state":"OH","stateName":"Ohio","countyFips":"139","facilityCarried":"CHEW RD.","featuresIntersected":"NORFOLK-SOUTHERN RXR","location":"75FT. W. OF SR 39","lat":41.463889,"lon":-83.678056,"lowestRating":3,"yearBuilt":1910,"adt":324,"conditionCategory":"poor","structurallyDeficient":true,"materialName":"Concrete","designTypeName":"Girder and Floorbeam","lengthFt":128.0},{"id":"OH-8634629","state":"OH","stateName":"Ohio","countyFips":"171","facilityCarried":"TR 66 (21)","featuresIntersected":"DITCH #100","location":"02960 RD 21","lat":42.018889,"lon":-84.651944,"lowestRating":3,"yearBuilt":1969,"adt":324,"conditionCategory":"poor","structurallyDeficient":true,"materialName":"Wood or Timber","designTypeName":"Culvert","lengthFt":21.3},{"id":"OH-7333056","state":"OH","stateName":"Ohio","countyFips":"145","facilityCarried":"STONEY RUN RD","featuresIntersected":"STONY RUN RD (STONY RUN)","location":"00.65 MI. N OF SR52","lat":40.146111,"lon":-84.708056,"lowestRating":3,"yearBuilt":1940,"adt":323,"conditionCategory":"poor","structurallyDeficient":true,"materialName":"Steel","designTypeName":"Stringer/Multi-beam or Girder","lengthFt":35.1},{"id":"OH-6932401","state":"OH","stateName":"Ohio","countyFips":"137","facilityCarried":"TOWNSHIP ROAD 2","featuresIntersected":"CARTWRIGHT RUN","location":"0.31 MI N OF SR 12","lat":41.446944,"lon":-85.531111,"lowestRating":3,"yearBuilt":1960,"adt":322,"conditionCategory":"poor","structurallyDeficient":true,"materialName":"Steel","designTypeName":"Stringer/Multi-beam or Girder","lengthFt":24.0},{"id":"OH-5134390","state":"OH","stateName":"Ohio","countyFips":"101","facilityCarried":"COUNTY ROAD 026Y","featuresIntersected":"BR OVER FLAT RUN","location":"0.8 MI E OF JCT SR100","lat":41.548056,"lon":-83.806944,"lowestRating":3,"yearBuilt":1981,"adt":319,"conditionCategory":"poor","structurallyDeficient":true,"materialName":"Prestressed Concrete","designTypeName":"Box Beam - Multiple","lengthFt":66.9},{"id":"OH-6037496","state":"OH","stateName":"Ohio","countyFips":"119","facilityCarried":"SHAW ROAD","featuresIntersected":"MOXAHALA CREEK TRIB","location":".12 MI S OF MOXADARLA RD","lat":41.226944,"lon":-82.853056,"lowestRating":3,"yearBuilt":1945,"adt":317,"conditionCategory":"poor","structurallyDeficient":true,"materialName":"Steel","designTypeName":"Stringer/Multi-beam or Girder","lengthFt":32.2},{"id":"OH-7135769","state":"OH","stateName":"Ohio","countyFips":"141","facilityCarried":"NORMAN HILL RD","featuresIntersected":"LITTLE CREEK","location":".01 MI. S OF MCCALLA RD","lat":40.746111,"lon":-84.078889,"lowestRating":3,"yearBuilt":1904,"adt":311,"conditionCategory":"poor","structurallyDeficient":true,"materialName":"Steel","designTypeName":"Truss - Thru","lengthFt":81.0},{"id":"OH-7841809","state":"OH","stateName":"Ohio","countyFips":"155","facilityCarried":"BARCLAY MESSERLY","featuresIntersected":"EAGLE CREEK","location":"1100 FT SOUTH OF CH134","lat":42.025,"lon":-81.731111,"lowestRating":3,"yearBuilt":1950,"adt":310,"conditionCategory":"poor","structurallyDeficient":true,"materialName":"Steel","designTypeName":"Truss - Thru","lengthFt":70.9},{"id":"OH-2041081","state":"OH","stateName":"Ohio","countyFips":"039","facilityCarried":"SCOTT RD","featuresIntersected":"PRAIRIE CREEK","location":".25 MI W OF FLICKINGER RD","lat":42.71,"lon":-86.126111,"lowestRating":3,"yearBuilt":1980,"adt":306,"conditionCategory":"poor","structurallyDeficient":true,"materialName":"Steel","designTypeName":"Culvert","lengthFt":45.9},{"id":"OH-1860015","state":"OH","stateName":"Ohio","countyFips":"035","facilityCarried":"West 227th St.","featuresIntersected":"Coe Creek","location":"0.5 MI N OF S.R. 17","lat":42.586111,"lon":-82.378889,"lowestRating":3,"yearBuilt":1973,"adt":300,"conditionCategory":"poor","structurallyDeficient":true,"materialName":"Steel","designTypeName":"Culvert","lengthFt":24.9},{"id":"OH-6630537","state":"OH","stateName":"Ohio","countyFips":"131","facilityCarried":"CO RD 64","featuresIntersected":"CSX TRANSPORTATION INC.","location":"0.04 MI W.OF JCT CR-66","lat":40.536111,"lon":-84.348056,"lowestRating":3,"yearBuilt":1916,"adt":287,"conditionCategory":"poor","structurallyDeficient":true,"materialName":"Steel","designTypeName":"Girder and Floorbeam","lengthFt":119.1},{"id":"OH-4532856","state":"OH","stateName":"Ohio","countyFips":"089","facilityCarried":"Ginger Hill Rd","featuresIntersected":"North Fork","location":"200 Ft E of SR 13","lat":41.146944,"lon":-83.398889,"lowestRating":3,"yearBuilt":1990,"adt":279,"conditionCategory":"poor","structurallyDeficient":true,"materialName":"Steel","designTypeName":"Truss - Thru","lengthFt":146.0},{"id":"OH-5932602","state":"OH","stateName":"Ohio","countyFips":"117","facilityCarried":"TR221","featuresIntersected":"ALUM CREEK","location":".2 MI.E.INT.CR24 & TR221","lat":41.55,"lon":-83.433056,"lowestRating":3,"yearBuilt":1906,"adt":267,"conditionCategory":"poor","structurallyDeficient":true,"materialName":"Aluminum/Wrought Iron/Cast Iron","designTypeName":"Truss - Thru","lengthFt":90.9},{"id":"OH-3330664","state":"OH","stateName":"Ohio","countyFips":"065","facilityCarried":"COUNTY ROAD 65","featuresIntersected":"NORTH FORK","location":".1 MI S OF JCT OF CR 200","lat":41.113056,"lon":-84.811944,"lowestRating":3,"yearBuilt":1944,"adt":265,"conditionCategory":"poor","structurallyDeficient":true,"materialName":"Concrete","designTypeName":"Tee Beam","lengthFt":40.0},{"id":"OH-0537985","state":"OH","stateName":"Ohio","countyFips":"009","facilityCarried":"JOY","featuresIntersected":"OPPOSUM CREEK","location":"JCT SR 550","lat":39.721944,"lon":-83.166111,"lowestRating":3,"yearBuilt":1966,"adt":263,"conditionCategory":"poor","structurallyDeficient":true,"materialName":"Steel","designTypeName":"Stringer/Multi-beam or Girder","lengthFt":59.1},{"id":"OH-7843542","state":"OH","stateName":"Ohio","countyFips":"155","facilityCarried":"DENNISON ASHTABULA","featuresIntersected":"STREAM - FLOWS WEST","location":"1500 FT NORTH OF TH284","lat":41.616944,"lon":-81.125,"lowestRating":3,"yearBuilt":1973,"adt":258,"conditionCategory":"poor","structurallyDeficient":true,"materialName":"Steel","designTypeName":"Culvert","lengthFt":22.0},{"id":"OH-1867644","state":"OH","stateName":"Ohio","countyFips":"035","facilityCarried":"OLD DETROIT AVENUE","featuresIntersected":"ABANDONED CONRAIL RR","location":"S. OF CENTER ST (FLATS)","lat":42.436111,"lon":-82.231944,"lowestRating":3,"yearBuilt":1853,"adt":250,"conditionCategory":"poor","structurallyDeficient":true,"materialName":"Masonry","designTypeName":"Culvert","lengthFt":47.9},{"id":"OH-5763827","state":"OH","stateName":"Ohio","countyFips":"113","facilityCarried":"WEST AVENUE","featuresIntersected":"BR OF LITTLE BEAVER CK","location":"600 FT N OF ANSEL DR","lat":40.786944,"lon":-85.711944,"lowestRating":3,"yearBuilt":1980,"adt":250,"conditionCategory":"poor","structurallyDeficient":true,"materialName":"Prestressed Concrete","designTypeName":"Box Beam - Multiple","lengthFt":35.1},{"id":"OH-7738153","state":"OH","stateName":"Ohio","countyFips":"153","facilityCarried":"GRILL ROAD","featuresIntersected":"PANCAKE CREEK","location":"2300 FT E OF CLEV-MASS RD","lat":41.293889,"lon":-82.258056,"lowestRating":3,"yearBuilt":1968,"adt":250,"conditionCategory":"poor","structurallyDeficient":true,"materialName":"Steel","designTypeName":"Culvert","lengthFt":34.1},{"id":"OH-4932013","state":"OH","stateName":"Ohio","countyFips":"097","facilityCarried":"KELLOUGH RD","featuresIntersected":"PAINT CREEK","location":"0.13 MI NE OF COUNTY LINE","lat":39.941111,"lon":-84.753056,"lowestRating":3,"yearBuilt":1910,"adt":242,"conditionCategory":"poor","structurallyDeficient":true,"materialName":"Steel","designTypeName":"Stringer/Multi-beam or Girder","lengthFt":60.0},{"id":"OH-6037399","state":"OH","stateName":"Ohio","countyFips":"119","facilityCarried":"SLACK ROAD","featuresIntersected":"KENT RUN","location":"0.84 MI NE OF BAGLEY ROAD","lat":41.245,"lon":-82.208889,"lowestRating":3,"yearBuilt":1900,"adt":240,"conditionCategory":"poor","structurallyDeficient":true,"materialName":"Steel","designTypeName":"Truss - Thru","lengthFt":65.0},{"id":"OH-6038395","state":"OH","stateName":"Ohio","countyFips":"119","facilityCarried":"WORTMAN ROAD","featuresIntersected":"THOMPSON RUN","location":"INTER OF COOPERMILL ROAD","lat":41.008056,"lon":-83.721111,"lowestRating":3,"yearBuilt":1952,"adt":240,"conditionCategory":"poor","structurallyDeficient":true,"materialName":"Steel","designTypeName":"Truss - Thru","lengthFt":69.9},{"id":"OH-7841493","state":"OH","stateName":"Ohio","countyFips":"155","facilityCarried":"KIBLER TOOT ROAD","featuresIntersected":"DUCK CREEK","location":"800 FT WEST OF CH83","lat":42.118889,"lon":-80.993889,"lowestRating":3,"yearBuilt":1952,"adt":240,"conditionCategory":"poor","structurallyDeficient":true,"materialName":"Steel","designTypeName":"Truss - Thru","lengthFt":42.0},{"id":"OH-4932269","state":"OH","stateName":"Ohio","countyFips":"097","facilityCarried":"GLADE RUN RD","featuresIntersected":"DEER CREEK","location":"0.39 MI N OF COUNTY RD 4","lat":40.103056,"lon":-84.006111,"lowestRating":3,"yearBuilt":1957,"adt":233,"conditionCategory":"poor","structurallyDeficient":true,"materialName":"Steel Continuous","designTypeName":"Stringer/Multi-beam or Girder","lengthFt":172.9},{"id":"OH-6049192","state":"OH","stateName":"Ohio","countyFips":"119","facilityCarried":"PIPER ROAD","featuresIntersected":"SALT CREEK","location":"1.24 MI S OF SR 93","lat":41.428056,"lon":-82.998889,"lowestRating":3,"yearBuilt":1967,"adt":223,"conditionCategory":"poor","structurallyDeficient":true,"materialName":"Steel","designTypeName":"Truss - Thru","lengthFt":77.1},{"id":"OH-5331366","state":"OH","stateName":"Ohio","countyFips":"105","facilityCarried":"C39 HEMLOCK GROVE","featuresIntersected":"W. BR. SHADE RIVER","location":"0.534 MILE N. OF T162","lat":40.283889,"lon":-82.188056,"lowestRating":3,"yearBuilt":1900,"adt":213,"conditionCategory":"poor","structurallyDeficient":true,"materialName":"Steel","designTypeName":"Stringer/Multi-beam or Girder","lengthFt":49.9},{"id":"OH-0544930","state":"OH","stateName":"Ohio","countyFips":"009","facilityCarried":"T267","featuresIntersected":"HEWETT FORK","location":"0.1 MI. S OF TR269","lat":39.601111,"lon":-83.365,"lowestRating":3,"yearBuilt":1952,"adt":209,"conditionCategory":"poor","structurallyDeficient":true,"materialName":"Concrete","designTypeName":"Slab","lengthFt":24.0},{"id":"OH-0549568","state":"OH","stateName":"Ohio","countyFips":"009","facilityCarried":"BLACKWOOD RD","featuresIntersected":"BLKWD CVD BRG PRATT FORK","location":"COVERED BRIDGE","lat":40.568889,"lon":-82.766944,"lowestRating":3,"yearBuilt":1879,"adt":209,"conditionCategory":"poor","structurallyDeficient":true,"materialName":"Wood or Timber","designTypeName":"Truss - Thru","lengthFt":69.9},{"id":"OH-1032364","state":"OH","stateName":"Ohio","countyFips":"019","facilityCarried":"ROSE TWP RD 180","featuresIntersected":"BIG SANDY BR RRARCH BN35","location":"1500 FT WEST OF STRT 542","lat":40.841111,"lon":-81.791944,"lowestRating":3,"yearBuilt":1910,"adt":209,"conditionCategory":"poor","structurallyDeficient":true,"materialName":"Concrete","designTypeName":"Culvert","lengthFt":30.8},{"id":"OH-1631829","state":"OH","stateName":"Ohio","countyFips":"031","facilityCarried":"TOWNSHIP ROAD 252","featuresIntersected":"EVANS CREEK","location":"0.1 mile E jct SR751","lat":40.411111,"lon":-83.163889,"lowestRating":3,"yearBuilt":1972,"adt":209,"conditionCategory":"poor","structurallyDeficient":true,"materialName":"Steel","designTypeName":"Stringer/Multi-beam or Girder","lengthFt":41.0},{"id":"OH-3035085","state":"OH","stateName":"Ohio","countyFips":"059","facilityCarried":"TOWNSHIP ROAD 837","featuresIntersected":"BIRDS RUN","location":".2 MI EAST OF CR","lat":41.196944,"lon":-82.568889,"lowestRating":3,"yearBuilt":2002,"adt":209,"conditionCategory":"poor","structurallyDeficient":true,"materialName":"Prestressed Concrete","designTypeName":"Box Beam - Multiple","lengthFt":35.1},{"id":"OH-4131126","state":"OH","stateName":"Ohio","countyFips":"081","facilityCarried":"Know Twp Rd 289","featuresIntersected":"YELLOW CREEK","location":"200-ft SW CR53","lat":41.9,"lon":-81.031111,"lowestRating":3,"yearBuilt":1901,"adt":209,"conditionCategory":"poor","structurallyDeficient":true,"materialName":"Steel","designTypeName":"Truss - Thru","lengthFt":105.0},{"id":"OH-4501446","state":"OH","stateName":"Ohio","countyFips":"089","facilityCarried":"TR 232","featuresIntersected":"TR 232 OVER SR 16","location":"1 M W OF JCT SR 146","lat":40.976944,"lon":-83.785,"lowestRating":3,"yearBuilt":1970,"adt":209,"conditionCategory":"poor","structurallyDeficient":true,"materialName":"Steel Continuous","designTypeName":"Stringer/Multi-beam or Girder","lengthFt":217.5},{"id":"OH-5634768","state":"OH","stateName":"Ohio","countyFips":"111","facilityCarried":"TWP RD 307","featuresIntersected":"CLEAR FORK","location":"0.75 N. OF JCT. CR 15","lat":39.866944,"lon":-82.223056,"lowestRating":3,"yearBuilt":1900,"adt":209,"conditionCategory":"poor","structurallyDeficient":true,"materialName":"Steel Continuous","designTypeName":"Stringer/Multi-beam or Girder","lengthFt":80.1},{"id":"OH-6030688","state":"OH","stateName":"Ohio","countyFips":"119","facilityCarried":"RAYNER LANE","featuresIntersected":"MEIGS CK","location":".11 MI W OF CUTLER LAKE","lat":41.333056,"lon":-83.386111,"lowestRating":3,"yearBuilt":1951,"adt":209,"conditionCategory":"poor","structurallyDeficient":true,"materialName":"Steel","designTypeName":"Truss - Thru","lengthFt":86.9},{"id":"OH-6044263","state":"OH","stateName":"Ohio","countyFips":"119","facilityCarried":"SCHOOLHOUSE RD","featuresIntersected":"WAKATOMIKA CREEK","location":"0.39 MI S OF SR 16","lat":41.233056,"lon":-83.648889,"lowestRating":3,"yearBuilt":1952,"adt":209,"conditionCategory":"poor","structurallyDeficient":true,"materialName":"Steel","designTypeName":"Truss - Thru","lengthFt":102.0},{"id":"OH-6130380","state":"OH","stateName":"Ohio","countyFips":"121","facilityCarried":"TR103","featuresIntersected":"BUFFALO CREEK","location":".15 MI.E. OF JCT. SR146","lat":41.115,"lon":-82.426111,"lowestRating":3,"yearBuilt":1994,"adt":209,"conditionCategory":"poor","structurallyDeficient":true,"materialName":"Steel","designTypeName":"Stringer/Multi-beam or Girder","lengthFt":55.1},{"id":"OH-7633769","state":"OH","stateName":"Ohio","countyFips":"151","facilityCarried":"OS2227 LOTZ","featuresIntersected":"LITTLE SANDY CREEK","location":"0.1 MI. N. OF TR150","lat":41.303889,"lon":-82.133889,"lowestRating":3,"yearBuilt":1956,"adt":209,"conditionCategory":"poor","structurallyDeficient":true,"materialName":"Steel","designTypeName":"Stringer/Multi-beam or Girder","lengthFt":27.9},{"id":"OH-7843828","state":"OH","stateName":"Ohio","countyFips":"155","facilityCarried":"TOWNSHIP RD. 243-A","featuresIntersected":"BAUGHMAN CREEK","location":"0.02 MI. S. OF T.H. 240-E","lat":41.471944,"lon":-82.028056,"lowestRating":3,"yearBuilt":1981,"adt":209,"conditionCategory":"poor","structurallyDeficient":true,"materialName":"Steel","designTypeName":"Stringer/Multi-beam or Girder","lengthFt":34.1},{"id":"OH-7844654","state":"OH","stateName":"Ohio","countyFips":"155","facilityCarried":"TOWNSHIP RD. 234-B","featuresIntersected":"BAUGHMAN CREEK","location":"0.6 MI. W. OF T.H. 235","lat":42.3,"lon":-81.766944,"lowestRating":3,"yearBuilt":1934,"adt":209,"conditionCategory":"poor","structurallyDeficient":true,"materialName":"Steel","designTypeName":"Stringer/Multi-beam or Girder","lengthFt":34.1},{"id":"OH-8433720","state":"OH","stateName":"Ohio","countyFips":"167","facilityCarried":"TOWNSHIP ROAD 921","featuresIntersected":"L MUSKINGUM  *  HUNE CVR","location":".05 MI E OF JCT SR 26","lat":40.543056,"lon":-81.278889,"lowestRating":3,"yearBuilt":1879,"adt":209,"conditionCategory":"poor","structurallyDeficient":true,"materialName":"Wood or Timber","designTypeName":"Truss - Thru","lengthFt":165.4},{"id":"OH-8437017","state":"OH","stateName":"Ohio","countyFips":"167","facilityCarried":"TOWNSHIP ROAD 570","featuresIntersected":"BR WOLF CK  *  SHINN CVR","location":"0.15mi S of TR91","lat":40.728056,"lon":-82.861111,"lowestRating":3,"yearBuilt":1886,"adt":209,"conditionCategory":"poor","structurallyDeficient":true,"materialName":"Wood or Timber","designTypeName":"Truss - Thru","lengthFt":100.1},{"id":"OH-1831006","state":"OH","stateName":"Ohio","countyFips":"035","facilityCarried":"ENTERPRISE PARKWAY","featuresIntersected":"BALDWIN CREEK","location":"700 S OF AURORA RD.","lat":42.516111,"lon":-82.835,"lowestRating":3,"yearBuilt":1985,"adt":200,"conditionCategory":"poor","structurallyDeficient":true,"materialName":"Concrete","designTypeName":"Frame","lengthFt":32.2},{"id":"OH-5763126","state":"OH","stateName":"Ohio","countyFips":"113","facilityCarried":"DANUBE COURT","featuresIntersected":"BR OF LITTLE BEAVER CREE","location":"400 FT EAST OF WOODMAN DR","lat":41.033056,"lon":-84.72,"lowestRating":3,"yearBuilt":1974,"adt":200,"conditionCategory":"poor","structurallyDeficient":true,"materialName":"Prestressed Concrete","designTypeName":"Box Beam - Multiple","lengthFt":40.0},{"id":"OH-7842848","state":"OH","stateName":"Ohio","countyFips":"155","facilityCarried":"COUNTY ROAD 213","featuresIntersected":"STREAM","location":"0.1 MI. S. TR 204","lat":41.578056,"lon":-82.43,"lowestRating":3,"yearBuilt":1990,"adt":181,"conditionCategory":"poor","structurallyDeficient":true,"materialName":"Steel","designTypeName":"Culvert","lengthFt":23.0},{"id":"OH-4234073","state":"OH","stateName":"Ohio","countyFips":"083","facilityCarried":"VINCENT ROAD","featuresIntersected":"COLEMAN BRANCH","location":"0.1 MI WEST OF BERRY","lat":42.061944,"lon":-83.748056,"lowestRating":3,"yearBuilt":1900,"adt":179,"conditionCategory":"poor","structurallyDeficient":true,"materialName":"Masonry","designTypeName":"Arch - Deck","lengthFt":38.1},{"id":"OH-3934772","state":"OH","stateName":"Ohio","countyFips":"077","facilityCarried":"CHENANGO  83","featuresIntersected":"CHENANGO / VERMILION RVR","location":"0.3 MI S OF AUSTER ROAD","lat":41.641944,"lon":-82.455,"lowestRating":3,"yearBuilt":1954,"adt":174,"conditionCategory":"poor","structurallyDeficient":true,"materialName":"Steel","designTypeName":"Truss - Thru","lengthFt":95.1},{"id":"OH-0545465","state":"OH","stateName":"Ohio","countyFips":"009","facilityCarried":"TR192","featuresIntersected":"TRIB TO BIG RUN","location":"JUST EAST OF SR 329","lat":39.808889,"lon":-82.803056,"lowestRating":3,"yearBuilt":1967,"adt":167,"conditionCategory":"poor","structurallyDeficient":true,"materialName":"Steel","designTypeName":"Stringer/Multi-beam or Girder","lengthFt":35.1},{"id":"OH-4733797","state":"OH","stateName":"Ohio","countyFips":"093","facilityCarried":"BURSLEY RD.","featuresIntersected":"W.B.BLACK RV  BURSLEY","location":"0.5MI. EAST OF SR","lat":42.651944,"lon":-83.441111,"lowestRating":3,"yearBuilt":1952,"adt":155,"conditionCategory":"poor","structurallyDeficient":true,"materialName":"Steel","designTypeName":"Truss - Thru","lengthFt":44.9},{"id":"OH-6760015","state":"OH","stateName":"Ohio","countyFips":"133","facilityCarried":"SUNRISE BOULIVARD","featuresIntersected":"FISH CREEK","location":"0.25 MI N.OF SR59","lat":41.805,"lon":-81.976944,"lowestRating":3,"yearBuilt":1968,"adt":150,"conditionCategory":"poor","structurallyDeficient":true,"materialName":"Steel","designTypeName":"Stringer/Multi-beam or Girder","lengthFt":43.0},{"id":"OH-6735800","state":"OH","stateName":"Ohio","countyFips":"133","facilityCarried":"YALE RD.-CH55D","featuresIntersected":"KALE CREEK STREAM","location":"0.3 MI. E. OF SR 225","lat":42.271111,"lon":-82.331944,"lowestRating":3,"yearBuilt":1981,"adt":141,"conditionCategory":"poor","structurallyDeficient":true,"materialName":"Steel","designTypeName":"Culvert","lengthFt":22.0},{"id":"OH-0931101","state":"OH","stateName":"Ohio","countyFips":"017","facilityCarried":"BAKER RD","featuresIntersected":"Williams Run","location":".6 MI N OF SOMERVILLE RD","lat":40.478889,"lon":-85.178889,"lowestRating":3,"yearBuilt":1918,"adt":130,"conditionCategory":"poor","structurallyDeficient":true,"materialName":"Steel","designTypeName":"Stringer/Multi-beam or Girder","lengthFt":39.0},{"id":"OH-8533962","state":"OH","stateName":"Ohio","countyFips":"169","facilityCarried":"TWP. ROAD 101","featuresIntersected":"LITTLE KILLBUCK CREEK","location":"0.2 MI. W. OF SR302","lat":41.823056,"lon":-83.07,"lowestRating":3,"yearBuilt":1971,"adt":130,"conditionCategory":"poor","structurallyDeficient":true,"materialName":"Steel","designTypeName":"Girder and Floorbeam","lengthFt":45.9},{"id":"OH-3936511","state":"OH","stateName":"Ohio","countyFips":"077","facilityCarried":"PERU WEST S L 65","featuresIntersected":"PERU W S L/W BR HURON RV","location":"0.1 MI W OF HETTLE RD","lat":42.046944,"lon":-84.108056,"lowestRating":3,"yearBuilt":1954,"adt":122,"conditionCategory":"poor","structurallyDeficient":true,"materialName":"Steel","designTypeName":"Truss - Thru","lengthFt":81.0},