{"total":26729,"good":16319,"fair":9143,"poor":1267,"structurallyDeficient":1267,"goodPct":61.1,"fairPct":34.2,"poorPct":4.7,"sdPct":4.7,"materials":{"Steel":11035,"Prestressed Concrete":8535,"Concrete":6874,"Wood/Timber":117,"Metal (Other)":94,"Masonry":54,"Other":20},"designTypes":{"Stringer/Multi-beam or Girder":10305,"Box Beam - Multiple":8587,"Slab":3511,"Culvert":1826,"Truss - Thru":930,"Frame":683,"Tee Beam":299,"Arch - Deck":261,"Girder and Floorbeam":232,"Box Beam - Single/Spread":32,"Arch - Thru":17,"Truss - Deck":14,"Cable-Stayed":9,"Other":6,"Movable - Bascule":5,"Movable - Lift":5,"Suspension":4,"Segmental Box Girder":2,"Movable - Swing":1},"ageDistribution":{"41-60 years":7002,"21-40 years":7422,"61-80 years":4496,"0-20 years":4940,"80+ years":2869},"owners":{"County Highway Agency":14507,"State Highway Agency":10201,"City/Municipal":1381,"State Toll Authority":439,"Local Park/Forest":63,"State Park/Forest":60,"Private":23,"Railroad":18,"Other Local":13,"Unknown":10,"Other State":6,"National Park Service":4,"Town/Township":2,"Corps of Engineers":2},"avgAdt":6484,"totalDailyCrossings":173192290,"avgYearBuilt":1977,"oldestYear":1828,"newestYear":2024,"avgLengthFt":12.2,"ratingDistribution":{"0":9,"1":17,"2":35,"3":226,"4":980,"5":2770,"6":6373,"7":8432,"8":5640,"9":2247},"state":"OH","stateName":"Ohio","countyCount":88,"cityCount":1931,"topCounties":[{"fips":"049","total":922,"poor":18,"poorPct":2.0,"avgAdt":28210},{"fips":"035","total":871,"poor":84,"poorPct":9.6,"avgAdt":24996},{"fips":"061","total":783,"poor":23,"poorPct":2.9,"avgAdt":21785},{"fips":"113","total":632,"poor":17,"poorPct":2.7,"avgAdt":16912},{"fips":"153","total":563,"poor":13,"poorPct":2.3,"avgAdt":18132},{"fips":"173","total":508,"poor":22,"poorPct":4.3,"avgAdt":5714},{"fips":"037","total":463,"poor":2,"poorPct":0.4,"avgAdt":993},{"fips":"089","total":439,"poor":34,"poorPct":7.7,"avgAdt":5136},{"fips":"095","total":418,"poor":8,"poorPct":1.9,"avgAdt":14612},{"fips":"151","total":415,"poor":23,"poorPct":5.5,"avgAdt":9992},{"fips":"169","total":391,"poor":27,"poorPct":6.9,"avgAdt":2921},{"fips":"155","total":383,"poor":39,"poorPct":10.2,"avgAdt":6056},{"fips":"017","total":377,"poor":18,"poorPct":4.8,"avgAdt":7537},{"fips":"145","total":376,"poor":19,"poorPct":5.1,"avgAdt":2465},{"fips":"003","total":367,"poor":36,"poorPct":9.8,"avgAdt":3116},{"fips":"093","total":366,"poor":20,"poorPct":5.5,"avgAdt":9814},{"fips":"119","total":363,"poor":36,"poorPct":9.9,"avgAdt":4062},{"fips":"063","total":357,"poor":5,"poorPct":1.4,"avgAdt":3285},{"fips":"135","total":357,"poor":39,"poorPct":10.9,"avgAdt":1795},{"fips":"139","total":356,"poor":22,"poorPct":6.2,"avgAdt":4550}],"worstBridges":[{"id":"OH-6832377","state":"OH","stateName":"Ohio","countyFips":"135","facilityCarried":"BRUBAKER RD;","featuresIntersected":"SAMS CREEK","location":".60 MI.W. OF SR 122","lat":39.806944,"lon":-85.605,"lowestRating":1,"yearBuilt":1887,"adt":30,"conditionCategory":"poor","structurallyDeficient":true,"materialName":"Wood or Timber","designTypeName":"Truss - Thru","lengthFt":8.7},{"id":"OH-5835712","state":"OH","stateName":"Ohio","countyFips":"115","facilityCarried":"COUNTY ROAD 203","featuresIntersected":"MUSKINGUM RIVER","location":"MCCONNELSVILLE VILLAGE","lat":41.096944,"lon":-82.723056,"lowestRating":3,"yearBuilt":1913,"adt":8919,"conditionCategory":"poor","structurallyDeficient":true,"materialName":"Steel","designTypeName":"Truss - Thru","lengthFt":56.6},{"id":"OH-0701599","state":"OH","stateName":"Ohio","countyFips":"013","facilityCarried":"US 40","featuresIntersected":"WHLNG CR CR.10 & ABND.RR","location":"0.9 MI.E.OF CR 214","lat":41.711111,"lon":-81.283056,"lowestRating":3,"yearBuilt":1932,"adt":7734,"conditionCategory":"poor","structurallyDeficient":true,"materialName":"Concrete","designTypeName":"Arch - Deck","lengthFt":75.4},{"id":"OH-4100964","state":"OH","stateName":"Ohio","countyFips":"081","facilityCarried":"MARKET ST-WVA2SPUR","featuresIntersected":"SR-7  RR & OHIO RIVER","location":".7 MI N OF CONRAIL RR","lat":41.271111,"lon":-81.848889,"lowestRating":3,"yearBuilt":1905,"adt":6845,"conditionCategory":"poor","structurallyDeficient":true,"materialName":"Steel","designTypeName":"Suspension","lengthFt":179.4},{"id":"OH-7830165","state":"OH","stateName":"Ohio","countyFips":"155","facilityCarried":"ARLINGTON BLVD","featuresIntersected":"MAHONING RIVER E BRANCH","location":"200 FT WEST OF MILTON","lat":41.655,"lon":-81.456944,"lowestRating":3,"yearBuilt":1831,"adt":2000,"conditionCategory":"poor","structurallyDeficient":true,"materialName":"Wood or Timber","designTypeName":"Truss - Thru","lengthFt":12.1},{"id":"OH-0549568","state":"OH","stateName":"Ohio","countyFips":"009","facilityCarried":"BLACKWOOD RD","featuresIntersected":"BLKWD CVD BRG PRATT FORK","location":"COVERED BRIDGE","lat":40.568889,"lon":-82.766944,"lowestRating":3,"yearBuilt":1879,"adt":209,"conditionCategory":"poor","structurallyDeficient":true,"materialName":"Wood or Timber","designTypeName":"Truss - Thru","lengthFt":7},{"id":"OH-8433720","state":"OH","stateName":"Ohio","countyFips":"167","facilityCarried":"TOWNSHIP ROAD 921","featuresIntersected":"L MUSKINGUM  *  HUNE CVR","location":".05 MI E OF JCT SR 26","lat":40.543056,"lon":-81.278889,"lowestRating":3,"yearBuilt":1879,"adt":209,"conditionCategory":"poor","structurallyDeficient":true,"materialName":"Wood or Timber","designTypeName":"Truss - Thru","lengthFt":16.5},{"id":"OH-8437017","state":"OH","stateName":"Ohio","countyFips":"167","facilityCarried":"TOWNSHIP ROAD 570","featuresIntersected":"BR WOLF CK  *  SHINN CVR","location":"0.15mi S of TR91","lat":40.728056,"lon":-82.861111,"lowestRating":3,"yearBuilt":1886,"adt":209,"conditionCategory":"poor","structurallyDeficient":true,"materialName":"Wood or Timber","designTypeName":"Truss - Thru","lengthFt":10},{"id":"OH-1808567","state":"OH","stateName":"Ohio","countyFips":"035","facilityCarried":"IR 90","featuresIntersected":"ROCKY RIVER VALLEY","location":".07 MI W OF JCT SR237","lat":41.986944,"lon":-82.615,"lowestRating":4,"yearBuilt":1971,"adt":106617,"conditionCategory":"poor","structurallyDeficient":true,"materialName":"Steel","designTypeName":"Girder and Floorbeam","lengthFt":83.9},{"id":"OH-3110656","state":"OH","stateName":"Ohio","countyFips":"061","facilityCarried":"NB IR 75","featuresIntersected":"MILL CR;BENSON ST;NSRR;S","location":"2.3 MI S OF SR 126","lat":39.718056,"lon":-85.915,"lowestRating":4,"yearBuilt":1965,"adt":67075,"conditionCategory":"poor","structurallyDeficient":true,"materialName":"Steel Continuous","designTypeName":"Stringer/Multi-beam or Girder","lengthFt":241.8},{"id":"OH-2504413","state":"OH","stateName":"Ohio","countyFips":"049","facilityCarried":"I-70","featuresIntersected":"IR 70W OVER SCIOTO RIVER","location":"0.21 MI E OF I-71","lat":40.141111,"lon":-84.373056,"lowestRating":4,"yearBuilt":1975,"adt":61022,"conditionCategory":"poor","structurallyDeficient":true,"materialName":"Steel Continuous","designTypeName":"Stringer/Multi-beam or Girder","lengthFt":89.7},{"id":"OH-3113914","state":"OH","stateName":"Ohio","countyFips":"061","facilityCarried":"SR 562","featuresIntersected":"ROSS AVENUE;CSRR  CR689","location":".3 MI E OF US 42","lat":39.273889,"lon":-86.013889,"lowestRating":4,"yearBuilt":1972,"adt":58705,"conditionCategory":"poor","structurallyDeficient":true,"materialName":"Steel","designTypeName":"Girder and Floorbeam","lengthFt":140.5},{"id":"OH-3137082","state":"OH","stateName":"Ohio","countyFips":"061","facilityCarried":"WESTERN HILLS VIAD","featuresIntersected":"Mill Creek  State  Sprin","location":"620 ft W of Central Pkwy","lat":39.92,"lon":-85.283889,"lowestRating":4,"yearBuilt":1931,"adt":43788,"conditionCategory":"poor","structurallyDeficient":true,"materialName":"Steel","designTypeName":"Girder and Floorbeam","lengthFt":272.1},{"id":"OH-1833405","state":"OH","stateName":"Ohio","countyFips":"035","facilityCarried":"WEST 150TH ST","featuresIntersected":"N&S RR  RTA & CHATFIELD","location":"2500 SOUTH OF LORAIN RD","lat":42.733056,"lon":-81.933056,"lowestRating":4,"yearBuilt":1967,"adt":23303,"conditionCategory":"poor","structurallyDeficient":true,"materialName":"Steel Continuous","designTypeName":"Stringer/Multi-beam or Girder","lengthFt":70.9},{"id":"OH-0703096","state":"OH","stateName":"Ohio","countyFips":"013","facilityCarried":"IR 70","featuresIntersected":"SR7&767 RR WLG.CR OHIO R","location":"APPR.TO OH R.BR.OVR SR7","lat":40.535,"lon":-81.366944,"lowestRating":4,"yearBuilt":1968,"adt":19121,"conditionCategory":"poor","structurallyDeficient":true,"materialName":"Steel Continuous","designTypeName":"Stringer/Multi-beam or Girder","lengthFt":241.0},{"id":"OH-1802046","state":"OH","stateName":"Ohio","countyFips":"035","facilityCarried":"SR 17","featuresIntersected":"ROCKY RIVER","location":"APPROX 900FT E W220 ST","lat":41.798056,"lon":-83.031111,"lowestRating":4,"yearBuilt":1933,"adt":14415,"conditionCategory":"poor","structurallyDeficient":true,"materialName":"Concrete","designTypeName":"Arch - Deck","lengthFt":191.9},{"id":"OH-1830465","state":"OH","stateName":"Ohio","countyFips":"035","facilityCarried":"PL VALLEY RD CR121","featuresIntersected":"CANAL RD  OH CANAL/METRO","location":"AT CANAL RD","lat":42.288889,"lon":-83.118056,"lowestRating":4,"yearBuilt":1958,"adt":14182,"conditionCategory":"poor","structurallyDeficient":true,"materialName":"Steel Continuous","designTypeName":"Stringer/Multi-beam or Girder","lengthFt":63.7},{"id":"OH-1801503","state":"OH","stateName":"Ohio","countyFips":"035","facilityCarried":"SR 10","featuresIntersected":"CUY RIVER VALLEY & FI RR","location":"LORAIN/CARNEGIE BRIDGE","lat":41.888056,"lon":-82.993889,"lowestRating":4,"yearBuilt":1932,"adt":13835,"conditionCategory":"poor","structurallyDeficient":true,"materialName":"Steel","designTypeName":"Truss - Deck","lengthFt":365.7},{"id":"OH-3102475","state":"OH","stateName":"Ohio","countyFips":"061","facilityCarried":"US 42","featuresIntersected":"OHIO RIVER CLAY BAILEY","location":"OVER OHIO RIVER","lat":39.988056,"lon":-84.813889,"lowestRating":4,"yearBuilt":1974,"adt":13531,"conditionCategory":"poor","structurallyDeficient":true,"materialName":"Steel","designTypeName":"Truss - Thru","lengthFt":220.9},{"id":"OH-1806343","state":"OH","stateName":"Ohio","countyFips":"035","facilityCarried":"RAMP ES","featuresIntersected":"UP IR 77  DN IR-480-L/R","location":"2.04 MI. E. OF JCT. SR-17","lat":42.138056,"lon":-82.908056,"lowestRating":4,"yearBuilt":1973,"adt":13400,"conditionCategory":"poor","structurallyDeficient":true,"materialName":"Steel Continuous","designTypeName":"Stringer/Multi-beam or Girder","lengthFt":50.4},{"id":"OH-0700312","state":"OH","stateName":"Ohio","countyFips":"013","facilityCarried":"SR 7","featuresIntersected":"NORFOLK SOUTHERN RR CORP","location":"3.92 MI N OF SR 872","lat":41.216111,"lon":-81.303889,"lowestRating":4,"yearBuilt":1983,"adt":13148,"conditionCategory":"poor","structurallyDeficient":true,"materialName":"Steel Continuous","designTypeName":"Stringer/Multi-beam or Girder","lengthFt":56.6},{"id":"OH-1801805","state":"OH","stateName":"Ohio","countyFips":"035","facilityCarried":"SR 14","featuresIntersected":"NSC W&LE RR @ HENRY ST.","location":"APPROX 2MI W CNTY144","lat":42.948056,"lon":-81.833889,"lowestRating":4,"yearBuilt":1929,"adt":12155,"conditionCategory":"poor","structurallyDeficient":true,"materialName":"Steel Continuous","designTypeName":"Stringer/Multi-beam or Girder","lengthFt":135.9},{"id":"OH-8401227","state":"OH","stateName":"Ohio","countyFips":"167","facilityCarried":"MR-476 MEMORIAL TO","featuresIntersected":"OHIO R.  CSX  KEEVER ST.","location":".1 MI E OF SR-618","lat":39.301944,"lon":-81.598056,"lowestRating":4,"yearBuilt":1955,"adt":11215,"conditionCategory":"poor","structurallyDeficient":true,"materialName":"Steel","designTypeName":"Truss - Thru","lengthFt":255.5},{"id":"OH-1830147","state":"OH","stateName":"Ohio","countyFips":"035","facilityCarried":"HILLIARD RD CR69","featuresIntersected":"ROCKY RIVER  VALLEY PKWY","location":"910 FT W OF ROCKY RVR DR","lat":41.941111,"lon":-82.538889,"lowestRating":4,"yearBuilt":1925,"adt":10217,"conditionCategory":"poor","structurallyDeficient":true,"materialName":"Concrete","designTypeName":"Arch - Deck","lengthFt":89.3},{"id":"OH-0800333","state":"OH","stateName":"Ohio","countyFips":"015","facilityCarried":"BUS.62","featuresIntersected":"OHIO RIVER CSX RR LOCAL","location":"0.186 MI S OF USR 52","lat":38.8,"lon":-84.621944,"lowestRating":4,"yearBuilt":1931,"adt":6478,"conditionCategory":"poor","structurallyDeficient":true,"materialName":"Steel","designTypeName":"Suspension","lengthFt":316.4},{"id":"OH-3136582","state":"OH","stateName":"Ohio","countyFips":"061","facilityCarried":"EIGHTH STREET","featuresIntersected":"MILL CREEK RR EVANS ST","location":"Viaduct W OF INT DALTON","lat":39.61,"lon":-84.638889,"lowestRating":4,"yearBuilt":1929,"adt":4917,"conditionCategory":"poor","structurallyDeficient":true,"materialName":"Steel","designTypeName":"Girder and Floorbeam","lengthFt":273.0},{"id":"OH-1763636","state":"OH","stateName":"Ohio","countyFips":"033","facilityCarried":"E CHURCH STREET","featuresIntersected":"WASH BLMR PIERCE STS & R","location":"0.3 MI W. OF SR61","lat":40.91,"lon":-82.908889,"lowestRating":4,"yearBuilt":1975,"adt":2663,"conditionCategory":"poor","structurallyDeficient":true,"materialName":"Steel Continuous","designTypeName":"Stringer/Multi-beam or Girder","lengthFt":90.8},{"id":"OH-8433127","state":"OH","stateName":"Ohio","countyFips":"167","facilityCarried":"COUNTY ROAD 60","featuresIntersected":"MUSKINGUM *  LOWELL T  A","location":".08 MI S OF JCT SR 60","lat":40.486944,"lon":-82.218889,"lowestRating":4,"yearBuilt":1976,"adt":932,"conditionCategory":"poor","structurallyDeficient":true,"materialName":"Steel Continuous","designTypeName":"Stringer/Multi-beam or Girder","lengthFt":108.7},{"id":"OH-1631322","state":"OH","stateName":"Ohio","countyFips":"031","facilityCarried":"TOWNSHIP ROAD 25","featuresIntersected":"KILLBUCK CREEK","location":"0.2 mile W jct CR343","lat":41.353056,"lon":-82.886944,"lowestRating":4,"yearBuilt":1863,"adt":564,"conditionCategory":"poor","structurallyDeficient":true,"materialName":"Wood or Timber","designTypeName":"Truss - Thru","lengthFt":17},{"id":"OH-6837344","state":"OH","stateName":"Ohio","countyFips":"135","facilityCarried":"SWAMP CREEK RD","featuresIntersected":"SWAMP CREEK","location":"JUST E OF CH 36","lat":40.566944,"lon":-85.951111,"lowestRating":4,"yearBuilt":1900,"adt":351,"conditionCategory":"poor","structurallyDeficient":true,"materialName":"Wood or Timber","designTypeName":"Truss - Thru","lengthFt":5.2},{"id":"OH-0833126","state":"OH","stateName":"Ohio","countyFips":"015","facilityCarried":"NORTH POLE RD.","featuresIntersected":"EAGLE CREEK","location":"3.3 MI. OFF US 68","lat":40.373056,"lon":-84.408056,"lowestRating":4,"yearBuilt":1875,"adt":104,"conditionCategory":"poor","structurallyDeficient":true,"materialName":"Wood or Timber","designTypeName":"Truss - Thru","lengthFt":16.6},{"id":"OH-0432180","state":"OH","stateName":"Ohio","countyFips":"007","facilityCarried":"MIDDLE ROAD","featuresIntersected":"CONNEAUT CREEK","location":".8 MI. N. OF CH427","lat":42.09,"lon":-81.863056,"lowestRating":4,"yearBuilt":1868,"adt":100,"conditionCategory":"poor","structurallyDeficient":true,"materialName":"Wood or Timber","designTypeName":"Truss - Thru","lengthFt":13.8}],"mostTrafficked":[{"id":"OH-7228813","state":"OH","stateName":"Ohio","countyFips":"143","facilityCarried":"FOUR MILE HOUSE RD","featuresIntersected":"I80 OHIO TPK","location":"3.6MI WEST OF EXIT 91","lat":42.006944,"lon":-83.903889,"adt":300000,"yearBuilt":1954,"lowestRating":6,"conditionCategory":"fair","structurallyDeficient":false,"materialName":"Steel Continuous","designTypeName":"Stringer/Multi-beam or Girder","lengthFt":19.8},{"id":"OH-2512378","state":"OH","stateName":"Ohio","countyFips":"049","facilityCarried":"RMP (161WB-270SB)","featuresIntersected":"OVER RAMP (161WB-270SB)","location":"AT SR-161","lat":41.675,"lon":-83.56,"adt":181641,"yearBuilt":2007,"lowestRating":7,"conditionCategory":"good","structurallyDeficient":false,"materialName":"Concrete","designTypeName":"Slab","lengthFt":7.5},{"id":"OH-2510995","state":"OH","stateName":"Ohio","countyFips":"049","facilityCarried":"I-270 EB/WB","featuresIntersected":"OVER OLENTANGY RIVER","location":"OVER OLENTANGY RIVER (N)","lat":41.321111,"lon":-84.616111,"adt":180261,"yearBuilt":1969,"lowestRating":7,"conditionCategory":"good","structurallyDeficient":false,"materialName":"Steel Continuous","designTypeName":"Stringer/Multi-beam or Girder","lengthFt":26.4},{"id":"OH-2511045","state":"OH","stateName":"Ohio","countyFips":"049","facilityCarried":"I-270","featuresIntersected":"OVER NS & CSXT RAILROADS","location":"0.68 MI E OF US23","lat":41.256944,"lon":-83.396944,"adt":172736,"yearBuilt":1966,"lowestRating":7,"conditionCategory":"good","structurallyDeficient":false,"materialName":"Steel Continuous","designTypeName":"Stringer/Multi-beam or Girder","lengthFt":22.2},{"id":"OH-2511169","state":"OH","stateName":"Ohio","countyFips":"049","facilityCarried":"I-270","featuresIntersected":"OVER WORTHINGTON-GALENA","location":"1.08 MI E OF US23","lat":41.218056,"lon":-84.266111,"adt":172736,"yearBuilt":1966,"lowestRating":7,"conditionCategory":"good","structurallyDeficient":false,"materialName":"Concrete Continuous","designTypeName":"Slab","lengthFt":16.6},{"id":"OH-2511320","state":"OH","stateName":"Ohio","countyFips":"049","facilityCarried":"I270","featuresIntersected":"OVER RAMP 270WB TO 71SB","location":".13 MI. W. OF IR71","lat":41.153889,"lon":-84.363056,"adt":163950,"yearBuilt":1999,"lowestRating":6,"conditionCategory":"fair","structurallyDeficient":false,"materialName":"Concrete Continuous","designTypeName":"Slab","lengthFt":13.8},{"id":"OH-3107787","state":"OH","stateName":"Ohio","countyFips":"061","facilityCarried":"IR 71","featuresIntersected":"OHIO RIVER BRENT SPENCE","location":"OVER OHIO RIVER","lat":39.966111,"lon":-85.106944,"adt":163386,"yearBuilt":1963,"lowestRating":5,"conditionCategory":"fair","structurallyDeficient":false,"materialName":"Steel Continuous","designTypeName":"Truss - Thru","lengthFt":173.7},{"id":"OH-2507811","state":"OH","stateName":"Ohio","countyFips":"049","facilityCarried":"IR71","featuresIntersected":"OVER CSX & NS RR","location":"0.42 MI S OF 5TH AVE","lat":41.298889,"lon":-83.321111,"adt":160570,"yearBuilt":1993,"lowestRating":7,"conditionCategory":"good","structurallyDeficient":false,"materialName":"Steel","designTypeName":"Stringer/Multi-beam or Girder","lengthFt":13.4},{"id":"OH-2507854","state":"OH","stateName":"Ohio","countyFips":"049","facilityCarried":"IR71","featuresIntersected":"IR71 RAMP TO IR670","location":"0.16 MI S OF 5TH AVE","lat":40.0,"lon":-83.191111,"adt":160570,"yearBuilt":1993,"lowestRating":7,"conditionCategory":"good","structurallyDeficient":false,"materialName":"Steel","designTypeName":"Stringer/Multi-beam or Girder","lengthFt":12.1},{"id":"OH-2511657","state":"OH","stateName":"Ohio","countyFips":"049","facilityCarried":"I270","featuresIntersected":"OVER ALUM CREEK","location":".70 MI W 0F SR3","lat":40.431944,"lon":-83.421111,"adt":158097,"yearBuilt":1999,"lowestRating":7,"conditionCategory":"good","structurallyDeficient":false,"materialName":"Steel Continuous","designTypeName":"Stringer/Multi-beam or Girder","lengthFt":17.4}]}