{"total":783,"good":179,"fair":485,"poor":119,"structurallyDeficient":119,"goodPct":22.9,"fairPct":61.9,"poorPct":15.2,"sdPct":15.2,"materials":{"Steel":408,"Concrete":175,"Prestressed Concrete":168,"Masonry":17,"Wood/Timber":9,"Other":4,"Metal (Other)":2},"designTypes":{"Stringer/Multi-beam or Girder":427,"Box Beam - Multiple":95,"Arch - Deck":85,"Slab":49,"Culvert":44,"Tee Beam":23,"Frame":22,"Truss - Thru":10,"Girder and Floorbeam":9,"Box Beam - Single/Spread":8,"Arch - Thru":2,"Other":2,"Suspension":2,"Orthotropic":1,"Channel Beam":1,"Segmental Box Girder":1,"Movable - Swing":1,"Mixed Types":1},"ageDistribution":{"41-60 years":223,"0-20 years":172,"80+ years":162,"21-40 years":96,"61-80 years":130},"owners":{"State Highway Agency":588,"Town/Township":83,"City/Municipal":78,"State Toll Authority":14,"State Park/Forest":7,"Local Park/Forest":5,"Other State":4,"Unknown":2,"Private":1,"Other Local":1},"avgAdt":20215,"totalDailyCrossings":15767562,"avgYearBuilt":1969,"oldestYear":1810,"newestYear":2023,"avgLengthFt":18.1,"ratingDistribution":{"1":1,"2":5,"3":16,"4":97,"5":249,"6":236,"7":144,"8":35},"state":"RI","stateName":"Rhode Island","countyCount":5,"cityCount":37,"topCounties":[{"fips":"007","total":476,"poor":78,"poorPct":16.4,"avgAdt":23231},{"fips":"009","total":145,"poor":18,"poorPct":12.4,"avgAdt":9785},{"fips":"003","total":115,"poor":18,"poorPct":15.7,"avgAdt":22694},{"fips":"005","total":37,"poor":4,"poorPct":10.8,"avgAdt":16096},{"fips":"001","total":10,"poor":1,"poorPct":10.0,"avgAdt":14181}],"worstBridges":[{"id":"RI-000000000007000","state":"RI","stateName":"Rhode Island","countyFips":"007","facilityCarried":"I-195 WB","featuresIntersected":"SEEKONK RIVER","location":"0.2 Mi W of JCT US 6","lat":42.076667,"lon":-71.705,"lowestRating":1,"yearBuilt":1969,"adt":80500,"conditionCategory":"poor","structurallyDeficient":true,"materialName":"Steel","designTypeName":"Stringer/Multi-beam or Girder","lengthFt":190.4},{"id":"RI-000000000002920","state":"RI","stateName":"Rhode Island","countyFips":"005","facilityCarried":"POND BRIDGE RD","featuresIntersected":"NONQUIT POND","location":"0.2 Mi W of JCT RI 77","lat":41.8775,"lon":-72.549722,"lowestRating":2,"yearBuilt":1935,"adt":957,"conditionCategory":"poor","structurallyDeficient":true,"materialName":"Steel","designTypeName":"Stringer/Multi-beam or Girder","lengthFt":4.0},{"id":"RI-000000000003010","state":"RI","stateName":"Rhode Island","countyFips":"007","facilityCarried":"SNEECH POND RD","featuresIntersected":"ABBOTT RUN","location":"0.2 Mi N of JCT RI 120","lat":43.261111,"lon":-72.368889,"lowestRating":2,"yearBuilt":1886,"adt":null,"conditionCategory":"poor","structurallyDeficient":true,"materialName":"Steel","designTypeName":"Truss - Thru","lengthFt":6.2},{"id":"RI-000000000008590","state":"RI","stateName":"Rhode Island","countyFips":"007","facilityCarried":"CENTRAL PIKE","featuresIntersected":"HEMLOCK BROOK","location":"0.1 Mi W of JCT RI 94","lat":43.401944,"lon":-73.004722,"lowestRating":2,"yearBuilt":1953,"adt":180,"conditionCategory":"poor","structurallyDeficient":true,"materialName":"Steel","designTypeName":"Stringer/Multi-beam or Girder","lengthFt":3.6},{"id":"RI-000000000008610","state":"RI","stateName":"Rhode Island","countyFips":"007","facilityCarried":"HEMLOCK RD","featuresIntersected":"BARDEN RESERVOIR","location":"2.0 Mi E of RI 94","lat":42.578333,"lon":-73.241389,"lowestRating":2,"yearBuilt":1960,"adt":200,"conditionCategory":"poor","structurallyDeficient":true,"materialName":"Steel","designTypeName":"Stringer/Multi-beam or Girder","lengthFt":2.9},{"id":"RI-000000000009170","state":"RI","stateName":"Rhode Island","countyFips":"007","facilityCarried":"SACRED HEART AV","featuresIntersected":"AMTRAK & RAILROAD ST","location":"0.1 Mi E of Broad St","lat":42.373889,"lon":-71.570833,"lowestRating":2,"yearBuilt":1928,"adt":7070,"conditionCategory":"poor","structurallyDeficient":true,"materialName":"Prestressed Concrete","designTypeName":"Box Beam - Multiple","lengthFt":11.7},{"id":"RI-000000000000490","state":"RI","stateName":"Rhode Island","countyFips":"009","facilityCarried":"WELLSTOWN RD","featuresIntersected":"ASHAWAY RIVER","location":"0.1 Mi S of JCT RI 3","lat":41.9375,"lon":-72.44,"lowestRating":3,"yearBuilt":1907,"adt":653,"conditionCategory":"poor","structurallyDeficient":true,"materialName":"Prestressed Concrete","designTypeName":"Box Beam - Multiple","lengthFt":6.9},{"id":"RI-000000000000810","state":"RI","stateName":"Rhode Island","countyFips":"007","facilityCarried":"RI 14 PLNFLD ST","featuresIntersected":"POCASSET RIVER","location":"0.2 Mi E of JCT RI 5","lat":43.145278,"lon":-72.754722,"lowestRating":3,"yearBuilt":1897,"adt":11,"conditionCategory":"poor","structurallyDeficient":true,"materialName":"Masonry","designTypeName":"Arch - Deck","lengthFt":3.2},{"id":"RI-000000000001080","state":"RI","stateName":"Rhode Island","countyFips":"007","facilityCarried":"RI 146A GREAT RD","featuresIntersected":"BRANCH RIVER","location":"2.0 Mi N of JCT RI 126","lat":43.640556,"lon":-71.825833,"lowestRating":3,"yearBuilt":1919,"adt":15100,"conditionCategory":"poor","structurallyDeficient":true,"materialName":"Concrete","designTypeName":"Arch - Deck","lengthFt":6.0},{"id":"RI-000000000001120","state":"RI","stateName":"Rhode Island","countyFips":"007","facilityCarried":"VICTORY HWY","featuresIntersected":"BRANCH RIVER","location":"0.9 Mi N of JCT RI 107","lat":42.671111,"lon":-73.143611,"lowestRating":3,"yearBuilt":1987,"adt":3300,"conditionCategory":"poor","structurallyDeficient":true,"materialName":"Prestressed Concrete","designTypeName":"Box Beam - Multiple","lengthFt":7.0}],"mostTrafficked":[{"id":"RI-000000000005782","state":"RI","stateName":"Rhode Island","countyFips":"007","facilityCarried":"I-95 SB","featuresIntersected":"US 6 WOON RVR AMTRAK","location":"0.25 Mi N ATWELLS AV","lat":42.78,"lon":-71.66,"adt":236230,"yearBuilt":2016,"lowestRating":6,"conditionCategory":"fair","structurallyDeficient":false,"materialName":"Steel Continuous","designTypeName":"Stringer/Multi-beam or Girder","lengthFt":129.6},{"id":"RI-000000000008080","state":"RI","stateName":"Rhode Island","countyFips":"003","facilityCarried":"I-95 NB & SB","featuresIntersected":"HARDIG BROOK","location":"0.2 Mi N of JCT RI 117","lat":43.278333,"lon":-72.286111,"adt":174731,"yearBuilt":1965,"lowestRating":6,"conditionCategory":"fair","structurallyDeficient":false,"materialName":"Concrete","designTypeName":"Culvert","lengthFt":2.1},{"id":"RI-000000000007160","state":"RI","stateName":"Rhode Island","countyFips":"007","facilityCarried":"I-95 N  SERVICE RD","featuresIntersected":"MOSHASSUCK RIVER","location":"I-95 NB @ EXIT 24","lat":43.258333,"lon":-72.475278,"adt":172200,"yearBuilt":1964,"lowestRating":6,"conditionCategory":"fair","structurallyDeficient":false,"materialName":"Concrete","designTypeName":"Culvert","lengthFt":2.1},{"id":"RI-000000000006835","state":"RI","stateName":"Rhode Island","countyFips":"003","facilityCarried":"I-95 NB & SB","featuresIntersected":"RI 115 Toll Gate Road","location":"0.5 Mi N of JCT RI 117","lat":41.935556,"lon":-72.186111,"adt":170700,"yearBuilt":2020,"lowestRating":6,"conditionCategory":"fair","structurallyDeficient":false,"materialName":"Steel","designTypeName":"Stringer/Multi-beam or Girder","lengthFt":8.4},{"id":"RI-000000000005395","state":"RI","stateName":"Rhode Island","countyFips":"007","facilityCarried":"I-95 NB & SB","featuresIntersected":"BLACKSTONE ST","location":"AT JCT BLACKSTONE-ALLENS","lat":42.841667,"lon":-71.927778,"adt":167639,"yearBuilt":2018,"lowestRating":6,"conditionCategory":"fair","structurallyDeficient":false,"materialName":"Steel","designTypeName":"Stringer/Multi-beam or Girder","lengthFt":12.0},{"id":"RI-000000000010810","state":"RI","stateName":"Rhode Island","countyFips":"007","facilityCarried":"I-195 EB & WB","featuresIntersected":"ProvRiver SoMain&SoWater","location":"Providence exit 1","lat":43.334722,"lon":-71.584444,"adt":167300,"yearBuilt":2007,"lowestRating":7,"conditionCategory":"good","structurallyDeficient":false,"materialName":"Steel","designTypeName":"Arch - Thru","lengthFt":123.5},{"id":"RI-000000000010820","state":"RI","stateName":"Rhode Island","countyFips":"007","facilityCarried":"I-195 EB & WB","featuresIntersected":"South Main Street","location":"0.5 m east of I-95","lat":41.863611,"lon":-72.9225,"adt":167300,"yearBuilt":2008,"lowestRating":6,"conditionCategory":"fair","structurallyDeficient":false,"materialName":"Prestressed Concrete","designTypeName":"Box Beam - Multiple","lengthFt":4.9},{"id":"RI-000000000006845","state":"RI","stateName":"Rhode Island","countyFips":"003","facilityCarried":"I-95 NB & SB","featuresIntersected":"RI 117 CENTERVILLE RD","location":"1.0 Mi S of JCT RI 113","lat":43.100278,"lon":-72.341667,"adt":160000,"yearBuilt":2020,"lowestRating":7,"conditionCategory":"good","structurallyDeficient":false,"materialName":"Steel","designTypeName":"Stringer/Multi-beam or Girder","lengthFt":15.8},{"id":"RI-000000000006550","state":"RI","stateName":"Rhode Island","countyFips":"007","facilityCarried":"I-95 NB & SB","featuresIntersected":"THURBERS AV","location":"1.3 Mi S of JCT I-195","lat":41.855556,"lon":-71.691111,"adt":156790,"yearBuilt":1963,"lowestRating":4,"conditionCategory":"poor","structurallyDeficient":true,"materialName":"Steel","designTypeName":"Stringer/Multi-beam or Girder","lengthFt":14.5},{"id":"RI-000000000006510","state":"RI","stateName":"Rhode Island","countyFips":"007","facilityCarried":"I-95 NB & SB","featuresIntersected":"PUBLIC ST","location":"0.5 Mi S of Jct I-195","lat":42.588611,"lon":-71.903889,"adt":153626,"yearBuilt":1958,"lowestRating":5,"conditionCategory":"fair","structurallyDeficient":false,"materialName":"Prestressed Concrete","designTypeName":"Stringer/Multi-beam or Girder","lengthFt":6.6}]}