{"total":783,"good":179,"fair":485,"poor":119,"structurallyDeficient":119,"goodPct":22.9,"fairPct":61.9,"poorPct":15.2,"sdPct":15.2,"materials":{"Steel":408,"Concrete":175,"Prestressed Concrete":168,"Masonry":17,"Wood/Timber":9,"Other":4,"Metal (Other)":2},"designTypes":{"Stringer/Multi-beam or Girder":427,"Box Beam - Multiple":95,"Arch - Deck":85,"Slab":49,"Culvert":44,"Tee Beam":23,"Frame":22,"Truss - Thru":10,"Girder and Floorbeam":9,"Box Beam - Single/Spread":8,"Arch - Thru":2,"Other":2,"Suspension":2,"Orthotropic":1,"Channel Beam":1,"Segmental Box Girder":1,"Movable - Swing":1,"Mixed Types":1},"ageDistribution":{"41-60 years":223,"0-20 years":172,"80+ years":162,"21-40 years":96,"61-80 years":130},"owners":{"State Highway Agency":588,"Town/Township":83,"City/Municipal":78,"State Toll Authority":14,"State Park/Forest":7,"Local Park/Forest":5,"Other State":4,"Unknown":2,"Private":1,"Other Local":1},"avgAdt":20215,"totalDailyCrossings":15767562,"avgYearBuilt":1969,"oldestYear":1810,"newestYear":2023,"avgLengthFt":18.1,"ratingDistribution":{"1":1,"2":5,"3":16,"4":97,"5":249,"6":236,"7":144,"8":35},"state":"RI","stateName":"Rhode Island","countyCount":5,"cityCount":37,"topCounties":[{"fips":"007","total":476,"poor":78,"poorPct":16.4,"avgAdt":23231},{"fips":"009","total":145,"poor":18,"poorPct":12.4,"avgAdt":9785},{"fips":"003","total":115,"poor":18,"poorPct":15.7,"avgAdt":22694},{"fips":"005","total":37,"poor":4,"poorPct":10.8,"avgAdt":16096},{"fips":"001","total":10,"poor":1,"poorPct":10.0,"avgAdt":14181}],"worstBridges":[{"id":"RI-000000000007000","state":"RI","stateName":"Rhode Island","countyFips":"007","facilityCarried":"I-195 WB","featuresIntersected":"SEEKONK RIVER","location":"0.2 Mi W of JCT US 6","lat":42.076667,"lon":-71.705,"lowestRating":1,"yearBuilt":1969,"adt":80500,"conditionCategory":"poor","structurallyDeficient":true,"materialName":"Steel","designTypeName":"Stringer/Multi-beam or Girder","lengthFt":1903.9},{"id":"RI-000000000009170","state":"RI","stateName":"Rhode Island","countyFips":"007","facilityCarried":"SACRED HEART AV","featuresIntersected":"AMTRAK & RAILROAD ST","location":"0.1 Mi E of Broad St","lat":42.373889,"lon":-71.570833,"lowestRating":2,"yearBuilt":1928,"adt":7070,"conditionCategory":"poor","structurallyDeficient":true,"materialName":"Prestressed Concrete","designTypeName":"Box Beam - Multiple","lengthFt":117.1},{"id":"RI-000000000002920","state":"RI","stateName":"Rhode Island","countyFips":"005","facilityCarried":"POND BRIDGE RD","featuresIntersected":"NONQUIT POND","location":"0.2 Mi W of JCT RI 77","lat":41.8775,"lon":-72.549722,"lowestRating":2,"yearBuilt":1935,"adt":957,"conditionCategory":"poor","structurallyDeficient":true,"materialName":"Steel","designTypeName":"Stringer/Multi-beam or Girder","lengthFt":40.0},{"id":"RI-000000000008610","state":"RI","stateName":"Rhode Island","countyFips":"007","facilityCarried":"HEMLOCK RD","featuresIntersected":"BARDEN RESERVOIR","location":"2.0 Mi E of RI 94","lat":42.578333,"lon":-73.241389,"lowestRating":2,"yearBuilt":1960,"adt":200,"conditionCategory":"poor","structurallyDeficient":true,"materialName":"Steel","designTypeName":"Stringer/Multi-beam or Girder","lengthFt":28.9},{"id":"RI-000000000008590","state":"RI","stateName":"Rhode Island","countyFips":"007","facilityCarried":"CENTRAL PIKE","featuresIntersected":"HEMLOCK BROOK","location":"0.1 Mi W of JCT RI 94","lat":43.401944,"lon":-73.004722,"lowestRating":2,"yearBuilt":1953,"adt":180,"conditionCategory":"poor","structurallyDeficient":true,"materialName":"Steel","designTypeName":"Stringer/Multi-beam or Girder","lengthFt":36.4},{"id":"RI-000000000003010","state":"RI","stateName":"Rhode Island","countyFips":"007","facilityCarried":"SNEECH POND RD","featuresIntersected":"ABBOTT RUN","location":"0.2 Mi N of JCT RI 120","lat":43.261111,"lon":-72.368889,"lowestRating":2,"yearBuilt":1886,"adt":null,"conditionCategory":"poor","structurallyDeficient":true,"materialName":"Steel","designTypeName":"Truss - Thru","lengthFt":62.0},{"id":"RI-000000000007200","state":"RI","stateName":"Rhode Island","countyFips":"003","facilityCarried":"RI 113 EAST AV","featuresIntersected":"I-295 NB & SB","location":"0.5 Mi E of JCT RI 2","lat":43.311667,"lon":-72.241667,"lowestRating":3,"yearBuilt":1966,"adt":25800,"conditionCategory":"poor","structurallyDeficient":true,"materialName":"Steel","designTypeName":"Stringer/Multi-beam or Girder","lengthFt":317.3},{"id":"RI-000000000006370","state":"RI","stateName":"Rhode Island","countyFips":"003","facilityCarried":"RI 37 WB","featuresIntersected":"AMTRAK","location":"0.3 Mi E of JCT I-95","lat":43.037222,"lon":-71.619444,"lowestRating":3,"yearBuilt":1963,"adt":25765,"conditionCategory":"poor","structurallyDeficient":true,"materialName":"Steel","designTypeName":"Stringer/Multi-beam or Girder","lengthFt":157.2},{"id":"RI-000000000001080","state":"RI","stateName":"Rhode Island","countyFips":"007","facilityCarried":"RI 146A GREAT RD","featuresIntersected":"BRANCH RIVER","location":"2.0 Mi N of JCT RI 126","lat":43.640556,"lon":-71.825833,"lowestRating":3,"yearBuilt":1919,"adt":15100,"conditionCategory":"poor","structurallyDeficient":true,"materialName":"Concrete","designTypeName":"Arch - Deck","lengthFt":60.0},{"id":"RI-000000000004170","state":"RI","stateName":"Rhode Island","countyFips":"007","facilityCarried":"TWIN RIVER RD","featuresIntersected":"RI 146 EDDIE DOWLING HWY","location":"2.0 Mi N of JCT RI 15","lat":43.042778,"lon":-72.443889,"lowestRating":3,"yearBuilt":1952,"adt":9900,"conditionCategory":"poor","structurallyDeficient":true,"materialName":"Steel","designTypeName":"Stringer/Multi-beam or Girder","lengthFt":95.1},{"id":"RI-000000000008830","state":"RI","stateName":"Rhode Island","countyFips":"007","facilityCarried":"WEST RIVER ST","featuresIntersected":"WEST RIVER","location":"0.1 Mi S of Branch Av","lat":43.006667,"lon":-72.747778,"lowestRating":3,"yearBuilt":1955,"adt":7766,"conditionCategory":"poor","structurallyDeficient":true,"materialName":"Steel","designTypeName":"Stringer/Multi-beam or Girder","lengthFt":36.1},{"id":"RI-000000000001120","state":"RI","stateName":"Rhode Island","countyFips":"007","facilityCarried":"VICTORY HWY","featuresIntersected":"BRANCH RIVER","location":"0.9 Mi N of JCT RI 107","lat":42.671111,"lon":-73.143611,"lowestRating":3,"yearBuilt":1987,"adt":3300,"conditionCategory":"poor","structurallyDeficient":true,"materialName":"Prestressed Concrete","designTypeName":"Box Beam - Multiple","lengthFt":69.6},{"id":"RI-000000000001450","state":"RI","stateName":"Rhode Island","countyFips":"007","facilityCarried":"GREYSTONE AV","featuresIntersected":"WOONASQUATUCKET RIVER","location":"0.1 Mi N of JCT RI 104","lat":43.39,"lon":-72.377222,"lowestRating":3,"yearBuilt":1949,"adt":2965,"conditionCategory":"poor","structurallyDeficient":true,"materialName":"Wood or Timber","designTypeName":"Other","lengthFt":56.1},{"id":"RI-000000000007240","state":"RI","stateName":"Rhode Island","countyFips":"001","facilityCarried":"COLT DRIVE","featuresIntersected":"MILL GUT TIDAL INLET","location":"1.3 Mi W of JCT RI 114","lat":43.179167,"lon":-72.858889,"lowestRating":3,"yearBuilt":1967,"adt":2700,"conditionCategory":"poor","structurallyDeficient":true,"materialName":"Prestressed Concrete","designTypeName":"Stringer/Multi-beam or Girder","lengthFt":92.5},{"id":"RI-000000000008860","state":"RI","stateName":"Rhode Island","countyFips":"007","facilityCarried":"CLADRASTIS AVE","featuresIntersected":"CUNLIFFS LAKE","location":"1.0 Mi E of JCT US 1","lat":41.875833,"lon":-72.533333,"lowestRating":3,"yearBuilt":1897,"adt":2551,"conditionCategory":"poor","structurallyDeficient":true,"materialName":"Concrete","designTypeName":"Arch - Deck","lengthFt":44.0},{"id":"RI-000000000005150","state":"RI","stateName":"Rhode Island","countyFips":"003","facilityCarried":"FACTORY ST","featuresIntersected":"MILL TAIL RACE","location":"0.1 Mi E of JCT RI 33","lat":42.402222,"lon":-71.85,"lowestRating":3,"yearBuilt":1956,"adt":2241,"conditionCategory":"poor","structurallyDeficient":true,"materialName":"Masonry","designTypeName":"Arch - Deck","lengthFt":63.0},{"id":"RI-000000000005940","state":"RI","stateName":"Rhode Island","countyFips":"007","facilityCarried":"GROTTO AV","featuresIntersected":"MOSHASSUCK RIVER","location":"0.7 Mi W of JCT RI 126","lat":42.253889,"lon":-71.936111,"lowestRating":3,"yearBuilt":1935,"adt":1000,"conditionCategory":"poor","structurallyDeficient":true,"materialName":"Steel","designTypeName":"Stringer/Multi-beam or Girder","lengthFt":35.4},{"id":"RI-000000000008420","state":"RI","stateName":"Rhode Island","countyFips":"003","facilityCarried":"HILL ST","featuresIntersected":"PAWTUXET RIVER N BRANCH","location":"0.1 Mi S of JCT Main St","lat":43.101667,"lon":-72.845556,"lowestRating":3,"yearBuilt":1888,"adt":910,"conditionCategory":"poor","structurallyDeficient":true,"materialName":"Aluminum/Wrought Iron/Cast Iron","designTypeName":"Truss - Thru","lengthFt":132.9},{"id":"RI-000000000000490","state":"RI","stateName":"Rhode Island","countyFips":"009","facilityCarried":"WELLSTOWN RD","featuresIntersected":"ASHAWAY RIVER","location":"0.1 Mi S of JCT RI 3","lat":41.9375,"lon":-72.44,"lowestRating":3,"yearBuilt":1907,"adt":653,"conditionCategory":"poor","structurallyDeficient":true,"materialName":"Prestressed Concrete","designTypeName":"Box Beam - Multiple","lengthFt":68.9},{"id":"RI-000000000007830","state":"RI","stateName":"Rhode Island","countyFips":"009","facilityCarried":"HATCHERY RD","featuresIntersected":"AMTRAK","location":"0.5 Mi E of JCT RI 2","lat":41.900833,"lon":-72.8275,"lowestRating":3,"yearBuilt":1901,"adt":606,"conditionCategory":"poor","structurallyDeficient":true,"materialName":"Prestressed Concrete","designTypeName":"Box Beam - Multiple","lengthFt":56.1},{"id":"RI-000000000008450","state":"RI","stateName":"Rhode Island","countyFips":"003","facilityCarried":"CAHOONE RD","featuresIntersected":"BUCKS HORN BROOK","location":"0.1 Mi N of JCT RI 117","lat":43.264722,"lon":-73.026111,"lowestRating":3,"yearBuilt":1970,"adt":42,"conditionCategory":"poor","structurallyDeficient":true,"materialName":"Steel Continuous","designTypeName":"Stringer/Multi-beam or Girder","lengthFt":36.4},{"id":"RI-000000000000810","state":"RI","stateName":"Rhode Island","countyFips":"007","facilityCarried":"RI 14 PLNFLD ST","featuresIntersected":"POCASSET RIVER","location":"0.2 Mi E of JCT RI 5","lat":43.145278,"lon":-72.754722,"lowestRating":3,"yearBuilt":1897,"adt":11,"conditionCategory":"poor","structurallyDeficient":true,"materialName":"Masonry","designTypeName":"Arch - Deck","lengthFt":32.2},{"id":"RI-000000000006550","state":"RI","stateName":"Rhode Island","countyFips":"007","facilityCarried":"I-95 NB & SB","featuresIntersected":"THURBERS AV","location":"1.3 Mi S of JCT I-195","lat":41.855556,"lon":-71.691111,"lowestRating":4,"yearBuilt":1963,"adt":156790,"conditionCategory":"poor","structurallyDeficient":true,"materialName":"Steel","designTypeName":"Stringer/Multi-beam or Girder","lengthFt":145.0},{"id":"RI-000000000006190","state":"RI","stateName":"Rhode Island","countyFips":"003","facilityCarried":"I-95 NB & SB","featuresIntersected":"JEFFERSON BLVD","location":"0.3 Mi N of JCT I-95+295","lat":42.188056,"lon":-71.831111,"lowestRating":4,"yearBuilt":1966,"adt":146680,"conditionCategory":"poor","structurallyDeficient":true,"materialName":"Steel","designTypeName":"Stringer/Multi-beam or Girder","lengthFt":124.0},{"id":"RI-000000000006580","state":"RI","stateName":"Rhode Island","countyFips":"007","facilityCarried":"I-95 NB & SB","featuresIntersected":"NARR ELEC CO SIDING","location":"0.1 Mi N of JCT US 1","lat":42.483056,"lon":-71.483611,"lowestRating":4,"yearBuilt":1964,"adt":139026,"conditionCategory":"poor","structurallyDeficient":true,"materialName":"Prestressed Concrete","designTypeName":"Stringer/Multi-beam or Girder","lengthFt":57.1},{"id":"RI-000000000006590","state":"RI","stateName":"Rhode Island","countyFips":"007","facilityCarried":"I-95 NB & SB","featuresIntersected":"US 1 ELMWOOD AV","location":"0.6 Mi N of JCT RI 10","lat":42.21,"lon":-71.794722,"lowestRating":4,"yearBuilt":1965,"adt":129532,"conditionCategory":"poor","structurallyDeficient":true,"materialName":"Steel","designTypeName":"Stringer/Multi-beam or Girder","lengthFt":168.0},{"id":"RI-000000000006600","state":"RI","stateName":"Rhode Island","countyFips":"007","facilityCarried":"I-95 NB & SB","featuresIntersected":"AMTRAK","location":"1.5 Mi S of JCT US 1A","lat":42.075,"lon":-71.910556,"lowestRating":4,"yearBuilt":1964,"adt":129532,"conditionCategory":"poor","structurallyDeficient":true,"materialName":"Steel","designTypeName":"Stringer/Multi-beam or Girder","lengthFt":304.1},{"id":"RI-000000000004270","state":"RI","stateName":"Rhode Island","countyFips":"007","facilityCarried":"RI 146 ED DOWL HWY","featuresIntersected":"RI 15 MINERAL SPRING AV","location":"0.8 Mi S of JCT CHRLES ST","lat":42.038056,"lon":-72.829444,"lowestRating":4,"yearBuilt":1957,"adt":69109,"conditionCategory":"poor","structurallyDeficient":true,"materialName":"Concrete","designTypeName":"Frame","lengthFt":70.9},{"id":"RI-000000000004280","state":"RI","stateName":"Rhode Island","countyFips":"007","facilityCarried":"RI 146 ED DOWL HWY","featuresIntersected":"BRANCH AV","location":"2.0 Mi N of JCT I-95","lat":42.157222,"lon":-72.406111,"lowestRating":4,"yearBuilt":1957,"adt":65800,"conditionCategory":"poor","structurallyDeficient":true,"materialName":"Steel","designTypeName":"Stringer/Multi-beam or Girder","lengthFt":169.0},{"id":"RI-000000000006090","state":"RI","stateName":"Rhode Island","countyFips":"007","facilityCarried":"US 6 EB & WB","featuresIntersected":"US 6A HARTFORD AV RAMP","location":"1.0 Mi E of JCT RI 5","lat":42.085556,"lon":-72.889444,"lowestRating":4,"yearBuilt":1969,"adt":53619,"conditionCategory":"poor","structurallyDeficient":true,"materialName":"Steel","designTypeName":"Stringer/Multi-beam or Girder","lengthFt":130.9},{"id":"RI-000000000006240","state":"RI","stateName":"Rhode Island","countyFips":"007","facilityCarried":"RI 37 EB & WB","featuresIntersected":"RI 2 NEW LONDON AV","location":"JCT of RI 2 & RI 37","lat":42.070833,"lon":-72.881389,"lowestRating":4,"yearBuilt":1965,"adt":47871,"conditionCategory":"poor","structurallyDeficient":true,"materialName":"Steel","designTypeName":"Stringer/Multi-beam or Girder","lengthFt":102.7},{"id":"RI-000000000004180","state":"RI","stateName":"Rhode Island","countyFips":"007","facilityCarried":"RI 146 ED DOWL HWY","featuresIntersected":"COBBLE HILL RD","location":"2.0 Mi S of JCT RI 123","lat":41.965556,"lon":-71.799444,"lowestRating":4,"yearBuilt":1956,"adt":47393,"conditionCategory":"poor","structurallyDeficient":true,"materialName":"Concrete","designTypeName":"Frame","lengthFt":66.9},{"id":"RI-000000000006360","state":"RI","stateName":"Rhode Island","countyFips":"003","facilityCarried":"RI 37 EB","featuresIntersected":"AMTRAK","location":"0.5 Mi E of Jct I-95","lat":42.987222,"lon":-71.637778,"lowestRating":4,"yearBuilt":1963,"adt":47277,"conditionCategory":"poor","structurallyDeficient":true,"materialName":"Steel","designTypeName":"Stringer/Multi-beam or Girder","lengthFt":150.9},{"id":"RI-000000000004190","state":"RI","stateName":"Rhode Island","countyFips":"007","facilityCarried":"RI 146 ED DOWL HWY","featuresIntersected":"RI 246 CHARLES ST","location":"0.5 Mi N of JCT RI 15","lat":42.5525,"lon":-72.915278,"lowestRating":4,"yearBuilt":1956,"adt":47208,"conditionCategory":"poor","structurallyDeficient":true,"materialName":"Concrete","designTypeName":"Frame","lengthFt":74.5},{"id":"RI-000000000008960","state":"RI","stateName":"Rhode Island","countyFips":"009","facilityCarried":"US 1 TOWER HILL RD","featuresIntersected":"RI 138","location":"0.5 Mi S of JCT RI 4","lat":42.864722,"lon":-73.059722,"lowestRating":4,"yearBuilt":1969,"adt":46800,"conditionCategory":"poor","structurallyDeficient":true,"materialName":"Steel Continuous","designTypeName":"Stringer/Multi-beam or Girder","lengthFt":172.6},{"id":"RI-000000000006380","state":"RI","stateName":"Rhode Island","countyFips":"003","facilityCarried":"RI 37 EB & WB","featuresIntersected":"US 1 POST RD","location":"1.0 Mi E of JCT I-95","lat":42.588333,"lon":-72.879444,"lowestRating":4,"yearBuilt":1965,"adt":46000,"conditionCategory":"poor","structurallyDeficient":true,"materialName":"Prestressed Concrete","designTypeName":"Stringer/Multi-beam or Girder","lengthFt":182.1},{"id":"RI-000000000000020","state":"RI","stateName":"Rhode Island","countyFips":"003","facilityCarried":"RI 113 MAIN AV","featuresIntersected":"AMTRAK","location":"1.0 Mi E of JCT I-95","lat":42.839722,"lon":-72.8925,"lowestRating":4,"yearBuilt":2006,"adt":34118,"conditionCategory":"poor","structurallyDeficient":true,"materialName":"Prestressed Concrete","designTypeName":"Box Beam - Multiple","lengthFt":82.3},{"id":"RI-000000000005790","state":"RI","stateName":"Rhode Island","countyFips":"007","facilityCarried":"RAMP AD","featuresIntersected":"AMTRAK WOON RVR RAMP BD","location":"0.5 Mi N of JCT I-195","lat":42.828056,"lon":-71.7325,"lowestRating":4,"yearBuilt":1988,"adt":31200,"conditionCategory":"poor","structurallyDeficient":true,"materialName":"Steel Continuous","designTypeName":"Stringer/Multi-beam or Girder","lengthFt":1001.6},{"id":"RI-000000000007760","state":"RI","stateName":"Rhode Island","countyFips":"007","facilityCarried":"DEAN ST","featuresIntersected":"US 6 HARRIS AV & AMTRAK","location":"O.5 Mi S of JCT I-95 US 6","lat":42.744444,"lon":-72.343889,"lowestRating":4,"yearBuilt":1972,"adt":31112,"conditionCategory":"poor","structurallyDeficient":true,"materialName":"Steel","designTypeName":"Stringer/Multi-beam or Girder","lengthFt":480.0},{"id":"RI-000000000006220","state":"RI","stateName":"Rhode Island","countyFips":"007","facilityCarried":"RI 37 EB & WB","featuresIntersected":"Wash Sec Bike Path","location":"0.1 Mi E of Oaklawn Av","lat":42.396944,"lon":-72.446667,"lowestRating":4,"yearBuilt":1968,"adt":30529,"conditionCategory":"poor","structurallyDeficient":true,"materialName":"Steel","designTypeName":"Stringer/Multi-beam or Girder","lengthFt":91.9},{"id":"RI-000000000006210","state":"RI","stateName":"Rhode Island","countyFips":"007","facilityCarried":"RI 37 EB & WB","featuresIntersected":"CRANSTON ST","location":"0.5 Mi E of JCT Natick Av","lat":42.383056,"lon":-72.522222,"lowestRating":4,"yearBuilt":1968,"adt":30528,"conditionCategory":"poor","structurallyDeficient":true,"materialName":"Steel","designTypeName":"Stringer/Multi-beam or Girder","lengthFt":88.3},{"id":"RI-000000000006670","state":"RI","stateName":"Rhode Island","countyFips":"007","facilityCarried":"RI 10 HUNTNGTN EXP","featuresIntersected":"US 1 ELMWOOD AV","location":"0.1 Mi E of JCT I-95","lat":43.266667,"lon":-71.7,"lowestRating":4,"yearBuilt":1965,"adt":28420,"conditionCategory":"poor","structurallyDeficient":true,"materialName":"Steel","designTypeName":"Stringer/Multi-beam or Girder","lengthFt":146.0},{"id":"RI-000000000007480","state":"RI","stateName":"Rhode Island","countyFips":"007","facilityCarried":"I-295 NB","featuresIntersected":"RI 146 EDDIE DOWLING HWY","location":"1.0 Mi N of JCT RI 116","lat":42.879167,"lon":-72.374722,"lowestRating":4,"yearBuilt":1969,"adt":27992,"conditionCategory":"poor","structurallyDeficient":true,"materialName":"Steel","designTypeName":"Stringer/Multi-beam or Girder","lengthFt":251.6},{"id":"RI-000000000007280","state":"RI","stateName":"Rhode Island","countyFips":"007","facilityCarried":"RI 37 EB & WB","featuresIntersected":"I-295 NB","location":"0.2 Mi E of JCT RI 5","lat":42.315556,"lon":-72.824444,"lowestRating":4,"yearBuilt":1968,"adt":27900,"conditionCategory":"poor","structurallyDeficient":true,"materialName":"Steel","designTypeName":"Stringer/Multi-beam or Girder","lengthFt":120.1},{"id":"RI-000000000007282","state":"RI","stateName":"Rhode Island","countyFips":"007","facilityCarried":"RI 37 EB & WB","featuresIntersected":"I-295 SB","location":"0.2 MI E of JCT RI 5","lat":42.294167,"lon":-72.919444,"lowestRating":4,"yearBuilt":1969,"adt":27900,"conditionCategory":"poor","structurallyDeficient":true,"materialName":"Steel","designTypeName":"Stringer/Multi-beam or Girder","lengthFt":107.0},{"id":"RI-000000000006650","state":"RI","stateName":"Rhode Island","countyFips":"007","facilityCarried":"RI 10 HUNTNGTN EXP","featuresIntersected":"I-95 NB & SB  AMTRAK","location":"3.0 Mi N of JCT RI 37","lat":43.289444,"lon":-72.099167,"lowestRating":4,"yearBuilt":1965,"adt":26754,"conditionCategory":"poor","structurallyDeficient":true,"materialName":"Steel","designTypeName":"Stringer/Multi-beam or Girder","lengthFt":777.9},{"id":"RI-000000000007552","state":"RI","stateName":"Rhode Island","countyFips":"007","facilityCarried":"I-295 SB","featuresIntersected":"ABBOTT RUN VALLEY RD","location":"0.7 Mi E OF Jct RI 114","lat":42.233056,"lon":-71.8425,"lowestRating":4,"yearBuilt":1965,"adt":25800,"conditionCategory":"poor","structurallyDeficient":true,"materialName":"Steel","designTypeName":"Stringer/Multi-beam or Girder","lengthFt":128.0},{"id":"RI-000000000006820","state":"RI","stateName":"Rhode Island","countyFips":"003","facilityCarried":"RI 113 EAST AV","featuresIntersected":"I-95 NB & SB","location":"1.0 Mi N of JCT RI 117","lat":43.310278,"lon":-71.9075,"lowestRating":4,"yearBuilt":1965,"adt":24950,"conditionCategory":"poor","structurallyDeficient":true,"materialName":"Steel Continuous","designTypeName":"Stringer/Multi-beam or Girder","lengthFt":230.0},{"id":"RI-000000000007250","state":"RI","stateName":"Rhode Island","countyFips":"003","facilityCarried":"I-295 NB","featuresIntersected":"Wash Sec Bike W Natic Rd","location":"0.3 Mi W of JCT RI 2","lat":42.94,"lon":-71.591111,"lowestRating":4,"yearBuilt":1968,"adt":22473,"conditionCategory":"poor","structurallyDeficient":true,"materialName":"Steel Continuous","designTypeName":"Stringer/Multi-beam or Girder","lengthFt":335.6},{"id":"RI-000000000007462","state":"RI","stateName":"Rhode Island","countyFips":"007","facilityCarried":"RI 7 DOUGLAS PIKE","featuresIntersected":"I-295 NB","location":"0.5 Mi S of JCT RI 146","lat":42.702222,"lon":-72.629444,"lowestRating":4,"yearBuilt":1971,"adt":22467,"conditionCategory":"poor","structurallyDeficient":true,"materialName":"Steel","designTypeName":"Stringer/Multi-beam or Girder","lengthFt":100.7},{"id":"RI-000000000007510","state":"RI","stateName":"Rhode Island","countyFips":"007","facilityCarried":"RI 122 MENDON RD","featuresIntersected":"I-295 NB & SB","location":"2.0 Mi S of Cumb High","lat":43.092222,"lon":-71.783056,"lowestRating":4,"yearBuilt":1965,"adt":22300,"conditionCategory":"poor","structurallyDeficient":true,"materialName":"Steel","designTypeName":"Stringer/Multi-beam or Girder","lengthFt":192.9},{"id":"RI-000000000009270","state":"RI","stateName":"Rhode Island","countyFips":"007","facilityCarried":"BROADWAY","featuresIntersected":"AMTRAK & P&W RR","location":"0.4 Mi N of JCT US 6","lat":41.876667,"lon":-72.062778,"lowestRating":4,"yearBuilt":1994,"adt":20278,"conditionCategory":"poor","structurallyDeficient":true,"materialName":"Prestressed Concrete","designTypeName":"Slab","lengthFt":83.0},{"id":"RI-000000000004300","state":"RI","stateName":"Rhode Island","countyFips":"007","facilityCarried":"ADMIRAL ST","featuresIntersected":"RI 146 LOUISQUISSET PIKE","location":"1.0 Mi N of JCT I-95","lat":42.569444,"lon":-71.54,"lowestRating":4,"yearBuilt":1975,"adt":20250,"conditionCategory":"poor","structurallyDeficient":true,"materialName":"Steel","designTypeName":"Stringer/Multi-beam or Girder","lengthFt":107.9},{"id":"RI-000000000007540","state":"RI","stateName":"Rhode Island","countyFips":"007","facilityCarried":"RI 114 DMND HLL RD","featuresIntersected":"I-295 NB & SB","location":"0.4 Mi N of JCT RI 116","lat":42.001944,"lon":-71.663611,"lowestRating":4,"yearBuilt":1963,"adt":17455,"conditionCategory":"poor","structurallyDeficient":true,"materialName":"Steel","designTypeName":"Stringer/Multi-beam or Girder","lengthFt":232.9},{"id":"RI-000000000002860","state":"RI","stateName":"Rhode Island","countyFips":"007","facilityCarried":"RI 5 OAKLAWN AV","featuresIntersected":"WASH SEC BIKE PATH","location":"0.1 Mi S of JCT RI 12","lat":42.738611,"lon":-71.663611,"lowestRating":4,"yearBuilt":1940,"adt":16551,"conditionCategory":"poor","structurallyDeficient":true,"materialName":"Steel","designTypeName":"Stringer/Multi-beam or Girder","lengthFt":54.1},{"id":"RI-000000000009360","state":"RI","stateName":"Rhode Island","countyFips":"007","facilityCarried":"RI 114 BROAD ST","featuresIntersected":"AMTRAK & P&W RR","location":"0.1 Mi S of Barton St","lat":43.427222,"lon":-71.711944,"lowestRating":4,"yearBuilt":1900,"adt":16040,"conditionCategory":"poor","structurallyDeficient":true,"materialName":"Steel","designTypeName":"Stringer/Multi-beam or Girder","lengthFt":159.1},{"id":"RI-000000000006720","state":"RI","stateName":"Rhode Island","countyFips":"007","facilityCarried":"RI 102 BRONCO HWY","featuresIntersected":"BRANCH RVR & JOSLIN RD","location":"0.9 Mi S of JCT RI 7","lat":42.749722,"lon":-73.15,"lowestRating":4,"yearBuilt":1967,"adt":15976,"conditionCategory":"poor","structurallyDeficient":true,"materialName":"Steel","designTypeName":"Stringer/Multi-beam or Girder","lengthFt":189.6},{"id":"RI-000000000003050","state":"RI","stateName":"Rhode Island","countyFips":"007","facilityCarried":"RI 114 BROAD ST","featuresIntersected":"BLACKSTONE RIVER","location":"0.5 Mi S of JCT RI 123","lat":43.483056,"lon":-72.059722,"lowestRating":4,"yearBuilt":1915,"adt":14500,"conditionCategory":"poor","structurallyDeficient":true,"materialName":"Concrete","designTypeName":"Arch - Deck","lengthFt":214.9},{"id":"RI-000000000008310","state":"RI","stateName":"Rhode Island","countyFips":"007","facilityCarried":"RI 37 RAMP","featuresIntersected":"CRANSTON ST","location":"0.2 Mi E of PHENIX AV","lat":42.443056,"lon":-72.503611,"lowestRating":4,"yearBuilt":1968,"adt":14390,"conditionCategory":"poor","structurallyDeficient":true,"materialName":"Steel","designTypeName":"Stringer/Multi-beam or Girder","lengthFt":89.9},{"id":"RI-000000000005760","state":"RI","stateName":"Rhode Island","countyFips":"007","facilityCarried":"RAMP BR-4","featuresIntersected":"I-95 RAMP BC","location":"0.8 Mi S of JCT RI 146","lat":42.525,"lon":-71.69,"lowestRating":4,"yearBuilt":1965,"adt":14178,"conditionCategory":"poor","structurallyDeficient":true,"materialName":"Steel","designTypeName":"Stringer/Multi-beam or Girder","lengthFt":252.0},{"id":"RI-000000000004160","state":"RI","stateName":"Rhode Island","countyFips":"007","facilityCarried":"RI 123 BRKNCK HILL","featuresIntersected":"RI 146 EDDIE DOWLING HWY","location":"0.5 Mi E Jct RI 246","lat":42.151667,"lon":-72.825833,"lowestRating":4,"yearBuilt":1951,"adt":13500,"conditionCategory":"poor","structurallyDeficient":true,"materialName":"Steel","designTypeName":"Stringer/Multi-beam or Girder","lengthFt":92.8},{"id":"RI-000000000009580","state":"RI","stateName":"Rhode Island","countyFips":"007","facilityCarried":"RI 104 SO MAIN ST","featuresIntersected":"BLACKSTONE RIVER","location":"0.1 Mi W of Arnold St","lat":43.550278,"lon":-71.654722,"lowestRating":4,"yearBuilt":1903,"adt":13424,"conditionCategory":"poor","structurallyDeficient":true,"materialName":"Masonry","designTypeName":"Arch - Deck","lengthFt":44.0},{"id":"RI-000000000009582","state":"RI","stateName":"Rhode Island","countyFips":"007","facilityCarried":"RI 104 SO MAIN ST","featuresIntersected":"BLACKSTONE RIVER","location":"0.1 Mi W of Arnold St","lat":43.566111,"lon":-71.611389,"lowestRating":4,"yearBuilt":1903,"adt":13424,"conditionCategory":"poor","structurallyDeficient":true,"materialName":"Masonry","designTypeName":"Arch - Deck","lengthFt":60.0},{"id":"RI-000000000007630","state":"RI","stateName":"Rhode Island","countyFips":"003","facilityCarried":"RI 402 FRNCHTWN RD","featuresIntersected":"Ramp 4E to RI 402 RI 4","location":"0.5 Mi E of JCT RI 2","lat":42.747222,"lon":-71.866667,"lowestRating":4,"yearBuilt":1973,"adt":13423,"conditionCategory":"poor","structurallyDeficient":true,"materialName":"Steel Continuous","designTypeName":"Stringer/Multi-beam or Girder","lengthFt":362.9},{"id":"RI-000000000006560","state":"RI","stateName":"Rhode Island","countyFips":"007","facilityCarried":"EDDY ST","featuresIntersected":"I-95 & P&W RR","location":"0.3 Mi W of JCT US 1A","lat":43.116667,"lon":-71.893889,"lowestRating":4,"yearBuilt":1964,"adt":13289,"conditionCategory":"poor","structurallyDeficient":true,"materialName":"Steel","designTypeName":"Stringer/Multi-beam or Girder","lengthFt":200.1},{"id":"RI-000000000008560","state":"RI","stateName":"Rhode Island","countyFips":"009","facilityCarried":"RI 78 WEST BY-PASS","featuresIntersected":"RI 91 BRDFRD RD & AMTRAK","location":"1.9 Mi N of JCT US 1","lat":41.4775,"lon":-72.225833,"lowestRating":4,"yearBuilt":1975,"adt":12829,"conditionCategory":"poor","structurallyDeficient":true,"materialName":"Steel Continuous","designTypeName":"Stringer/Multi-beam or Girder","lengthFt":268.0},{"id":"RI-000000000009350","state":"RI","stateName":"Rhode Island","countyFips":"007","facilityCarried":"DEXTER ST","featuresIntersected":"AMTRAK & P&W RR","location":"0.1 Mi S of Barton St","lat":43.233333,"lon":-71.993889,"lowestRating":4,"yearBuilt":1900,"adt":12727,"conditionCategory":"poor","structurallyDeficient":true,"materialName":"Prestressed Concrete","designTypeName":"Box Beam - Multiple","lengthFt":66.9},{"id":"RI-000000000009640","state":"RI","stateName":"Rhode Island","countyFips":"007","facilityCarried":"RI 15&114 XCHNG ST","featuresIntersected":"BLACKSTONE RIVER","location":"0.2 Mi W of JCT I-95","lat":43.184444,"lon":-72.8525,"lowestRating":4,"yearBuilt":1928,"adt":12626,"conditionCategory":"poor","structurallyDeficient":true,"materialName":"Concrete","designTypeName":"Arch - Deck","lengthFt":210.0},{"id":"RI-000000000005110","state":"RI","stateName":"Rhode Island","countyFips":"007","facilityCarried":"VALLEY ST","featuresIntersected":"WOONASQUATUCKET RIVER","location":"0.1 Mi S of Atwells Av","lat":42.403056,"lon":-72.093333,"lowestRating":4,"yearBuilt":1909,"adt":12493,"conditionCategory":"poor","structurallyDeficient":true,"materialName":"Steel","designTypeName":"Stringer/Multi-beam or Girder","lengthFt":45.9},{"id":"RI-000000000000220","state":"RI","stateName":"Rhode Island","countyFips":"009","facilityCarried":"US 1 BROAD STREET","featuresIntersected":"PAWCATUCK RIVER","location":"0.3 Mi N of JCT US 1A","lat":42.473333,"lon":-73.283611,"lowestRating":4,"yearBuilt":1932,"adt":12200,"conditionCategory":"poor","structurallyDeficient":true,"materialName":"Concrete","designTypeName":"Tee Beam","lengthFt":115.2},{"id":"RI-000000000000170","state":"RI","stateName":"Rhode Island","countyFips":"009","facilityCarried":"US 1A BSTN NCK RD","featuresIntersected":"NARROW RIVER","location":"2.6 Mi E of JCT US 1","lat":43.003056,"lon":-73.078333,"lowestRating":4,"yearBuilt":1981,"adt":11818,"conditionCategory":"poor","structurallyDeficient":true,"materialName":"Steel","designTypeName":"Stringer/Multi-beam or Girder","lengthFt":154.9},{"id":"RI-000000000007290","state":"RI","stateName":"Rhode Island","countyFips":"007","facilityCarried":"RI 51 PHENIX AV","featuresIntersected":"I-295 NB","location":"1.25 Mi S of JCT RI 5","lat":41.783056,"lon":-73.002778,"lowestRating":4,"yearBuilt":1968,"adt":11658,"conditionCategory":"poor","structurallyDeficient":true,"materialName":"Steel","designTypeName":"Stringer/Multi-beam or Girder","lengthFt":137.5},{"id":"RI-000000000006680","state":"RI","stateName":"Rhode Island","countyFips":"007","facilityCarried":"PONTIAC AV","featuresIntersected":"RI 10 HUNTINGTON EXPRESS","location":"0.1 Mi W of JCT I-95","lat":43.367778,"lon":-72.815278,"lowestRating":4,"yearBuilt":1966,"adt":10682,"conditionCategory":"poor","structurallyDeficient":true,"materialName":"Steel","designTypeName":"Stringer/Multi-beam or Girder","lengthFt":142.1},{"id":"RI-000000000009630","state":"RI","stateName":"Rhode Island","countyFips":"007","facilityCarried":"PRIVILEGE ST","featuresIntersected":"MILL RIVER","location":"0.3 Mi W of Rathborn St","lat":43.4525,"lon":-72.298611,"lowestRating":4,"yearBuilt":1961,"adt":9981,"conditionCategory":"poor","structurallyDeficient":true,"materialName":"Steel","designTypeName":"Stringer/Multi-beam or Girder","lengthFt":108.9},{"id":"RI-000000000007310","state":"RI","stateName":"Rhode Island","countyFips":"007","facilityCarried":"RI 12 SCITUATE AV","featuresIntersected":"I-295 NB & SB","location":"1.6 Mi W of JCT RI 5","lat":43.135,"lon":-71.594444,"lowestRating":4,"yearBuilt":1969,"adt":9841,"conditionCategory":"poor","structurallyDeficient":true,"materialName":"Steel Continuous","designTypeName":"Stringer/Multi-beam or Girder","lengthFt":233.9},{"id":"RI-000000000007260","state":"RI","stateName":"Rhode Island","countyFips":"007","facilityCarried":"RI 33 PROVIDNCE ST","featuresIntersected":"I-295 NB & SB","location":"0.5 Mi W Jct RI 2","lat":43.164444,"lon":-71.804444,"lowestRating":4,"yearBuilt":1968,"adt":9797,"conditionCategory":"poor","structurallyDeficient":true,"materialName":"Steel Continuous","designTypeName":"Stringer/Multi-beam or Girder","lengthFt":234.6},{"id":"RI-000000000009700","state":"RI","stateName":"Rhode Island","countyFips":"007","facilityCarried":"WEEDEN ST","featuresIntersected":"MOSHASSUCK RIVER","location":"0.5 Mi E of JCT RI 126","lat":42.922778,"lon":-71.980556,"lowestRating":4,"yearBuilt":1967,"adt":9765,"conditionCategory":"poor","structurallyDeficient":true,"materialName":"Steel","designTypeName":"Stringer/Multi-beam or Girder","lengthFt":34.1},{"id":"RI-000000000006710","state":"RI","stateName":"Rhode Island","countyFips":"007","facilityCarried":"RI 102 BRONCO HWY","featuresIntersected":"WHIPPLE AV","location":"2.2 Mi S of JCT RI 7","lat":43.078333,"lon":-73.233611,"lowestRating":4,"yearBuilt":1964,"adt":9200,"conditionCategory":"poor","structurallyDeficient":true,"materialName":"Steel","designTypeName":"Stringer/Multi-beam or Girder","lengthFt":86.0},{"id":"RI-000000000003060","state":"RI","stateName":"Rhode Island","countyFips":"007","facilityCarried":"RI 107 EAST AV","featuresIntersected":"PASCOAG RIVER","location":"1.7 Mi W of JCT RI 102","lat":43.494444,"lon":-72.451389,"lowestRating":4,"yearBuilt":1902,"adt":8750,"conditionCategory":"poor","structurallyDeficient":true,"materialName":"Masonry","designTypeName":"Arch - Deck","lengthFt":49.2},{"id":"RI-000000000006850","state":"RI","stateName":"Rhode Island","countyFips":"003","facilityCarried":"COWESETT RD","featuresIntersected":"I-95 NB & SB","location":"1.0 Mi W of JCT US 1","lat":41.87,"lon":-72.535833,"lowestRating":4,"yearBuilt":1965,"adt":7979,"conditionCategory":"poor","structurallyDeficient":true,"materialName":"Steel","designTypeName":"Stringer/Multi-beam or Girder","lengthFt":200.1},{"id":"RI-000000000003880","state":"RI","stateName":"Rhode Island","countyFips":"007","facilityCarried":"MANVILLE RD","featuresIntersected":"MANVILLE MILL TRENCH","location":"0.1 Mi E JCT NEW RIVER RD","lat":42.449444,"lon":-71.763889,"lowestRating":4,"yearBuilt":1901,"adt":7800,"conditionCategory":"poor","structurallyDeficient":true,"materialName":"Masonry","designTypeName":"Culvert","lengthFt":86.9},{"id":"RI-000000000006620","state":"RI","stateName":"Rhode Island","countyFips":"007","facilityCarried":"I-95 RAMP CB","featuresIntersected":"WELLINGTON AV & AMTRAK","location":"0.1 Mi E of JCT RI 10","lat":43.322222,"lon":-72.0,"lowestRating":4,"yearBuilt":1965,"adt":7776,"conditionCategory":"poor","structurallyDeficient":true,"materialName":"Steel","designTypeName":"Stringer/Multi-beam or Girder","lengthFt":291.0},{"id":"RI-000000000006080","state":"RI","stateName":"Rhode Island","countyFips":"007","facilityCarried":"US 6A HARTFRD AV","featuresIntersected":"US 6","location":"1 Mi E JCT RI 5","lat":42.183056,"lon":-72.651667,"lowestRating":4,"yearBuilt":1969,"adt":7504,"conditionCategory":"poor","structurallyDeficient":true,"materialName":"Steel","designTypeName":"Stringer/Multi-beam or Girder","lengthFt":183.1},{"id":"RI-000000000004930","state":"RI","stateName":"Rhode Island","countyFips":"007","facilityCarried":"HIGGINSON AV","featuresIntersected":"MOSHASSUCK RIVER","location":"0.3 Mi E of JCT RI 126","lat":42.153889,"lon":-72.164444,"lowestRating":4,"yearBuilt":1962,"adt":6464,"conditionCategory":"poor","structurallyDeficient":true,"materialName":"Concrete","designTypeName":"Tee Beam","lengthFt":35.4},{"id":"RI-000000000001980","state":"RI","stateName":"Rhode Island","countyFips":"007","facilityCarried":"HIGH ST","featuresIntersected":"PASCOAG RIVER","location":"0.1 Mi W of Main St","lat":42.521944,"lon":-72.012222,"lowestRating":4,"yearBuilt":1865,"adt":5800,"conditionCategory":"poor","structurallyDeficient":true,"materialName":"Masonry","designTypeName":"Arch - Deck","lengthFt":34.1},{"id":"RI-000000000002270","state":"RI","stateName":"Rhode Island","countyFips":"003","facilityCarried":"RI 102 VICTORY HWY","featuresIntersected":"BRIDLE / HIKING TRAIL","location":"0.1 Mi S of JCT RI 117","lat":42.453611,"lon":-72.6825,"lowestRating":4,"yearBuilt":1927,"adt":5534,"conditionCategory":"poor","structurallyDeficient":true,"materialName":"Concrete","designTypeName":"Arch - Deck","lengthFt":45.9},{"id":"RI-000000000001110","state":"RI","stateName":"Rhode Island","countyFips":"007","facilityCarried":"RI 7 DOUGLAS PIKE","featuresIntersected":"BRANCH RIVER","location":"0.3 Mi S of JCT RI 102","lat":43.119722,"lon":-73.104444,"lowestRating":4,"yearBuilt":1907,"adt":5454,"conditionCategory":"poor","structurallyDeficient":true,"materialName":"Masonry","designTypeName":"Arch - Deck","lengthFt":49.9},{"id":"RI-000000000003690","state":"RI","stateName":"Rhode Island","countyFips":"009","facilityCarried":"DEVILS FOOT RD","featuresIntersected":"AMTRAK","location":"1.0 Mi N of JCT US 1","lat":43.031944,"lon":-72.234167,"lowestRating":4,"yearBuilt":2007,"adt":5252,"conditionCategory":"poor","structurallyDeficient":true,"materialName":"Prestressed Concrete","designTypeName":"Box Beam - Multiple","lengthFt":117.8},{"id":"RI-000000000008820","state":"RI","stateName":"Rhode Island","countyFips":"007","facilityCarried":"INDUSTRIAL DR","featuresIntersected":"MOSHASSUCK RIVER","location":"0.1 Mi W of I-95","lat":42.58,"lon":-72.426944,"lowestRating":4,"yearBuilt":1965,"adt":4545,"conditionCategory":"poor","structurallyDeficient":true,"materialName":"Steel","designTypeName":"Stringer/Multi-beam or Girder","lengthFt":88.9},{"id":"RI-000000000006970","state":"RI","stateName":"Rhode Island","countyFips":"005","facilityCarried":"GOAT ISL CAUSEWAY","featuresIntersected":"NEWPORT HARBOR","location":"0.3 Mi W of JCT RI 238","lat":42.278333,"lon":-72.153889,"lowestRating":4,"yearBuilt":1965,"adt":3704,"conditionCategory":"poor","structurallyDeficient":true,"materialName":"Prestressed Concrete","designTypeName":"Stringer/Multi-beam or Girder","lengthFt":1067.3},{"id":"RI-000000000001010","state":"RI","stateName":"Rhode Island","countyFips":"009","facilityCarried":"RI 216 HIGH ST","featuresIntersected":"ASHAWAY RIVER","location":"0.2 Mi NW of JCT RI 3","lat":42.238056,"lon":-72.4125,"lowestRating":4,"yearBuilt":1950,"adt":3184,"conditionCategory":"poor","structurallyDeficient":true,"materialName":"Concrete","designTypeName":"Slab","lengthFt":92.5},{"id":"RI-000000000002870","state":"RI","stateName":"Rhode Island","countyFips":"005","facilityCarried":"VAN ZANDT AV","featuresIntersected":"NEWPORT SEC RR","location":"0.1 Mi W of Farewell St","lat":43.015278,"lon":-71.455556,"lowestRating":4,"yearBuilt":1919,"adt":3030,"conditionCategory":"poor","structurallyDeficient":true,"materialName":"Concrete Continuous","designTypeName":"Tee Beam","lengthFt":86.9},{"id":"RI-000000000008850","state":"RI","stateName":"Rhode Island","countyFips":"007","facilityCarried":"CLADRASTIS AVE","featuresIntersected":"PLEASURE LAKE","location":"0.8 Mi E of JCT RI 10","lat":41.938333,"lon":-72.075833,"lowestRating":4,"yearBuilt":1897,"adt":2764,"conditionCategory":"poor","structurallyDeficient":true,"materialName":"Masonry","designTypeName":"Arch - Deck","lengthFt":38.1},{"id":"RI-000000000010980","state":"RI","stateName":"Rhode Island","countyFips":"007","facilityCarried":"KIMBERLY LANE","featuresIntersected":"FURNACE HILL BROOK","location":"0.01 mi inters Phenix Av","lat":42.329167,"lon":-72.950833,"lowestRating":4,"yearBuilt":1980,"adt":2502,"conditionCategory":"poor","structurallyDeficient":true,"materialName":"Concrete","designTypeName":"Culvert","lengthFt":21.0},{"id":"RI-000000000008900","state":"RI","stateName":"Rhode Island","countyFips":"007","facilityCarried":"VEAZIE ST","featuresIntersected":"WEST RIVER","location":"0.1 Mi E of Branch Av","lat":42.411389,"lon":-71.536667,"lowestRating":4,"yearBuilt":1913,"adt":2222,"conditionCategory":"poor","structurallyDeficient":true,"materialName":"Steel","designTypeName":"Stringer/Multi-beam or Girder","lengthFt":35.1},{"id":"RI-000000000003470","state":"RI","stateName":"Rhode Island","countyFips":"007","facilityCarried":"DEAN PKWY","featuresIntersected":"WASH SEC BIKE PATH","location":"2.0 Mi N of JCT RI 37","lat":41.814167,"lon":-72.127778,"lowestRating":4,"yearBuilt":1984,"adt":2102,"conditionCategory":"poor","structurallyDeficient":true,"materialName":"Prestressed Concrete","designTypeName":"Box Beam - Multiple","lengthFt":102.0},{"id":"RI-000000000008840","state":"RI","stateName":"Rhode Island","countyFips":"007","facilityCarried":"MAGNAN RD","featuresIntersected":"AMTRAK","location":"0.5 Mi E Jct RI 10","lat":42.0375,"lon":-71.804444,"lowestRating":4,"yearBuilt":1960,"adt":2000,"conditionCategory":"poor","structurallyDeficient":true,"materialName":"Steel","designTypeName":"Stringer/Multi-beam or Girder","lengthFt":65.9},{"id":"RI-000000000003700","state":"RI","stateName":"Rhode Island","countyFips":"009","facilityCarried":"EXETER RD","featuresIntersected":"AMTRAK","location":"0.8 Mi E of JCT RI 2","lat":42.461667,"lon":-72.558889,"lowestRating":4,"yearBuilt":1936,"adt":1787,"conditionCategory":"poor","structurallyDeficient":true,"materialName":"Steel","designTypeName":"Stringer/Multi-beam or Girder","lengthFt":60.4},{"id":"RI-000000000008360","state":"RI","stateName":"Rhode Island","countyFips":"003","facilityCarried":"LINCOLN AV","featuresIntersected":"PAWTUXET RIVER N BRANCH","location":"0.1 Mi E of JCT MAIN ST","lat":42.451111,"lon":-71.773333,"lowestRating":4,"yearBuilt":1919,"adt":1756,"conditionCategory":"poor","structurallyDeficient":true,"materialName":"Steel","designTypeName":"Stringer/Multi-beam or Girder","lengthFt":96.1},{"id":"RI-000000000006870","state":"RI","stateName":"Rhode Island","countyFips":"007","facilityCarried":"HARRISON AV","featuresIntersected":"P&W RR","location":"200ft N of JCT RI 122","lat":42.274444,"lon":-72.026944,"lowestRating":4,"yearBuilt":1913,"adt":1690,"conditionCategory":"poor","structurallyDeficient":true,"materialName":"Concrete","designTypeName":"Arch - Deck","lengthFt":57.4},{"id":"RI-000000000002670","state":"RI","stateName":"Rhode Island","countyFips":"007","facilityCarried":"MOOSUP VALLEY RD","featuresIntersected":"MOOSUP RIVER","location":"1.5 Mi W of JCT RI 14","lat":42.016944,"lon":-71.8425,"lowestRating":4,"yearBuilt":1950,"adt":1640,"conditionCategory":"poor","structurallyDeficient":true,"materialName":"Concrete Continuous","designTypeName":"Slab","lengthFt":58.1},{"id":"RI-000000000008270","state":"RI","stateName":"Rhode Island","countyFips":"003","facilityCarried":"ROCKY HOLLOW RD","featuresIntersected":"AMTRAK","location":"0.3 Mi E of JCT US 1","lat":42.159444,"lon":-71.567222,"lowestRating":4,"yearBuilt":1988,"adt":1534,"conditionCategory":"poor","structurallyDeficient":true,"materialName":"Prestressed Concrete","designTypeName":"Box Beam - Multiple","lengthFt":62.0},{"id":"RI-000000000009550","state":"RI","stateName":"Rhode Island","countyFips":"007","facilityCarried":"SINGLETON ST","featuresIntersected":"BLACKSTONE RIVER","location":"0.5 Mi S of Mass Line","lat":42.994444,"lon":-72.792778,"lowestRating":4,"yearBuilt":1958,"adt":1509,"conditionCategory":"poor","structurallyDeficient":true,"materialName":"Steel","designTypeName":"Truss - Thru","lengthFt":205.1},{"id":"RI-000000000005650","state":"RI","stateName":"Rhode Island","countyFips":"009","facilityCarried":"SILVER LAKE AV","featuresIntersected":"SAUGATUCKET RIVER","location":"0.6 Mi W of Woodruff Av","lat":41.4575,"lon":-71.725833,"lowestRating":4,"yearBuilt":1959,"adt":1461,"conditionCategory":"poor","structurallyDeficient":true,"materialName":"Steel","designTypeName":"Stringer/Multi-beam or Girder","lengthFt":70.9},{"id":"RI-000000000008430","state":"RI","stateName":"Rhode Island","countyFips":"003","facilityCarried":"MAPLE VALLEY RD","featuresIntersected":"FLAT RIVER","location":"0.3 Mi N of JCT RI 117","lat":43.148333,"lon":-71.877778,"lowestRating":4,"yearBuilt":1978,"adt":1386,"conditionCategory":"poor","structurallyDeficient":true,"materialName":"Steel","designTypeName":"Culvert","lengthFt":35.8},{"id":"RI-000000000008220","state":"RI","stateName":"Rhode Island","countyFips":"009","facilityCarried":"KINGS FACTORY RD","featuresIntersected":"AMTRAK","location":"0.8 Mi S of JCT RI 91","lat":41.621389,"lon":-73.241944,"lowestRating":4,"yearBuilt":1978,"adt":1191,"conditionCategory":"poor","structurallyDeficient":true,"materialName":"Prestressed Concrete","designTypeName":"Box Beam - Multiple","lengthFt":163.1},{"id":"RI-000000000001260","state":"RI","stateName":"Rhode Island","countyFips":"005","facilityCarried":"NANAQUAKET RD","featuresIntersected":"NANAQUAKET RIVER","location":"0.05 Mi W of JCT RI 77","lat":41.714722,"lon":-71.903333,"lowestRating":4,"yearBuilt":1958,"adt":1115,"conditionCategory":"poor","structurallyDeficient":true,"materialName":"Prestressed Concrete","designTypeName":"Box Beam - Multiple","lengthFt":182.1},{"id":"RI-000000000000500","state":"RI","stateName":"Rhode Island","countyFips":"009","facilityCarried":"LAUREL STREET","featuresIntersected":"ASHAWAY RIVER","location":"0.5 Mi W of JCT RI 3","lat":42.091667,"lon":-72.626389,"lowestRating":4,"yearBuilt":1900,"adt":1111,"conditionCategory":"poor","structurallyDeficient":true,"materialName":"Prestressed Concrete","designTypeName":"Box Beam - Multiple","lengthFt":56.4},{"id":"RI-000000000009430","state":"RI","stateName":"Rhode Island","countyFips":"007","facilityCarried":"CHURCH ST","featuresIntersected":"P&W RR","location":"0.1 Mi E of JCT RI 114","lat":42.654722,"lon":-72.257778,"lowestRating":4,"yearBuilt":1882,"adt":1111,"conditionCategory":"poor","structurallyDeficient":true,"materialName":"Steel","designTypeName":"Truss - Thru","lengthFt":108.6},{"id":"RI-000000000009160","state":"RI","stateName":"Rhode Island","countyFips":"007","facilityCarried":"BARTON ST","featuresIntersected":"AMTRAK & P&W RR","location":"@ INT of Broad St","lat":43.462778,"lon":-71.681389,"lowestRating":4,"yearBuilt":1915,"adt":1010,"conditionCategory":"poor","structurallyDeficient":true,"materialName":"Steel","designTypeName":"Stringer/Multi-beam or Girder","lengthFt":118.1},{"id":"RI-000000000000580","state":"RI","stateName":"Rhode Island","countyFips":"009","facilityCarried":"SHANNOCK RD","featuresIntersected":"PAWCATUCK RIVER","location":"1.0 Mi S of JCT RI 91","lat":42.913611,"lon":-72.7725,"lowestRating":4,"yearBuilt":1926,"adt":830,"conditionCategory":"poor","structurallyDeficient":true,"materialName":"Concrete","designTypeName":"Slab","lengthFt":49.9},{"id":"RI-000000000003680","state":"RI","stateName":"Rhode Island","countyFips":"009","facilityCarried":"AUSTIN RD","featuresIntersected":"POTOWOMUT POND","location":"0.6 Mi E of JCT US 1","lat":41.908889,"lon":-72.237778,"lowestRating":4,"yearBuilt":1979,"adt":747,"conditionCategory":"poor","structurallyDeficient":true,"materialName":"Prestressed Concrete","designTypeName":"Slab","lengthFt":50.5},{"id":"RI-000000000003750","state":"RI","stateName":"Rhode Island","countyFips":"009","facilityCarried":"BURDICKVILLE RD","featuresIntersected":"PAWCATUCK RIVER","location":"0.5 Mi S of JCT RI 91","lat":43.021944,"lon":-72.941667,"lowestRating":4,"yearBuilt":1984,"adt":513,"conditionCategory":"poor","structurallyDeficient":true,"materialName":"Prestressed Concrete","designTypeName":"Box Beam - Multiple","lengthFt":89.9},{"id":"RI-000000000002220","state":"RI","stateName":"Rhode Island","countyFips":"007","facilityCarried":"LAUREL RIDGE","featuresIntersected":"CLEAR RIVER","location":"0.1 Mi E of JCT RI 100","lat":43.526667,"lon":-72.921389,"lowestRating":4,"yearBuilt":1946,"adt":300,"conditionCategory":"poor","structurallyDeficient":true,"materialName":"Steel","designTypeName":"Stringer/Multi-beam or Girder","lengthFt":25.9},{"id":"RI-000000000002990","state":"RI","stateName":"Rhode Island","countyFips":"009","facilityCarried":"NORTH SWITCH RD","featuresIntersected":"WOOD RIVER","location":"0.5 MI S of JCT RI 3","lat":41.78,"lon":-73.323333,"lowestRating":4,"yearBuilt":1930,"adt":233,"conditionCategory":"poor","structurallyDeficient":true,"materialName":"Wood or Timber","designTypeName":"Slab","lengthFt":58.7},{"id":"RI-000000000000480","state":"RI","stateName":"Rhode Island","countyFips":"009","facilityCarried":"NEW LONDON TRNPK","featuresIntersected":"ASHAWAY RIVER","location":"0.1 Mi E of CONN LINE","lat":42.428889,"lon":-73.075556,"lowestRating":4,"yearBuilt":1934,"adt":180,"conditionCategory":"poor","structurallyDeficient":true,"materialName":"Concrete","designTypeName":"Slab","lengthFt":60.0},{"id":"RI-000000000008790","state":"RI","stateName":"Rhode Island","countyFips":"007","facilityCarried":"MILL RD","featuresIntersected":"HEMLOCK BROOK","location":"0.5 Mi E of RI 94","lat":42.644722,"lon":-72.632778,"lowestRating":4,"yearBuilt":1950,"adt":73,"conditionCategory":"poor","structurallyDeficient":true,"materialName":"Steel","designTypeName":"Stringer/Multi-beam or Girder","lengthFt":26.9},{"id":"RI-000000000008460","state":"RI","stateName":"Rhode Island","countyFips":"003","facilityCarried":"NICHOLAS RD","featuresIntersected":"ROARING BROOK","location":"1.0 Mi W of JCT Lws Fm Rd","lat":43.138056,"lon":-72.292222,"lowestRating":4,"yearBuilt":1975,"adt":26,"conditionCategory":"poor","structurallyDeficient":true,"materialName":"Steel","designTypeName":"Stringer/Multi-beam or Girder","lengthFt":32.2},{"id":"RI-000000000007880","state":"RI","stateName":"Rhode Island","countyFips":"009","facilityCarried":"BARBER TRAIL","featuresIntersected":"FALLS RIVER","location":"EXTER-ARCADIA MGT AREA 9","lat":42.906944,"lon":-72.149444,"lowestRating":4,"yearBuilt":1960,"adt":17,"conditionCategory":"poor","structurallyDeficient":true,"materialName":"Steel","designTypeName":"Stringer/Multi-beam or Girder","lengthFt":32.2}],"mostTrafficked":[{"id":"RI-000000000005782","state":"RI","stateName":"Rhode Island","countyFips":"007","facilityCarried":"I-95 SB","featuresIntersected":"US 6 WOON RVR AMTRAK","location":"0.25 Mi N ATWELLS AV","lat":42.78,"lon":-71.66,"adt":236230,"yearBuilt":2016,"lowestRating":6,"conditionCategory":"fair","structurallyDeficient":false,"materialName":"Steel Continuous","designTypeName":"Stringer/Multi-beam or Girder","lengthFt":129.6},{"id":"RI-000000000008080","state":"RI","stateName":"Rhode Island","countyFips":"003","facilityCarried":"I-95 NB & SB","featuresIntersected":"HARDIG BROOK","location":"0.2 Mi N of JCT RI 117","lat":43.278333,"lon":-72.286111,"adt":174731,"yearBuilt":1965,"lowestRating":6,"conditionCategory":"fair","structurallyDeficient":false,"materialName":"Concrete","designTypeName":"Culvert","lengthFt":2.1},{"id":"RI-000000000007160","state":"RI","stateName":"Rhode Island","countyFips":"007","facilityCarried":"I-95 N  SERVICE RD","featuresIntersected":"MOSHASSUCK RIVER","location":"I-95 NB @ EXIT 24","lat":43.258333,"lon":-72.475278,"adt":172200,"yearBuilt":1964,"lowestRating":6,"conditionCategory":"fair","structurallyDeficient":false,"materialName":"Concrete","designTypeName":"Culvert","lengthFt":2.1},{"id":"RI-000000000006835","state":"RI","stateName":"Rhode Island","countyFips":"003","facilityCarried":"I-95 NB & SB","featuresIntersected":"RI 115 Toll Gate Road","location":"0.5 Mi N of JCT RI 117","lat":41.935556,"lon":-72.186111,"adt":170700,"yearBuilt":2020,"lowestRating":6,"conditionCategory":"fair","structurallyDeficient":false,"materialName":"Steel","designTypeName":"Stringer/Multi-beam or Girder","lengthFt":8.4},{"id":"RI-000000000005395","state":"RI","stateName":"Rhode Island","countyFips":"007","facilityCarried":"I-95 NB & SB","featuresIntersected":"BLACKSTONE ST","location":"AT JCT BLACKSTONE-ALLENS","lat":42.841667,"lon":-71.927778,"adt":167639,"yearBuilt":2018,"lowestRating":6,"conditionCategory":"fair","structurallyDeficient":false,"materialName":"Steel","designTypeName":"Stringer/Multi-beam or Girder","lengthFt":12.0},{"id":"RI-000000000010810","state":"RI","stateName":"Rhode Island","countyFips":"007","facilityCarried":"I-195 EB & WB","featuresIntersected":"ProvRiver SoMain&SoWater","location":"Providence exit 1","lat":43.334722,"lon":-71.584444,"adt":167300,"yearBuilt":2007,"lowestRating":7,"conditionCategory":"good","structurallyDeficient":false,"materialName":"Steel","designTypeName":"Arch - Thru","lengthFt":123.5},{"id":"RI-000000000010820","state":"RI","stateName":"Rhode Island","countyFips":"007","facilityCarried":"I-195 EB & WB","featuresIntersected":"South Main Street","location":"0.5 m east of I-95","lat":41.863611,"lon":-72.9225,"adt":167300,"yearBuilt":2008,"lowestRating":6,"conditionCategory":"fair","structurallyDeficient":false,"materialName":"Prestressed Concrete","designTypeName":"Box Beam - Multiple","lengthFt":4.9},{"id":"RI-000000000006845","state":"RI","stateName":"Rhode Island","countyFips":"003","facilityCarried":"I-95 NB & SB","featuresIntersected":"RI 117 CENTERVILLE RD","location":"1.0 Mi S of JCT RI 113","lat":43.100278,"lon":-72.341667,"adt":160000,"yearBuilt":2020,"lowestRating":7,"conditionCategory":"good","structurallyDeficient":false,"materialName":"Steel","designTypeName":"Stringer/Multi-beam or Girder","lengthFt":15.8},{"id":"RI-000000000006550","state":"RI","stateName":"Rhode Island","countyFips":"007","facilityCarried":"I-95 NB & SB","featuresIntersected":"THURBERS AV","location":"1.3 Mi S of JCT I-195","lat":41.855556,"lon":-71.691111,"adt":156790,"yearBuilt":1963,"lowestRating":4,"conditionCategory":"poor","structurallyDeficient":true,"materialName":"Steel","designTypeName":"Stringer/Multi-beam or Girder","lengthFt":14.5},{"id":"RI-000000000006510","state":"RI","stateName":"Rhode Island","countyFips":"007","facilityCarried":"I-95 NB & SB","featuresIntersected":"PUBLIC ST","location":"0.5 Mi S of Jct I-195","lat":42.588611,"lon":-71.903889,"adt":153626,"yearBuilt":1958,"lowestRating":5,"conditionCategory":"fair","structurallyDeficient":false,"materialName":"Prestressed Concrete","designTypeName":"Stringer/Multi-beam or Girder","lengthFt":6.6}]}